{
  "id": 3062,
  "name": "Kgatleng District",
  "state_code": "KL",
  "latitude": "-24.19704450",
  "longitude": "26.23046160",
  "type": null,
  "cities": [
    {
      "id": 15729,
      "name": "Bokaa",
      "latitude": "-24.45000000",
      "longitude": "26.01667000"
    },
    {
      "id": 15767,
      "name": "Mmathubudukwane",
      "latitude": "-24.60000000",
      "longitude": "26.43333000"
    },
    {
      "id": 15769,
      "name": "Mochudi",
      "latitude": "-24.41667000",
      "longitude": "26.15000000"
    },
    {
      "id": 15785,
      "name": "Pilane",
      "latitude": "-24.45000000",
      "longitude": "26.13333000"
    }
  ],
  "country": {
    "id": 29,
    "name": "Botswana",
    "iso3": "BWA",
    "iso2": "BW",
    "numeric_code": "072",
    "phone_code": "267",
    "capital": "Gaborone",
    "currency": "BWP",
    "currency_name": "Botswana pula",
    "currency_symbol": "P",
    "tld": ".bw",
    "native": "Botswana",
    "region": "Africa",
    "subregion": "Southern Africa",
    "timezones": [
      {
        "zoneName": "Africa/Gaborone",
        "gmtOffset": 7200,
        "gmtOffsetName": "UTC+02:00",
        "abbreviation": "CAT",
        "tzName": "Central Africa Time"
      }
    ],
    "translations": {
      "kr": "Î≥¥Ï∏†ÏôÄÎÇò",
      "pt-BR": "Botsuana",
      "pt": "Botsuana",
      "nl": "Botswana",
      "hr": "Bocvana",
      "fa": "ÿ®Ÿàÿ™ÿ≥ŸàÿßŸÜÿß",
      "de": "Botswana",
      "es": "Botswana",
      "fr": "Botswana",
      "ja": "„Éú„ÉÑ„ÉØ„Éä",
      "it": "Botswana",
      "cn": "ÂçöËå®Áì¶Á∫≥",
      "tr": "Botsvana"
    },
    "latitude": "-22.00000000",
    "longitude": "24.00000000",
    "emoji": "üáßüáº",
    "emojiU": "U+1F1E7 U+1F1FC"
  }
}