{
  "id": 3469,
  "name": "Guanajuato",
  "state_code": "GUA",
  "latitude": "21.01901450",
  "longitude": "-101.25735860",
  "type": "state",
  "cities": [
    {
      "id": 68015,
      "name": "Abasolo",
      "latitude": "20.44997000",
      "longitude": "-101.53073000"
    },
    {
      "id": 68087,
      "name": "Acámbaro",
      "latitude": "20.03085000",
      "longitude": "-100.72194000"
    },
    {
      "id": 68088,
      "name": "Adjuntas del Río",
      "latitude": "21.11667000",
      "longitude": "-100.86806000"
    },
    {
      "id": 68125,
      "name": "Aguas Buenas",
      "latitude": "20.97028000",
      "longitude": "-101.37250000"
    },
    {
      "id": 68181,
      "name": "Alcocer",
      "latitude": "20.86867000",
      "longitude": "-100.70456000"
    },
    {
      "id": 68185,
      "name": "Aldama",
      "latitude": "20.81641000",
      "longitude": "-101.31467000"
    },
    {
      "id": 68191,
      "name": "Alfaro",
      "latitude": "21.14941000",
      "longitude": "-101.60611000"
    },
    {
      "id": 68253,
      "name": "Ameche",
      "latitude": "20.55261000",
      "longitude": "-100.58367000"
    },
    {
      "id": 68296,
      "name": "Apaseo el Alto",
      "latitude": "20.45798000",
      "longitude": "-100.62081000"
    },
    {
      "id": 68297,
      "name": "Apaseo el Grande",
      "latitude": "20.54495000",
      "longitude": "-100.68462000"
    },
    {
      "id": 68329,
      "name": "Arandas",
      "latitude": "20.72468000",
      "longitude": "-101.37296000"
    },
    {
      "id": 68392,
      "name": "Atarjea",
      "latitude": "21.26777000",
      "longitude": "-99.71914000"
    },
    {
      "id": 68505,
      "name": "Bajío de Bonillas",
      "latitude": "20.94944000",
      "longitude": "-101.49528000"
    },
    {
      "id": 68523,
      "name": "Barretos",
      "latitude": "20.93933000",
      "longitude": "-101.64282000"
    },
    {
      "id": 68543,
      "name": "Barrio de Guadalupe del Mezquitillo",
      "latitude": "20.94417000",
      "longitude": "-101.80083000"
    },
    {
      "id": 68562,
      "name": "Barrón",
      "latitude": "20.67667000",
      "longitude": "-101.08423000"
    },
    {
      "id": 68640,
      "name": "Boquillas",
      "latitude": "20.41642000",
      "longitude": "-101.43333000"
    },
    {
      "id": 68681,
      "name": "Buenavista de Cortés",
      "latitude": "20.37326000",
      "longitude": "-101.87021000"
    },
    {
      "id": 68733,
      "name": "Caleras de Ameche",
      "latitude": "20.56133000",
      "longitude": "-100.56013000"
    },
    {
      "id": 68754,
      "name": "Calzada del Tepozán",
      "latitude": "20.73762000",
      "longitude": "-101.88299000"
    },
    {
      "id": 68874,
      "name": "Cañada de Bustos",
      "latitude": "20.90436000",
      "longitude": "-101.31260000"
    },
    {
      "id": 68875,
      "name": "Cañada de Caracheo",
      "latitude": "20.37552000",
      "longitude": "-100.94549000"
    },
    {
      "id": 68879,
      "name": "Cañada de Negros",
      "latitude": "20.92636000",
      "longitude": "-101.92115000"
    },
    {
      "id": 68813,
      "name": "Capulín de Bustos",
      "latitude": "20.88242000",
      "longitude": "-101.30680000"
    },
    {
      "id": 69660,
      "name": "Cárdenas",
      "latitude": "20.63012000",
      "longitude": "-101.22040000"
    },
    {
      "id": 68842,
      "name": "Carrizal Grande",
      "latitude": "20.70634000",
      "longitude": "-101.30600000"
    },
    {
      "id": 68891,
      "name": "Celaya",
      "latitude": "20.52353000",
      "longitude": "-100.81570000"
    },
    {
      "id": 68899,
      "name": "Centro Familiar la Soledad",
      "latitude": "21.13500000",
      "longitude": "-101.74972000"
    },
    {
      "id": 68904,
      "name": "Cerano",
      "latitude": "20.10877000",
      "longitude": "-101.38710000"
    },
    {
      "id": 68910,
      "name": "Cerrito de Gasca",
      "latitude": "20.61829000",
      "longitude": "-101.06200000"
    },
    {
      "id": 68915,
      "name": "Cerritos",
      "latitude": "20.88552000",
      "longitude": "-100.59880000"
    },
    {
      "id": 68923,
      "name": "Cerro Colorado",
      "latitude": "20.40111000",
      "longitude": "-101.32451000"
    },
    {
      "id": 68928,
      "name": "Cerro Gordo",
      "latitude": "20.59294000",
      "longitude": "-101.12684000"
    },
    {
      "id": 68971,
      "name": "Chamácuaro",
      "latitude": "20.10444000",
      "longitude": "-100.82756000"
    },
    {
      "id": 68997,
      "name": "Charco de Pantoja",
      "latitude": "20.38949000",
      "longitude": "-101.35436000"
    },
    {
      "id": 69029,
      "name": "Chichimequillas",
      "latitude": "21.03716000",
      "longitude": "-101.44274000"
    },
    {
      "id": 69094,
      "name": "Chirimoya (Estación Chirimoya)",
      "latitude": "21.59278000",
      "longitude": "-101.09139000"
    },
    {
      "id": 69124,
      "name": "Churipitzeo",
      "latitude": "20.41185000",
      "longitude": "-101.74206000"
    },
    {
      "id": 69129,
      "name": "Cieneguilla",
      "latitude": "21.24833000",
      "longitude": "-100.27389000"
    },
    {
      "id": 69168,
      "name": "Ciudad Manuel Doblado",
      "latitude": "20.72888000",
      "longitude": "-101.95226000"
    },
    {
      "id": 69205,
      "name": "Coachiti",
      "latitude": "20.55944000",
      "longitude": "-100.58944000"
    },
    {
      "id": 69264,
      "name": "Colonia 18 de Marzo",
      "latitude": "20.55556000",
      "longitude": "-101.03556000"
    },
    {
      "id": 69302,
      "name": "Colonia Fraccionamiento el Puente",
      "latitude": "20.52361000",
      "longitude": "-100.89667000"
    },
    {
      "id": 69304,
      "name": "Colonia Francisco Javier Mina",
      "latitude": "20.97944000",
      "longitude": "-101.41639000"
    },
    {
      "id": 69393,
      "name": "Colonia la Calzada (La Olla)",
      "latitude": "20.50278000",
      "longitude": "-100.95889000"
    },
    {
      "id": 69319,
      "name": "Colonia Latinoamericana",
      "latitude": "21.03028000",
      "longitude": "-101.70583000"
    },
    {
      "id": 69332,
      "name": "Colonia Morelos",
      "latitude": "20.36832000",
      "longitude": "-101.89937000"
    },
    {
      "id": 69336,
      "name": "Colonia Morelos de Guadalupe de Rivera",
      "latitude": "20.59556000",
      "longitude": "-101.44833000"
    },
    {
      "id": 69341,
      "name": "Colonia Nuevo México",
      "latitude": "20.98475000",
      "longitude": "-101.48502000"
    },
    {
      "id": 69345,
      "name": "Colonia Padre Hidalgo",
      "latitude": "21.17056000",
      "longitude": "-100.93556000"
    },
    {
      "id": 69349,
      "name": "Colonia Patria Nueva",
      "latitude": "20.52833000",
      "longitude": "-100.87944000"
    },
    {
      "id": 69350,
      "name": "Colonia Pedro María Anaya",
      "latitude": "20.52611000",
      "longitude": "-100.87778000"
    },
    {
      "id": 69353,
      "name": "Colonia Rafael Corrales Ayala",
      "latitude": "20.90194000",
      "longitude": "-101.51611000"
    },
    {
      "id": 69367,
      "name": "Colonia San Luis Rey",
      "latitude": "20.93556000",
      "longitude": "-100.73611000"
    },
    {
      "id": 69421,
      "name": "Comanjilla",
      "latitude": "21.06510000",
      "longitude": "-101.47303000"
    },
    {
      "id": 69428,
      "name": "Comonfort",
      "latitude": "20.72278000",
      "longitude": "-100.75946000"
    },
    {
      "id": 69482,
      "name": "Coroneo",
      "latitude": "20.20001000",
      "longitude": "-100.36546000"
    },
    {
      "id": 69488,
      "name": "Corral de Piedras de Arriba",
      "latitude": "20.97577000",
      "longitude": "-100.59474000"
    },
    {
      "id": 69490,
      "name": "Corralejo de Arriba",
      "latitude": "20.89667000",
      "longitude": "-100.65444000"
    },
    {
      "id": 69494,
      "name": "Cortazar",
      "latitude": "20.48362000",
      "longitude": "-100.96237000"
    },
    {
      "id": 69565,
      "name": "Cuarta Brigada",
      "latitude": "20.62194000",
      "longitude": "-101.28001000"
    },
    {
      "id": 69605,
      "name": "Cuchicuato",
      "latitude": "20.66092000",
      "longitude": "-101.46203000"
    },
    {
      "id": 69616,
      "name": "Cuerámaro",
      "latitude": "20.62546000",
      "longitude": "-101.67242000"
    },
    {
      "id": 69620,
      "name": "Cuesta de Peñones",
      "latitude": "21.08400000",
      "longitude": "-100.23671000"
    },
    {
      "id": 69642,
      "name": "Cupareo",
      "latitude": "20.22876000",
      "longitude": "-101.01806000"
    },
    {
      "id": 69670,
      "name": "De Parral",
      "latitude": "20.45611000",
      "longitude": "-101.00778000"
    },
    {
      "id": 69674,
      "name": "Delgado de Abajo",
      "latitude": "20.71749000",
      "longitude": "-100.89338000"
    },
    {
      "id": 69675,
      "name": "Delgado de Arriba",
      "latitude": "20.72222000",
      "longitude": "-100.90080000"
    },
    {
      "id": 69680,
      "name": "Derramadero Segundo (Infiernillo)",
      "latitude": "21.09750000",
      "longitude": "-100.51417000"
    },
    {
      "id": 69699,
      "name": "Doctor Mora",
      "latitude": "21.14246000",
      "longitude": "-100.31966000"
    },
    {
      "id": 69706,
      "name": "Dolores Hidalgo Cuna de la Independencia Nacional",
      "latitude": "21.15611000",
      "longitude": "-100.93250000"
    },
    {
      "id": 69710,
      "name": "Don Diego",
      "latitude": "20.69791000",
      "longitude": "-100.90209000"
    },
    {
      "id": 69711,
      "name": "Don Francisco",
      "latitude": "20.90281000",
      "longitude": "-100.91873000"
    },
    {
      "id": 69730,
      "name": "Duarte",
      "latitude": "21.08712000",
      "longitude": "-101.52431000"
    },
    {
      "id": 69769,
      "name": "Ejido Jesús María",
      "latitude": "21.14194000",
      "longitude": "-100.91167000"
    },
    {
      "id": 69814,
      "name": "Ejido la Joya",
      "latitude": "21.14325000",
      "longitude": "-101.73922000"
    },
    {
      "id": 69823,
      "name": "El Acebuche",
      "latitude": "20.22311000",
      "longitude": "-100.74196000"
    },
    {
      "id": 69860,
      "name": "El Canario",
      "latitude": "20.15694000",
      "longitude": "-101.33556000"
    },
    {
      "id": 69865,
      "name": "El Capulín",
      "latitude": "21.04043000",
      "longitude": "-100.32220000"
    },
    {
      "id": 69868,
      "name": "El Caracol",
      "latitude": "20.56718000",
      "longitude": "-100.98290000"
    },
    {
      "id": 69872,
      "name": "El Carmen",
      "latitude": "20.64009000",
      "longitude": "-101.37259000"
    },
    {
      "id": 69880,
      "name": "El Carretón",
      "latitude": "21.63045000",
      "longitude": "-100.98064000"
    },
    {
      "id": 69883,
      "name": "El Carrizalito",
      "latitude": "20.70371000",
      "longitude": "-101.32439000"
    },
    {
      "id": 69887,
      "name": "El Castillo",
      "latitude": "20.58072000",
      "longitude": "-100.49297000"
    },
    {
      "id": 69852,
      "name": "El CERESO",
      "latitude": "21.02222000",
      "longitude": "-101.68917000"
    },
    {
      "id": 69901,
      "name": "El Chinaco (El Pujido)",
      "latitude": "20.52222000",
      "longitude": "-100.91972000"
    },
    {
      "id": 69909,
      "name": "El Coecillo",
      "latitude": "20.97651000",
      "longitude": "-101.45010000"
    },
    {
      "id": 69925,
      "name": "El Copalillo",
      "latitude": "20.72745000",
      "longitude": "-101.34570000"
    },
    {
      "id": 69944,
      "name": "El Divisador",
      "latitude": "20.57722000",
      "longitude": "-101.15806000"
    },
    {
      "id": 69957,
      "name": "El Escoplo",
      "latitude": "20.91004000",
      "longitude": "-101.51127000"
    },
    {
      "id": 69959,
      "name": "El Espejo",
      "latitude": "20.44094000",
      "longitude": "-100.55417000"
    },
    {
      "id": 69968,
      "name": "El Fresno",
      "latitude": "20.27322000",
      "longitude": "-100.49154000"
    },
    {
      "id": 69975,
      "name": "El Gallinero",
      "latitude": "21.18208000",
      "longitude": "-100.95996000"
    },
    {
      "id": 69992,
      "name": "El Huizache",
      "latitude": "20.41934000",
      "longitude": "-100.95978000"
    },
    {
      "id": 69997,
      "name": "El Jaguey",
      "latitude": "20.91499000",
      "longitude": "-101.63426000"
    },
    {
      "id": 70020,
      "name": "El Llanito",
      "latitude": "21.12143000",
      "longitude": "-100.95110000"
    },
    {
      "id": 70029,
      "name": "El Maguey",
      "latitude": "20.98035000",
      "longitude": "-101.84651000"
    },
    {
      "id": 70036,
      "name": "El Mezquitillo",
      "latitude": "20.96213000",
      "longitude": "-101.80857000"
    },
    {
      "id": 70049,
      "name": "El Moral",
      "latitude": "20.13030000",
      "longitude": "-101.28862000"
    },
    {
      "id": 70053,
      "name": "El Nacimiento",
      "latitude": "20.53596000",
      "longitude": "-100.61017000"
    },
    {
      "id": 70054,
      "name": "El Naranjillo",
      "latitude": "20.71417000",
      "longitude": "-101.00056000"
    },
    {
      "id": 70102,
      "name": "El Picacho",
      "latitude": "20.71016000",
      "longitude": "-100.63704000"
    },
    {
      "id": 70141,
      "name": "El Puesto",
      "latitude": "20.46890000",
      "longitude": "-100.82763000"
    },
    {
      "id": 70149,
      "name": "El Recuerdo de Ancón (Xoconoxtle de Arriba)",
      "latitude": "20.63806000",
      "longitude": "-101.12694000"
    },
    {
      "id": 70156,
      "name": "El Refugio de los Sauces",
      "latitude": "21.01488000",
      "longitude": "-101.53084000"
    },
    {
      "id": 70181,
      "name": "El Sabino",
      "latitude": "20.28131000",
      "longitude": "-101.00224000"
    },
    {
      "id": 70192,
      "name": "El Salto de Espejo",
      "latitude": "20.45045000",
      "longitude": "-100.50587000"
    },
    {
      "id": 70195,
      "name": "El Salvador (Ranchito San José del Carmen)",
      "latitude": "20.28750000",
      "longitude": "-100.87722000"
    },
    {
      "id": 70201,
      "name": "El Sauz (El Sauz de Villaseñor)",
      "latitude": "20.41056000",
      "longitude": "-100.79667000"
    },
    {
      "id": 70212,
      "name": "El Tecolote",
      "latitude": "20.88407000",
      "longitude": "-101.92432000"
    },
    {
      "id": 70216,
      "name": "El Tejocote (El Domingo)",
      "latitude": "21.67611000",
      "longitude": "-100.91500000"
    },
    {
      "id": 70245,
      "name": "El Tunal",
      "latitude": "20.56944000",
      "longitude": "-100.61995000"
    },
    {
      "id": 70248,
      "name": "El Varal",
      "latitude": "20.34845000",
      "longitude": "-101.60028000"
    },
    {
      "id": 70257,
      "name": "El Vicarlo",
      "latitude": "20.58211000",
      "longitude": "-100.67120000"
    },
    {
      "id": 70261,
      "name": "El Zapote",
      "latitude": "21.73563000",
      "longitude": "-101.04905000"
    },
    {
      "id": 70299,
      "name": "Empalme Escobedo",
      "latitude": "20.67250000",
      "longitude": "-100.74675000"
    },
    {
      "id": 70341,
      "name": "Estación Corralejo",
      "latitude": "20.47000000",
      "longitude": "-101.61639000"
    },
    {
      "id": 70360,
      "name": "Estación de San Francisco",
      "latitude": "21.03722000",
      "longitude": "-101.82472000"
    },
    {
      "id": 70344,
      "name": "Estación Joaquín",
      "latitude": "20.56082000",
      "longitude": "-101.51993000"
    },
    {
      "id": 70361,
      "name": "Estación la Piedad",
      "latitude": "20.36750000",
      "longitude": "-101.99806000"
    },
    {
      "id": 70350,
      "name": "Estación Pénjamo",
      "latitude": "20.39470000",
      "longitude": "-101.69188000"
    },
    {
      "id": 70364,
      "name": "Estancia del Llano",
      "latitude": "20.51101000",
      "longitude": "-100.72637000"
    },
    {
      "id": 70367,
      "name": "Estanzuela de Romero",
      "latitude": "20.18477000",
      "longitude": "-100.50448000"
    },
    {
      "id": 70372,
      "name": "Estrada",
      "latitude": "20.52918000",
      "longitude": "-100.86550000"
    },
    {
      "id": 70384,
      "name": "Ex-Hacienda del Copal",
      "latitude": "20.74083000",
      "longitude": "-101.33528000"
    },
    {
      "id": 70499,
      "name": "Fábrica de Melchor",
      "latitude": "21.67223000",
      "longitude": "-100.90171000"
    },
    {
      "id": 70451,
      "name": "Fraccionamiento la Mezquitera",
      "latitude": "21.00972000",
      "longitude": "-101.83472000"
    },
    {
      "id": 70456,
      "name": "Fraccionamiento las Liebres",
      "latitude": "20.64750000",
      "longitude": "-101.39556000"
    },
    {
      "id": 70431,
      "name": "Fraccionamiento Paraíso Real",
      "latitude": "21.11250000",
      "longitude": "-101.58083000"
    },
    {
      "id": 70432,
      "name": "Fraccionamiento Paseo de las Torres",
      "latitude": "21.16833000",
      "longitude": "-101.75806000"
    },
    {
      "id": 70433,
      "name": "Fraccionamiento Praderas de la Venta",
      "latitude": "20.53611000",
      "longitude": "-101.00000000"
    },
    {
      "id": 70445,
      "name": "Fraccionamiento Villa Jardín",
      "latitude": "20.99167000",
      "longitude": "-101.85194000"
    },
    {
      "id": 70446,
      "name": "Fraccionamiento Villas de Guanajuato",
      "latitude": "20.96028000",
      "longitude": "-101.29806000"
    },
    {
      "id": 70485,
      "name": "Franco",
      "latitude": "20.94327000",
      "longitude": "-101.46180000"
    },
    {
      "id": 70486,
      "name": "Franco Tavera",
      "latitude": "20.60595000",
      "longitude": "-100.92700000"
    },
    {
      "id": 70495,
      "name": "Frías",
      "latitude": "20.79945000",
      "longitude": "-101.99644000"
    },
    {
      "id": 70505,
      "name": "Gachupines",
      "latitude": "21.76259000",
      "longitude": "-101.56247000"
    },
    {
      "id": 70513,
      "name": "Galerade Panales",
      "latitude": "20.29452000",
      "longitude": "-100.81452000"
    },
    {
      "id": 70521,
      "name": "Gasca",
      "latitude": "20.60444000",
      "longitude": "-100.85639000"
    },
    {
      "id": 70522,
      "name": "Gavia de Rionda",
      "latitude": "20.83357000",
      "longitude": "-101.61647000"
    },
    {
      "id": 70574,
      "name": "Guadalupe",
      "latitude": "21.71644000",
      "longitude": "-100.97645000"
    },
    {
      "id": 70609,
      "name": "Guadalupe de Paso Blanco",
      "latitude": "20.75498000",
      "longitude": "-101.40345000"
    },
    {
      "id": 70610,
      "name": "Guadalupe de Rivera",
      "latitude": "20.60499000",
      "longitude": "-101.46745000"
    },
    {
      "id": 70611,
      "name": "Guadalupe de Tambula",
      "latitude": "20.86645000",
      "longitude": "-100.57620000"
    },
    {
      "id": 70612,
      "name": "Guadalupe del Monte",
      "latitude": "20.55688000",
      "longitude": "-100.64064000"
    },
    {
      "id": 70618,
      "name": "Guanajuato",
      "latitude": "21.01858000",
      "longitude": "-101.25910000"
    },
    {
      "id": 70650,
      "name": "Hacienda Arriba",
      "latitude": "21.23366000",
      "longitude": "-101.70393000"
    },
    {
      "id": 70659,
      "name": "Hacienda de la Bolsa",
      "latitude": "20.37524000",
      "longitude": "-101.10425000"
    },
    {
      "id": 70658,
      "name": "Hacienda de Márquez",
      "latitude": "20.78037000",
      "longitude": "-101.35979000"
    },
    {
      "id": 70712,
      "name": "Hoya de Cintora (La Hoya de Arriba)",
      "latitude": "20.36444000",
      "longitude": "-101.20833000"
    },
    {
      "id": 70734,
      "name": "Huanímaro",
      "latitude": "20.36783000",
      "longitude": "-101.49869000"
    },
    {
      "id": 70803,
      "name": "Huitzatarito",
      "latitude": "20.49213000",
      "longitude": "-101.57064000"
    },
    {
      "id": 70832,
      "name": "Ibarrilla",
      "latitude": "21.18664000",
      "longitude": "-101.64576000"
    },
    {
      "id": 70880,
      "name": "Irámuco",
      "latitude": "19.96156000",
      "longitude": "-100.92202000"
    },
    {
      "id": 70876,
      "name": "Irapuato",
      "latitude": "20.67675000",
      "longitude": "-101.35628000"
    },
    {
      "id": 70982,
      "name": "Jalpilla",
      "latitude": "20.73129000",
      "longitude": "-100.72090000"
    },
    {
      "id": 70995,
      "name": "Jamaica",
      "latitude": "21.14364000",
      "longitude": "-100.73430000"
    },
    {
      "id": 71004,
      "name": "Jaral del Progreso",
      "latitude": "20.37237000",
      "longitude": "-101.06249000"
    },
    {
      "id": 71013,
      "name": "Jauregui",
      "latitude": "20.59280000",
      "longitude": "-100.71940000"
    },
    {
      "id": 71021,
      "name": "Jerécuaro",
      "latitude": "20.15467000",
      "longitude": "-100.50860000"
    },
    {
      "id": 71038,
      "name": "Jesús del Monte",
      "latitude": "20.91504000",
      "longitude": "-101.74129000"
    },
    {
      "id": 71149,
      "name": "Jícamas",
      "latitude": "20.27602000",
      "longitude": "-101.35916000"
    },
    {
      "id": 71066,
      "name": "Jocoqui",
      "latitude": "20.58201000",
      "longitude": "-100.69870000"
    },
    {
      "id": 71123,
      "name": "Juan Martín",
      "latitude": "20.47301000",
      "longitude": "-100.74691000"
    },
    {
      "id": 71144,
      "name": "Juventino Rosas",
      "latitude": "20.64337000",
      "longitude": "-100.99286000"
    },
    {
      "id": 71170,
      "name": "La Aldea",
      "latitude": "20.90166000",
      "longitude": "-101.47852000"
    },
    {
      "id": 71174,
      "name": "La Angostura",
      "latitude": "20.27733000",
      "longitude": "-101.11005000"
    },
    {
      "id": 71178,
      "name": "La Aurora",
      "latitude": "20.62667000",
      "longitude": "-100.75750000"
    },
    {
      "id": 71189,
      "name": "La Caja",
      "latitude": "20.71146000",
      "longitude": "-101.43769000"
    },
    {
      "id": 71190,
      "name": "La Calera",
      "latitude": "20.80119000",
      "longitude": "-101.33207000"
    },
    {
      "id": 71203,
      "name": "La Capilla",
      "latitude": "20.55655000",
      "longitude": "-101.30019000"
    },
    {
      "id": 71216,
      "name": "La Ciénega",
      "latitude": "21.30050000",
      "longitude": "-100.48027000"
    },
    {
      "id": 71214,
      "name": "La Cieneguita",
      "latitude": "20.94630000",
      "longitude": "-100.78966000"
    },
    {
      "id": 71224,
      "name": "La Compañía",
      "latitude": "20.37760000",
      "longitude": "-101.15852000"
    },
    {
      "id": 71251,
      "name": "La Cruz",
      "latitude": "20.45694000",
      "longitude": "-100.79583000"
    },
    {
      "id": 71252,
      "name": "La Cruz del Palmar",
      "latitude": "20.96973000",
      "longitude": "-100.84354000"
    },
    {
      "id": 71255,
      "name": "La Cuevita",
      "latitude": "20.33872000",
      "longitude": "-100.57891000"
    },
    {
      "id": 71262,
      "name": "La Ermita",
      "latitude": "21.15194000",
      "longitude": "-101.73306000"
    },
    {
      "id": 71266,
      "name": "La Escondida",
      "latitude": "21.68723000",
      "longitude": "-101.53446000"
    },
    {
      "id": 71285,
      "name": "La Estancia de San José del Carmen",
      "latitude": "20.29555000",
      "longitude": "-100.86083000"
    },
    {
      "id": 71288,
      "name": "La Estrella",
      "latitude": "20.39050000",
      "longitude": "-101.92109000"
    },
    {
      "id": 71299,
      "name": "La Gavia",
      "latitude": "20.39431000",
      "longitude": "-100.88122000"
    },
    {
      "id": 71334,
      "name": "La Joya de Calvillo",
      "latitude": "20.74883000",
      "longitude": "-101.60847000"
    },
    {
      "id": 71338,
      "name": "La Labor",
      "latitude": "20.53388000",
      "longitude": "-100.70200000"
    },
    {
      "id": 71341,
      "name": "La Laborcita",
      "latitude": "21.10636000",
      "longitude": "-101.55170000"
    },
    {
      "id": 71350,
      "name": "La Laja",
      "latitude": "20.52946000",
      "longitude": "-100.76170000"
    },
    {
      "id": 71362,
      "name": "La Lobera",
      "latitude": "20.35815000",
      "longitude": "-101.54030000"
    },
    {
      "id": 71376,
      "name": "La Luz",
      "latitude": "20.55386000",
      "longitude": "-101.18097000"
    },
    {
      "id": 71402,
      "name": "La Moncada",
      "latitude": "20.28348000",
      "longitude": "-100.80502000"
    },
    {
      "id": 71409,
      "name": "La Norita",
      "latitude": "20.55409000",
      "longitude": "-100.51660000"
    },
    {
      "id": 71412,
      "name": "La Ordeña",
      "latitude": "20.68988000",
      "longitude": "-101.11830000"
    },
    {
      "id": 71415,
      "name": "La Ortiga",
      "latitude": "19.96222000",
      "longitude": "-101.00056000"
    },
    {
      "id": 71421,
      "name": "La Palma",
      "latitude": "20.51560000",
      "longitude": "-100.69787000"
    },
    {
      "id": 71429,
      "name": "La Palmita (La Palmita de San Gabriel)",
      "latitude": "20.49806000",
      "longitude": "-100.87806000"
    },
    {
      "id": 71470,
      "name": "La Purísima",
      "latitude": "20.51444000",
      "longitude": "-100.67250000"
    },
    {
      "id": 71481,
      "name": "La Sabana",
      "latitude": "21.19956000",
      "longitude": "-100.68956000"
    },
    {
      "id": 71484,
      "name": "La Sardina",
      "latitude": "20.88118000",
      "longitude": "-101.66440000"
    },
    {
      "id": 71485,
      "name": "La Sauceda",
      "latitude": "20.89831000",
      "longitude": "-101.19124000"
    },
    {
      "id": 71491,
      "name": "La Soledad",
      "latitude": "20.60792000",
      "longitude": "-101.41558000"
    },
    {
      "id": 71504,
      "name": "La Tinaja",
      "latitude": "20.49028000",
      "longitude": "-101.21556000"
    },
    {
      "id": 71511,
      "name": "La Trinidad",
      "latitude": "20.56333000",
      "longitude": "-100.78361000"
    },
    {
      "id": 71539,
      "name": "Labor de Peralta",
      "latitude": "20.40885000",
      "longitude": "-101.40901000"
    },
    {
      "id": 71544,
      "name": "Ladrilleras del Refugio",
      "latitude": "21.08472000",
      "longitude": "-101.55361000"
    },
    {
      "id": 71552,
      "name": "Laguna de Guadalupe",
      "latitude": "21.80046000",
      "longitude": "-101.35689000"
    },
    {
      "id": 71548,
      "name": "Laguna Larga",
      "latitude": "20.54131000",
      "longitude": "-101.48451000"
    },
    {
      "id": 71549,
      "name": "Laguna Larga de Cortés",
      "latitude": "20.39270000",
      "longitude": "-101.94062000"
    },
    {
      "id": 71570,
      "name": "Landín",
      "latitude": "20.75392000",
      "longitude": "-100.90592000"
    },
    {
      "id": 71657,
      "name": "Las Ánimas",
      "latitude": "20.39709000",
      "longitude": "-101.79964000"
    },
    {
      "id": 71584,
      "name": "Las Cañas",
      "latitude": "20.29586000",
      "longitude": "-101.41823000"
    },
    {
      "id": 71605,
      "name": "Las Huertas Tercera Sección",
      "latitude": "20.65278000",
      "longitude": "-101.39306000"
    },
    {
      "id": 71610,
      "name": "Las Liebres",
      "latitude": "20.83532000",
      "longitude": "-101.47062000"
    },
    {
      "id": 71620,
      "name": "Las Masas (La Luz Masas)",
      "latitude": "20.59917000",
      "longitude": "-101.54278000"
    },
    {
      "id": 71646,
      "name": "Las Trojas",
      "latitude": "20.71111000",
      "longitude": "-100.78083000"
    },
    {
      "id": 71666,
      "name": "León",
      "latitude": "21.09309000",
      "longitude": "-101.64501000"
    },
    {
      "id": 71668,
      "name": "León de los Aldama",
      "latitude": "21.12908000",
      "longitude": "-101.67374000"
    },
    {
      "id": 71701,
      "name": "Lo de Juárez",
      "latitude": "20.76833000",
      "longitude": "-101.34111000"
    },
    {
      "id": 71735,
      "name": "Loma de la Esperanza",
      "latitude": "20.65927000",
      "longitude": "-101.55670000"
    },
    {
      "id": 71733,
      "name": "Loma de Yerbabuena",
      "latitude": "21.06056000",
      "longitude": "-101.44944000"
    },
    {
      "id": 71734,
      "name": "Loma de Zempoala",
      "latitude": "20.29182000",
      "longitude": "-101.08023000"
    },
    {
      "id": 71723,
      "name": "Loma Pelada",
      "latitude": "20.57222000",
      "longitude": "-101.29417000"
    },
    {
      "id": 71724,
      "name": "Loma Tendida",
      "latitude": "20.37560000",
      "longitude": "-101.31057000"
    },
    {
      "id": 71871,
      "name": "Los Ángeles",
      "latitude": "20.55361000",
      "longitude": "-100.94167000"
    },
    {
      "id": 71772,
      "name": "Los Arcos",
      "latitude": "21.04928000",
      "longitude": "-101.68864000"
    },
    {
      "id": 71796,
      "name": "Los Desmontes",
      "latitude": "19.95662000",
      "longitude": "-100.73917000"
    },
    {
      "id": 71798,
      "name": "Los Dolores (Las Quince Letras)",
      "latitude": "21.31778000",
      "longitude": "-100.56583000"
    },
    {
      "id": 71799,
      "name": "Los Dulces Nombres",
      "latitude": "20.64806000",
      "longitude": "-100.96472000"
    },
    {
      "id": 71801,
      "name": "Los Fierros",
      "latitude": "20.19353000",
      "longitude": "-100.75941000"
    },
    {
      "id": 71802,
      "name": "Los Galvan",
      "latitude": "21.06377000",
      "longitude": "-100.80114000"
    },
    {
      "id": 71812,
      "name": "Los Lorenzos",
      "latitude": "21.07229000",
      "longitude": "-101.37580000"
    },
    {
      "id": 71813,
      "name": "Los Mancera",
      "latitude": "20.47028000",
      "longitude": "-100.80389000"
    },
    {
      "id": 71815,
      "name": "Los Medranos",
      "latitude": "20.88283000",
      "longitude": "-101.43640000"
    },
    {
      "id": 71822,
      "name": "Los Nicolases",
      "latitude": "20.85806000",
      "longitude": "-101.31750000"
    },
    {
      "id": 71824,
      "name": "Los Ocotes",
      "latitude": "20.41560000",
      "longitude": "-101.96108000"
    },
    {
      "id": 71838,
      "name": "Los Prietos",
      "latitude": "20.57513000",
      "longitude": "-101.26574000"
    },
    {
      "id": 71841,
      "name": "Los Ramírez",
      "latitude": "21.01942000",
      "longitude": "-101.64411000"
    },
    {
      "id": 71843,
      "name": "Los Remedios",
      "latitude": "21.18492000",
      "longitude": "-100.19919000"
    },
    {
      "id": 71855,
      "name": "Los Rodríguez",
      "latitude": "21.04311000",
      "longitude": "-100.64361000"
    },
    {
      "id": 71876,
      "name": "Loza de Barrera",
      "latitude": "20.98461000",
      "longitude": "-101.52972000"
    },
    {
      "id": 71877,
      "name": "Loza de los Padres",
      "latitude": "21.07181000",
      "longitude": "-101.54603000"
    },
    {
      "id": 71879,
      "name": "Lucio Blanco (Los Gavilanes)",
      "latitude": "21.11528000",
      "longitude": "-101.55111000"
    },
    {
      "id": 71933,
      "name": "Magdalena de Araceo",
      "latitude": "20.30935000",
      "longitude": "-101.17861000"
    },
    {
      "id": 71944,
      "name": "Malagana (San Antonio del Monte)",
      "latitude": "21.04670000",
      "longitude": "-101.75350000"
    },
    {
      "id": 71959,
      "name": "Manuel Doblado",
      "latitude": "20.72085000",
      "longitude": "-101.85600000"
    },
    {
      "id": 71980,
      "name": "Maravatío del Encinal",
      "latitude": "20.20513000",
      "longitude": "-100.96211000"
    },
    {
      "id": 71989,
      "name": "Marfil",
      "latitude": "20.99165000",
      "longitude": "-101.28434000"
    },
    {
      "id": 71999,
      "name": "Marroquín",
      "latitude": "20.51138000",
      "longitude": "-100.55946000"
    },
    {
      "id": 72065,
      "name": "Medina",
      "latitude": "21.14972000",
      "longitude": "-101.62250000"
    },
    {
      "id": 72066,
      "name": "Medio Sitio",
      "latitude": "20.86948000",
      "longitude": "-101.35689000"
    },
    {
      "id": 72074,
      "name": "Menores",
      "latitude": "20.92028000",
      "longitude": "-101.39500000"
    },
    {
      "id": 72078,
      "name": "Merino",
      "latitude": "20.49424000",
      "longitude": "-100.88411000"
    },
    {
      "id": 72101,
      "name": "Mexicanos",
      "latitude": "20.52903000",
      "longitude": "-101.07064000"
    },
    {
      "id": 72110,
      "name": "Mezquite de Luna",
      "latitude": "20.29765000",
      "longitude": "-101.89260000"
    },
    {
      "id": 72111,
      "name": "Mezquite de Sotelo",
      "latitude": "21.00825000",
      "longitude": "-101.50287000"
    },
    {
      "id": 72109,
      "name": "Mezquite Gordo",
      "latitude": "20.81463000",
      "longitude": "-101.49277000"
    },
    {
      "id": 72148,
      "name": "Mineral de la Luz",
      "latitude": "21.06456000",
      "longitude": "-101.33806000"
    },
    {
      "id": 72160,
      "name": "Misión de Chichimecas",
      "latitude": "21.28496000",
      "longitude": "-100.48658000"
    },
    {
      "id": 72185,
      "name": "Molino de San José",
      "latitude": "21.57083000",
      "longitude": "-101.26389000"
    },
    {
      "id": 72186,
      "name": "Molino de Santa Ana",
      "latitude": "20.82874000",
      "longitude": "-101.34929000"
    },
    {
      "id": 72197,
      "name": "Monte Blanco",
      "latitude": "20.35472000",
      "longitude": "-101.52750000"
    },
    {
      "id": 72209,
      "name": "Monte del Coecillo",
      "latitude": "20.97900000",
      "longitude": "-101.43542000"
    },
    {
      "id": 72201,
      "name": "Monte Grande",
      "latitude": "20.99806000",
      "longitude": "-101.86333000"
    },
    {
      "id": 72223,
      "name": "Morales",
      "latitude": "20.77821000",
      "longitude": "-100.80932000"
    },
    {
      "id": 72238,
      "name": "Moroleón",
      "latitude": "20.12571000",
      "longitude": "-101.19208000"
    },
    {
      "id": 72314,
      "name": "Neutla",
      "latitude": "20.70800000",
      "longitude": "-100.83957000"
    },
    {
      "id": 72331,
      "name": "Nigromante",
      "latitude": "20.96194000",
      "longitude": "-100.78028000"
    },
    {
      "id": 72435,
      "name": "Obrajuelo",
      "latitude": "20.10820000",
      "longitude": "-100.84950000"
    },
    {
      "id": 72441,
      "name": "Ocampo",
      "latitude": "21.64653000",
      "longitude": "-101.48012000"
    },
    {
      "id": 72489,
      "name": "Ojo de Agua de Ballesteros",
      "latitude": "20.22821000",
      "longitude": "-100.82424000"
    },
    {
      "id": 72495,
      "name": "Ojo de Agua de la Trinidad",
      "latitude": "20.39356000",
      "longitude": "-100.63255000"
    },
    {
      "id": 72492,
      "name": "Ojo de Agua de Mendoza",
      "latitude": "20.16585000",
      "longitude": "-100.56909000"
    },
    {
      "id": 72496,
      "name": "Ojo de Agua del Refugio",
      "latitude": "21.01386000",
      "longitude": "-100.31687000"
    },
    {
      "id": 72483,
      "name": "Ojo Seco",
      "latitude": "20.38687000",
      "longitude": "-100.79659000"
    },
    {
      "id": 72517,
      "name": "Orduña de Abajo",
      "latitude": "20.75806000",
      "longitude": "-100.78278000"
    },
    {
      "id": 72518,
      "name": "Orduña de Arriba",
      "latitude": "20.76583000",
      "longitude": "-100.79262000"
    },
    {
      "id": 72537,
      "name": "Otates",
      "latitude": "20.40064000",
      "longitude": "-101.48169000"
    },
    {
      "id": 72601,
      "name": "Palmillas de San Juan",
      "latitude": "20.76873000",
      "longitude": "-100.86432000"
    },
    {
      "id": 72608,
      "name": "Palo Colorado",
      "latitude": "21.00836000",
      "longitude": "-100.72917000"
    },
    {
      "id": 72621,
      "name": "Panales Jamaica (Cañones)",
      "latitude": "20.29556000",
      "longitude": "-100.82306000"
    },
    {
      "id": 72663,
      "name": "Parácuaro",
      "latitude": "20.14381000",
      "longitude": "-100.76352000"
    },
    {
      "id": 72649,
      "name": "Parangarico",
      "latitude": "20.19232000",
      "longitude": "-101.16550000"
    },
    {
      "id": 72692,
      "name": "Paso de Pirules",
      "latitude": "20.95028000",
      "longitude": "-101.29972000"
    },
    {
      "id": 72716,
      "name": "Paxtle",
      "latitude": "21.05897000",
      "longitude": "-101.40390000"
    },
    {
      "id": 73011,
      "name": "Pénjamo",
      "latitude": "20.43108000",
      "longitude": "-101.72261000"
    },
    {
      "id": 72754,
      "name": "Peñuelas",
      "latitude": "20.71676000",
      "longitude": "-101.29749000"
    },
    {
      "id": 72731,
      "name": "Peralta",
      "latitude": "20.47350000",
      "longitude": "-101.40811000"
    },
    {
      "id": 72773,
      "name": "Piedras de Lumbre",
      "latitude": "20.25097000",
      "longitude": "-100.59972000"
    },
    {
      "id": 72771,
      "name": "Piedras Negras",
      "latitude": "20.43059000",
      "longitude": "-101.39158000"
    },
    {
      "id": 72792,
      "name": "Piñícuaro",
      "latitude": "20.04751000",
      "longitude": "-101.24097000"
    },
    {
      "id": 72800,
      "name": "Plan de Ayala",
      "latitude": "21.07209000",
      "longitude": "-101.72165000"
    },
    {
      "id": 72794,
      "name": "Plan Guanajuato (La Sandía)",
      "latitude": "20.92167000",
      "longitude": "-101.69694000"
    },
    {
      "id": 72805,
      "name": "Plancarte",
      "latitude": "20.58681000",
      "longitude": "-100.79620000"
    },
    {
      "id": 72864,
      "name": "Potrerillos (Guanajal)",
      "latitude": "21.08154000",
      "longitude": "-101.86986000"
    },
    {
      "id": 72874,
      "name": "Pozos",
      "latitude": "20.62003000",
      "longitude": "-100.89560000"
    },
    {
      "id": 72883,
      "name": "Prados del Rosario",
      "latitude": "21.02194000",
      "longitude": "-100.39250000"
    },
    {
      "id": 72887,
      "name": "Presa Blanca",
      "latitude": "20.64146000",
      "longitude": "-100.79241000"
    },
    {
      "id": 72896,
      "name": "Primera Fracción de Crespo",
      "latitude": "20.49638000",
      "longitude": "-100.85150000"
    },
    {
      "id": 72922,
      "name": "Providencia",
      "latitude": "20.35439000",
      "longitude": "-101.01895000"
    },
    {
      "id": 72923,
      "name": "Providencia de Nápoles",
      "latitude": "21.02297000",
      "longitude": "-101.45775000"
    },
    {
      "id": 72941,
      "name": "Pueblo Nuevo",
      "latitude": "20.52516000",
      "longitude": "-101.37196000"
    },
    {
      "id": 72959,
      "name": "Puentecillas",
      "latitude": "20.93187000",
      "longitude": "-101.27873000"
    },
    {
      "id": 72963,
      "name": "Puerta del Monte",
      "latitude": "20.25853000",
      "longitude": "-101.02597000"
    },
    {
      "id": 72996,
      "name": "Purísima de Bustos",
      "latitude": "21.03150000",
      "longitude": "-101.87833000"
    },
    {
      "id": 72997,
      "name": "Purísima de Covarrubias",
      "latitude": "20.61932000",
      "longitude": "-101.48340000"
    },
    {
      "id": 72999,
      "name": "Purísima del Progreso",
      "latitude": "20.79333000",
      "longitude": "-101.33028000"
    },
    {
      "id": 73000,
      "name": "Purísima del Rincón",
      "latitude": "20.94704000",
      "longitude": "-101.90939000"
    },
    {
      "id": 72989,
      "name": "Puroagua",
      "latitude": "20.07913000",
      "longitude": "-100.45291000"
    },
    {
      "id": 73078,
      "name": "Rancho de Guadalupe",
      "latitude": "21.21639000",
      "longitude": "-101.01000000"
    },
    {
      "id": 73068,
      "name": "Rancho Nuevo de la Cruz",
      "latitude": "20.65105000",
      "longitude": "-101.51786000"
    },
    {
      "id": 73069,
      "name": "Rancho Nuevo de la Luz",
      "latitude": "20.96246000",
      "longitude": "-101.64573000"
    },
    {
      "id": 73070,
      "name": "Rancho Nuevo del Llanito",
      "latitude": "20.82361000",
      "longitude": "-101.36861000"
    },
    {
      "id": 73074,
      "name": "Rancho Viejo",
      "latitude": "21.02091000",
      "longitude": "-100.77142000"
    },
    {
      "id": 73124,
      "name": "Rincón de Cano",
      "latitude": "21.05519000",
      "longitude": "-100.24196000"
    },
    {
      "id": 73132,
      "name": "Rincón de Parangueo",
      "latitude": "20.42193000",
      "longitude": "-101.25101000"
    },
    {
      "id": 73134,
      "name": "Rincón de Tamayo",
      "latitude": "20.42344000",
      "longitude": "-100.75470000"
    },
    {
      "id": 73137,
      "name": "Rincón del Centeno",
      "latitude": "20.66076000",
      "longitude": "-100.88532000"
    },
    {
      "id": 73115,
      "name": "Rinconadas del Bosque",
      "latitude": "20.08528000",
      "longitude": "-101.19833000"
    },
    {
      "id": 73180,
      "name": "Río Laja",
      "latitude": "21.20326000",
      "longitude": "-100.92339000"
    },
    {
      "id": 73144,
      "name": "Rizos de la Joya (Rizos del Saucillo)",
      "latitude": "21.14861000",
      "longitude": "-101.76194000"
    },
    {
      "id": 73156,
      "name": "Romita",
      "latitude": "20.87127000",
      "longitude": "-101.51683000"
    },
    {
      "id": 73157,
      "name": "Roque",
      "latitude": "20.58228000",
      "longitude": "-100.83727000"
    },
    {
      "id": 73209,
      "name": "Salamanca",
      "latitude": "20.57196000",
      "longitude": "-101.19154000"
    },
    {
      "id": 73220,
      "name": "Salitrillo",
      "latitude": "21.03629000",
      "longitude": "-101.45650000"
    },
    {
      "id": 73231,
      "name": "Salvatierra",
      "latitude": "20.21322000",
      "longitude": "-100.88023000"
    },
    {
      "id": 73258,
      "name": "San Agustín de las Flores",
      "latitude": "21.00727000",
      "longitude": "-101.43710000"
    },
    {
      "id": 73279,
      "name": "San Andrés Enguaro",
      "latitude": "20.19472000",
      "longitude": "-101.23639000"
    },
    {
      "id": 74512,
      "name": "San Ángel",
      "latitude": "20.90193000",
      "longitude": "-101.91895000"
    },
    {
      "id": 73327,
      "name": "San Antonio Calichar",
      "latitude": "20.49669000",
      "longitude": "-100.51775000"
    },
    {
      "id": 73364,
      "name": "San Antonio de Corrales",
      "latitude": "20.74556000",
      "longitude": "-100.96361000"
    },
    {
      "id": 73375,
      "name": "San Antonio de los Morales",
      "latitude": "20.58055000",
      "longitude": "-100.91020000"
    },
    {
      "id": 73377,
      "name": "San Antonio de los Tepetates",
      "latitude": "21.04472000",
      "longitude": "-101.67611000"
    },
    {
      "id": 73366,
      "name": "San Antonio de Romerillo",
      "latitude": "20.60784000",
      "longitude": "-100.94854000"
    },
    {
      "id": 73383,
      "name": "San Antonio el Chico",
      "latitude": "20.62798000",
      "longitude": "-101.28373000"
    },
    {
      "id": 73387,
      "name": "San Antonio el Rico",
      "latitude": "20.82308000",
      "longitude": "-101.37161000"
    },
    {
      "id": 73332,
      "name": "San Antonio Eménguaro",
      "latitude": "20.13997000",
      "longitude": "-100.87874000"
    },
    {
      "id": 73334,
      "name": "San Antonio Gallardo",
      "latitude": "20.62833000",
      "longitude": "-100.76778000"
    },
    {
      "id": 73345,
      "name": "San Antonio Primero",
      "latitude": "21.09417000",
      "longitude": "-100.52844000"
    },
    {
      "id": 73355,
      "name": "San Antonio Texas",
      "latitude": "20.98556000",
      "longitude": "-101.49000000"
    },
    {
      "id": 73411,
      "name": "San Bartolo de Berrios",
      "latitude": "21.61240000",
      "longitude": "-101.06845000"
    },
    {
      "id": 73419,
      "name": "San Bartolomé Aguas Calientes",
      "latitude": "20.49556000",
      "longitude": "-100.54833000"
    },
    {
      "id": 73438,
      "name": "San Bernardo",
      "latitude": "20.96764000",
      "longitude": "-101.86972000"
    },
    {
      "id": 73442,
      "name": "San Bernardo Peña Blanca",
      "latitude": "20.46167000",
      "longitude": "-101.48250000"
    },
    {
      "id": 73465,
      "name": "San Cayetano",
      "latitude": "20.60357000",
      "longitude": "-100.82021000"
    },
    {
      "id": 73472,
      "name": "San Cristóbal",
      "latitude": "20.65787000",
      "longitude": "-101.47683000"
    },
    {
      "id": 73489,
      "name": "San Diego",
      "latitude": "20.88838000",
      "longitude": "-101.40973000"
    },
    {
      "id": 73495,
      "name": "San Diego de Alcalá",
      "latitude": "20.03062000",
      "longitude": "-100.86350000"
    },
    {
      "id": 73496,
      "name": "San Diego de la Unión",
      "latitude": "21.46749000",
      "longitude": "-100.87310000"
    },
    {
      "id": 73505,
      "name": "San Elías",
      "latitude": "20.63529000",
      "longitude": "-100.84120000"
    },
    {
      "id": 73511,
      "name": "San Felipe",
      "latitude": "21.47831000",
      "longitude": "-101.21566000"
    },
    {
      "id": 73521,
      "name": "San Felipe Quiriceo",
      "latitude": "20.44303000",
      "longitude": "-101.28960000"
    },
    {
      "id": 73542,
      "name": "San Francisco",
      "latitude": "21.63387000",
      "longitude": "-101.05884000"
    },
    {
      "id": 73546,
      "name": "San Francisco (Baños de Agua Caliente)",
      "latitude": "21.07389000",
      "longitude": "-101.47278000"
    },
    {
      "id": 73611,
      "name": "San Francisco de Durán",
      "latitude": "21.00513000",
      "longitude": "-101.61990000"
    },
    {
      "id": 73621,
      "name": "San Francisco del Rincón",
      "latitude": "21.01843000",
      "longitude": "-101.85515000"
    },
    {
      "id": 73625,
      "name": "San Gabriel",
      "latitude": "21.12949000",
      "longitude": "-100.83496000"
    },
    {
      "id": 73633,
      "name": "San Gabriel y San Ignacio",
      "latitude": "20.44028000",
      "longitude": "-101.60816000"
    },
    {
      "id": 73640,
      "name": "San Gregorio",
      "latitude": "20.54694000",
      "longitude": "-101.62847000"
    },
    {
      "id": 73651,
      "name": "San Ignacio",
      "latitude": "21.28194000",
      "longitude": "-100.53722000"
    },
    {
      "id": 73654,
      "name": "San Ignacio de Hidalgo",
      "latitude": "20.91167000",
      "longitude": "-101.86056000"
    },
    {
      "id": 73655,
      "name": "San Ignacio de Rivera (Ojo de Agua)",
      "latitude": "20.55926000",
      "longitude": "-101.46127000"
    },
    {
      "id": 73656,
      "name": "San Ignacio de San José Parangueo",
      "latitude": "20.41473000",
      "longitude": "-101.29780000"
    },
    {
      "id": 73686,
      "name": "San Isidro de Gamboa",
      "latitude": "20.39501000",
      "longitude": "-100.52705000"
    },
    {
      "id": 73687,
      "name": "San Isidro de la Concepción",
      "latitude": "20.62776000",
      "longitude": "-100.78570000"
    },
    {
      "id": 73688,
      "name": "San Isidro de la Estacada",
      "latitude": "21.14746000",
      "longitude": "-100.68473000"
    },
    {
      "id": 73689,
      "name": "San Isidro de los Sauces",
      "latitude": "21.02103000",
      "longitude": "-101.53724000"
    },
    {
      "id": 73697,
      "name": "San Javier",
      "latitude": "20.66729000",
      "longitude": "-101.42940000"
    },
    {
      "id": 73724,
      "name": "San Jerónimo de Araceo",
      "latitude": "20.32507000",
      "longitude": "-101.18195000"
    },
    {
      "id": 73807,
      "name": "San José de Agua Azul",
      "latitude": "20.48662000",
      "longitude": "-100.65587000"
    },
    {
      "id": 73809,
      "name": "San José de Ayala",
      "latitude": "20.38709000",
      "longitude": "-101.44143000"
    },
    {
      "id": 73811,
      "name": "San José de Bernalejo (El Guayabo)",
      "latitude": "20.64000000",
      "longitude": "-101.40139000"
    },
    {
      "id": 73813,
      "name": "San José de Cervera",
      "latitude": "20.96778000",
      "longitude": "-101.30250000"
    },
    {
      "id": 73814,
      "name": "San José de Durán (Los Troncoso)",
      "latitude": "21.06306000",
      "longitude": "-101.67417000"
    },
    {
      "id": 73820,
      "name": "San José de Guanajuato",
      "latitude": "20.55601000",
      "longitude": "-100.89277000"
    },
    {
      "id": 73831,
      "name": "San José de la Montaña",
      "latitude": "20.60037000",
      "longitude": "-101.07228000"
    },
    {
      "id": 73833,
      "name": "San José de las Pilas",
      "latitude": "20.65227000",
      "longitude": "-101.04523000"
    },
    {
      "id": 73822,
      "name": "San José de Llanos",
      "latitude": "20.85568000",
      "longitude": "-101.30897000"
    },
    {
      "id": 73823,
      "name": "San José de Mendoza",
      "latitude": "20.68965000",
      "longitude": "-101.21353000"
    },
    {
      "id": 73824,
      "name": "San José de Rancho Nuevo (Los Arrieros)",
      "latitude": "21.59639000",
      "longitude": "-101.00389000"
    },
    {
      "id": 73835,
      "name": "San José del Cerrito de Camargo",
      "latitude": "20.41917000",
      "longitude": "-101.04222000"
    },
    {
      "id": 73837,
      "name": "San José del Potrero",
      "latitude": "21.12815000",
      "longitude": "-101.59737000"
    },
    {
      "id": 73842,
      "name": "San José del Rodeo",
      "latitude": "20.92083000",
      "longitude": "-101.21639000"
    },
    {
      "id": 73845,
      "name": "San José del Torreón",
      "latitude": "21.47444000",
      "longitude": "-101.47056000"
    },
    {
      "id": 73850,
      "name": "San José el Nuevo",
      "latitude": "20.44389000",
      "longitude": "-100.77194000"
    },
    {
      "id": 73769,
      "name": "San José Iturbide",
      "latitude": "21.00153000",
      "longitude": "-100.38416000"
    },
    {
      "id": 73786,
      "name": "San José Temascatío",
      "latitude": "20.69183000",
      "longitude": "-101.26028000"
    },
    {
      "id": 73798,
      "name": "San José Viborillas",
      "latitude": "20.56778000",
      "longitude": "-100.63361000"
    },
    {
      "id": 73871,
      "name": "San Juan Bautista Cacalote",
      "latitude": "20.34806000",
      "longitude": "-100.78833000"
    },
    {
      "id": 73959,
      "name": "San Juan de Abajo",
      "latitude": "21.05623000",
      "longitude": "-101.63544000"
    },
    {
      "id": 73966,
      "name": "San Juan de la Vega",
      "latitude": "20.62521000",
      "longitude": "-100.76141000"
    },
    {
      "id": 73962,
      "name": "San Juan de Otates",
      "latitude": "21.11562000",
      "longitude": "-101.55773000"
    },
    {
      "id": 73974,
      "name": "San Juan del Llanito",
      "latitude": "20.51369000",
      "longitude": "-100.53980000"
    },
    {
      "id": 73893,
      "name": "San Juan Grande",
      "latitude": "20.37627000",
      "longitude": "-101.52677000"
    },
    {
      "id": 73903,
      "name": "San Juan Jaripeo",
      "latitude": "20.00601000",
      "longitude": "-100.76052000"
    },
    {
      "id": 73914,
      "name": "San Juan Pan de Arriba",
      "latitude": "21.47151000",
      "longitude": "-100.92021000"
    },
    {
      "id": 73991,
      "name": "San Lorenzo",
      "latitude": "20.46687000",
      "longitude": "-100.71970000"
    },
    {
      "id": 74023,
      "name": "San Lucas",
      "latitude": "20.29341000",
      "longitude": "-100.55238000"
    },
    {
      "id": 74060,
      "name": "San Luis de la Paz",
      "latitude": "21.29771000",
      "longitude": "-100.51736000"
    },
    {
      "id": 74228,
      "name": "San Miguel de Allende",
      "latitude": "20.91528000",
      "longitude": "-100.74389000"
    },
    {
      "id": 74233,
      "name": "San Miguel del Arenal",
      "latitude": "20.99083000",
      "longitude": "-101.48556000"
    },
    {
      "id": 74176,
      "name": "San Miguel Eménguaro",
      "latitude": "20.16402000",
      "longitude": "-100.88596000"
    },
    {
      "id": 74191,
      "name": "San Miguel Octopan",
      "latitude": "20.57428000",
      "longitude": "-100.74780000"
    },
    {
      "id": 74270,
      "name": "San Nicolás de la Condesa",
      "latitude": "20.23259000",
      "longitude": "-100.78108000"
    },
    {
      "id": 74272,
      "name": "San Nicolás de los Agustinos",
      "latitude": "20.24614000",
      "longitude": "-100.96679000"
    },
    {
      "id": 74275,
      "name": "San Nicolás del Cármen",
      "latitude": "21.27405000",
      "longitude": "-100.55032000"
    },
    {
      "id": 74258,
      "name": "San Nicolás Parangueo",
      "latitude": "20.39356000",
      "longitude": "-101.25364000"
    },
    {
      "id": 74263,
      "name": "San Nicolás Temascatío",
      "latitude": "20.72486000",
      "longitude": "-101.24874000"
    },
    {
      "id": 74298,
      "name": "San Pablo Pejo",
      "latitude": "20.03375000",
      "longitude": "-100.93763000"
    },
    {
      "id": 74404,
      "name": "San Pedro de Ibarra",
      "latitude": "21.48320000",
      "longitude": "-101.54046000"
    },
    {
      "id": 74409,
      "name": "San Pedro de los Naranjos",
      "latitude": "20.22716000",
      "longitude": "-100.93782000"
    },
    {
      "id": 74378,
      "name": "San Pedro Tenango",
      "latitude": "20.50769000",
      "longitude": "-100.63247000"
    },
    {
      "id": 74440,
      "name": "San Roque",
      "latitude": "20.59966000",
      "longitude": "-101.34182000"
    },
    {
      "id": 74442,
      "name": "San Roque de Montes",
      "latitude": "21.01000000",
      "longitude": "-101.81083000"
    },
    {
      "id": 74443,
      "name": "San Roque de Torres",
      "latitude": "20.97138000",
      "longitude": "-101.85290000"
    },
    {
      "id": 74450,
      "name": "San Salvador Torrecillas",
      "latitude": "20.55981000",
      "longitude": "-100.95784000"
    },
    {
      "id": 74478,
      "name": "San Sebastián de Salitre",
      "latitude": "21.10278000",
      "longitude": "-100.48086000"
    },
    {
      "id": 74494,
      "name": "San Vicente",
      "latitude": "20.82864000",
      "longitude": "-101.34130000"
    },
    {
      "id": 74507,
      "name": "San Vicente de Flores",
      "latitude": "20.62172000",
      "longitude": "-101.25296000"
    },
    {
      "id": 74523,
      "name": "Santa Ana",
      "latitude": "21.05917000",
      "longitude": "-101.67583000"
    },
    {
      "id": 74544,
      "name": "Santa Ana Pacueco",
      "latitude": "20.34722000",
      "longitude": "-102.01583000"
    },
    {
      "id": 74558,
      "name": "Santa Anita",
      "latitude": "20.47028000",
      "longitude": "-100.81500000"
    },
    {
      "id": 74566,
      "name": "Santa Bárbara",
      "latitude": "21.53716000",
      "longitude": "-101.37787000"
    },
    {
      "id": 74579,
      "name": "Santa Catarina",
      "latitude": "21.15134000",
      "longitude": "-100.06954000"
    },
    {
      "id": 74599,
      "name": "Santa Clara",
      "latitude": "20.17904000",
      "longitude": "-101.43350000"
    },
    {
      "id": 74648,
      "name": "Santa Cruz de Juventino Rosas",
      "latitude": "20.63658000",
      "longitude": "-100.97956000"
    },
    {
      "id": 74659,
      "name": "Santa Fe de la Purísima",
      "latitude": "20.49556000",
      "longitude": "-100.89278000"
    },
    {
      "id": 74816,
      "name": "Santa María del Refugio",
      "latitude": "20.44030000",
      "longitude": "-100.80032000"
    },
    {
      "id": 74838,
      "name": "Santa Rosa",
      "latitude": "21.55181000",
      "longitude": "-101.09210000"
    },
    {
      "id": 74850,
      "name": "Santa Rosa de Lima",
      "latitude": "21.07179000",
      "longitude": "-101.19723000"
    },
    {
      "id": 74852,
      "name": "Santa Rosa de Rivas",
      "latitude": "20.78112000",
      "longitude": "-101.53632000"
    },
    {
      "id": 74853,
      "name": "Santa Rosa los Angeles",
      "latitude": "20.56585000",
      "longitude": "-100.92356000"
    },
    {
      "id": 74860,
      "name": "Santa Teresa",
      "latitude": "20.95973000",
      "longitude": "-101.31644000"
    },
    {
      "id": 74862,
      "name": "Santa Teresita de Don Diego",
      "latitude": "20.88000000",
      "longitude": "-100.77861000"
    },
    {
      "id": 74885,
      "name": "Santiago Capitiro",
      "latitude": "20.30427000",
      "longitude": "-101.01767000"
    },
    {
      "id": 74983,
      "name": "Santiago de Cuenda",
      "latitude": "20.59956000",
      "longitude": "-100.99405000"
    },
    {
      "id": 74921,
      "name": "Santiago Maravatío",
      "latitude": "20.17297000",
      "longitude": "-100.99468000"
    },
    {
      "id": 75028,
      "name": "Santo Tomás Huatzindeo",
      "latitude": "20.22205000",
      "longitude": "-100.92068000"
    },
    {
      "id": 75040,
      "name": "Sarabia",
      "latitude": "20.52256000",
      "longitude": "-101.06163000"
    },
    {
      "id": 75063,
      "name": "Serrano",
      "latitude": "20.77830000",
      "longitude": "-101.39540000"
    },
    {
      "id": 75079,
      "name": "Silao",
      "latitude": "20.94356000",
      "longitude": "-101.42703000"
    },
    {
      "id": 75080,
      "name": "Silao de la Victoria",
      "latitude": "20.93718000",
      "longitude": "-101.44987000"
    },
    {
      "id": 75082,
      "name": "Silva",
      "latitude": "20.94617000",
      "longitude": "-101.85687000"
    },
    {
      "id": 75114,
      "name": "Soledad Nueva",
      "latitude": "21.27942000",
      "longitude": "-100.92249000"
    },
    {
      "id": 75126,
      "name": "Sotelo",
      "latitude": "20.45773000",
      "longitude": "-101.07766000"
    },
    {
      "id": 75141,
      "name": "Suchitlán",
      "latitude": "20.53320000",
      "longitude": "-101.02360000"
    },
    {
      "id": 75178,
      "name": "Tamazula",
      "latitude": "20.44228000",
      "longitude": "-101.55330000"
    },
    {
      "id": 75229,
      "name": "Tarandacuao",
      "latitude": "20.00094000",
      "longitude": "-100.51856000"
    },
    {
      "id": 75232,
      "name": "Taretán",
      "latitude": "20.77880000",
      "longitude": "-101.33526000"
    },
    {
      "id": 75233,
      "name": "Tarimoro",
      "latitude": "20.28336000",
      "longitude": "-100.75477000"
    },
    {
      "id": 75305,
      "name": "Tejocote de Calera",
      "latitude": "20.17918000",
      "longitude": "-101.39710000"
    },
    {
      "id": 75358,
      "name": "Tenango el Nuevo",
      "latitude": "20.53111000",
      "longitude": "-100.67170000"
    },
    {
      "id": 75362,
      "name": "Tenería del Santuario",
      "latitude": "20.59955000",
      "longitude": "-100.79790000"
    },
    {
      "id": 75464,
      "name": "Tequisquiapan",
      "latitude": "21.07996000",
      "longitude": "-100.82067000"
    },
    {
      "id": 75551,
      "name": "Tierra Fría",
      "latitude": "20.46145000",
      "longitude": "-101.03927000"
    },
    {
      "id": 75728,
      "name": "Tomelopitos",
      "latitude": "20.59463000",
      "longitude": "-101.36846000"
    },
    {
      "id": 75798,
      "name": "Tulillos de Abajo",
      "latitude": "21.08563000",
      "longitude": "-100.48411000"
    },
    {
      "id": 75812,
      "name": "Tupataro",
      "latitude": "20.59512000",
      "longitude": "-101.64637000"
    },
    {
      "id": 75891,
      "name": "Uriangato",
      "latitude": "20.14085000",
      "longitude": "-101.18251000"
    },
    {
      "id": 75895,
      "name": "Urireo",
      "latitude": "20.21314000",
      "longitude": "-100.84188000"
    },
    {
      "id": 75907,
      "name": "Valencia de Cerro Gordo",
      "latitude": "20.60133000",
      "longitude": "-101.08173000"
    },
    {
      "id": 75908,
      "name": "Valencianita",
      "latitude": "20.74701000",
      "longitude": "-101.30223000"
    },
    {
      "id": 75924,
      "name": "Valle de Santiago",
      "latitude": "20.39140000",
      "longitude": "-101.19222000"
    },
    {
      "id": 75934,
      "name": "Valtierrilla",
      "latitude": "20.53244000",
      "longitude": "-101.12761000"
    },
    {
      "id": 75982,
      "name": "Victoria",
      "latitude": "21.21183000",
      "longitude": "-100.21545000"
    },
    {
      "id": 75984,
      "name": "Victoria de Cortazar",
      "latitude": "20.33460000",
      "longitude": "-101.03173000"
    },
    {
      "id": 76079,
      "name": "Villagrán",
      "latitude": "20.51452000",
      "longitude": "-100.99745000"
    },
    {
      "id": 76088,
      "name": "Villas de Irapuato",
      "latitude": "20.68722000",
      "longitude": "-101.40528000"
    },
    {
      "id": 76135,
      "name": "Xichú",
      "latitude": "21.34418000",
      "longitude": "-99.99970000"
    },
    {
      "id": 76183,
      "name": "Xoconoxtle el Grande",
      "latitude": "20.93857000",
      "longitude": "-100.98149000"
    },
    {
      "id": 76233,
      "name": "Yerbabuena",
      "latitude": "20.96319000",
      "longitude": "-101.27448000"
    },
    {
      "id": 76248,
      "name": "Yuriria",
      "latitude": "20.21081000",
      "longitude": "-101.13212000"
    },
    {
      "id": 76250,
      "name": "Yustis",
      "latitude": "20.58233000",
      "longitude": "-100.86392000"
    },
    {
      "id": 76297,
      "name": "Zangarro (Zangarro Nuevo)",
      "latitude": "20.85806000",
      "longitude": "-101.27278000"
    },
    {
      "id": 76302,
      "name": "Zapote de Barajas",
      "latitude": "20.37536000",
      "longitude": "-101.69964000"
    },
    {
      "id": 76303,
      "name": "Zapote de Cestao",
      "latitude": "20.48362000",
      "longitude": "-101.67596000"
    },
    {
      "id": 76304,
      "name": "Zapote de Palomas",
      "latitude": "20.58444000",
      "longitude": "-101.11500000"
    },
    {
      "id": 76305,
      "name": "Zapote de Peralta",
      "latitude": "20.45068000",
      "longitude": "-101.39481000"
    },
    {
      "id": 76306,
      "name": "Zapotillo de Mogotes",
      "latitude": "20.37850000",
      "longitude": "-101.24795000"
    }
  ],
  "country": {
    "id": 142,
    "name": "Mexico",
    "iso3": "MEX",
    "iso2": "MX",
    "numeric_code": "484",
    "phone_code": "52",
    "capital": "Ciudad de México",
    "currency": "MXN",
    "currency_name": "Mexican peso",
    "currency_symbol": "$",
    "tld": ".mx",
    "native": "México",
    "region": "Americas",
    "subregion": "Central America",
    "timezones": [
      {
        "zoneName": "America/Bahia_Banderas",
        "gmtOffset": -21600,
        "gmtOffsetName": "UTC-06:00",
        "abbreviation": "CST",
        "tzName": "Central Standard Time (North America"
      },
      {
        "zoneName": "America/Cancun",
        "gmtOffset": -18000,
        "gmtOffsetName": "UTC-05:00",
        "abbreviation": "EST",
        "tzName": "Eastern Standard Time (North America"
      },
      {
        "zoneName": "America/Chihuahua",
        "gmtOffset": -25200,
        "gmtOffsetName": "UTC-07:00",
        "abbreviation": "MST",
        "tzName": "Mountain Standard Time (North America"
      },
      {
        "zoneName": "America/Hermosillo",
        "gmtOffset": -25200,
        "gmtOffsetName": "UTC-07:00",
        "abbreviation": "MST",
        "tzName": "Mountain Standard Time (North America"
      },
      {
        "zoneName": "America/Matamoros",
        "gmtOffset": -21600,
        "gmtOffsetName": "UTC-06:00",
        "abbreviation": "CST",
        "tzName": "Central Standard Time (North America"
      },
      {
        "zoneName": "America/Mazatlan",
        "gmtOffset": -25200,
        "gmtOffsetName": "UTC-07:00",
        "abbreviation": "MST",
        "tzName": "Mountain Standard Time (North America"
      },
      {
        "zoneName": "America/Merida",
        "gmtOffset": -21600,
        "gmtOffsetName": "UTC-06:00",
        "abbreviation": "CST",
        "tzName": "Central Standard Time (North America"
      },
      {
        "zoneName": "America/Mexico_City",
        "gmtOffset": -21600,
        "gmtOffsetName": "UTC-06:00",
        "abbreviation": "CST",
        "tzName": "Central Standard Time (North America"
      },
      {
        "zoneName": "America/Monterrey",
        "gmtOffset": -21600,
        "gmtOffsetName": "UTC-06:00",
        "abbreviation": "CST",
        "tzName": "Central Standard Time (North America"
      },
      {
        "zoneName": "America/Ojinaga",
        "gmtOffset": -25200,
        "gmtOffsetName": "UTC-07:00",
        "abbreviation": "MST",
        "tzName": "Mountain Standard Time (North America"
      },
      {
        "zoneName": "America/Tijuana",
        "gmtOffset": -28800,
        "gmtOffsetName": "UTC-08:00",
        "abbreviation": "PST",
        "tzName": "Pacific Standard Time (North America"
      }
    ],
    "translations": {
      "kr": "멕시코",
      "pt-BR": "México",
      "pt": "México",
      "nl": "Mexico",
      "hr": "Meksiko",
      "fa": "مکزیک",
      "de": "Mexiko",
      "es": "México",
      "fr": "Mexique",
      "ja": "メキシコ",
      "it": "Messico",
      "cn": "墨西哥",
      "tr": "Meksika"
    },
    "latitude": "23.00000000",
    "longitude": "-102.00000000",
    "emoji": "🇲🇽",
    "emojiU": "U+1F1F2 U+1F1FD"
  }
}