{
  "id": 2338,
  "name": "Wales",
  "state_code": "WLS",
  "latitude": "52.13066070",
  "longitude": "-3.78371170",
  "type": null,
  "cities": [
    {
      "id": 48162,
      "name": "Aberaeron",
      "latitude": "52.24247000",
      "longitude": "-4.25871000"
    },
    {
      "id": 48163,
      "name": "Abercanaid",
      "latitude": "51.72361000",
      "longitude": "-3.36611000"
    },
    {
      "id": 48164,
      "name": "Abercarn",
      "latitude": "51.64733000",
      "longitude": "-3.13476000"
    },
    {
      "id": 48166,
      "name": "Abercynon",
      "latitude": "51.64548000",
      "longitude": "-3.32727000"
    },
    {
      "id": 48167,
      "name": "Aberdare",
      "latitude": "51.71438000",
      "longitude": "-3.44918000"
    },
    {
      "id": 48172,
      "name": "Aberfan",
      "latitude": "51.68892000",
      "longitude": "-3.34178000"
    },
    {
      "id": 48175,
      "name": "Abergavenny",
      "latitude": "51.82098000",
      "longitude": "-3.01743000"
    },
    {
      "id": 48176,
      "name": "Abergele",
      "latitude": "53.28436000",
      "longitude": "-3.58220000"
    },
    {
      "id": 48177,
      "name": "Aberkenfig",
      "latitude": "51.54000000",
      "longitude": "-3.59556000"
    },
    {
      "id": 48180,
      "name": "Aberporth",
      "latitude": "52.13248000",
      "longitude": "-4.54173000"
    },
    {
      "id": 48181,
      "name": "Abertillery",
      "latitude": "51.72981000",
      "longitude": "-3.13432000"
    },
    {
      "id": 48182,
      "name": "Abertridwr",
      "latitude": "51.59583000",
      "longitude": "-3.26833000"
    },
    {
      "id": 48183,
      "name": "Aberystwyth",
      "latitude": "52.41548000",
      "longitude": "-4.08292000"
    },
    {
      "id": 48245,
      "name": "Amlwch",
      "latitude": "53.40986000",
      "longitude": "-4.34712000"
    },
    {
      "id": 48246,
      "name": "Ammanford",
      "latitude": "51.79279000",
      "longitude": "-3.98833000"
    },
    {
      "id": 48250,
      "name": "Anglesey",
      "latitude": "53.25000000",
      "longitude": "-4.33333000"
    },
    {
      "id": 48335,
      "name": "Bagillt",
      "latitude": "53.26540000",
      "longitude": "-3.16551000"
    },
    {
      "id": 48340,
      "name": "Bala",
      "latitude": "52.91111000",
      "longitude": "-3.59722000"
    },
    {
      "id": 48370,
      "name": "Bangor",
      "latitude": "53.22752000",
      "longitude": "-4.12936000"
    },
    {
      "id": 48384,
      "name": "Bargoed",
      "latitude": "51.68333000",
      "longitude": "-3.23333000"
    },
    {
      "id": 48393,
      "name": "Barmouth",
      "latitude": "52.72377000",
      "longitude": "-4.05748000"
    },
    {
      "id": 48413,
      "name": "Barry",
      "latitude": "51.39979000",
      "longitude": "-3.28380000"
    },
    {
      "id": 48441,
      "name": "Beaumaris",
      "latitude": "53.26315000",
      "longitude": "-4.09233000"
    },
    {
      "id": 48448,
      "name": "Beddau",
      "latitude": "51.55398000",
      "longitude": "-3.35814000"
    },
    {
      "id": 48451,
      "name": "Bedlinog",
      "latitude": "51.70432000",
      "longitude": "-3.31306000"
    },
    {
      "id": 48452,
      "name": "Bedwas",
      "latitude": "51.59183000",
      "longitude": "-3.19886000"
    },
    {
      "id": 48472,
      "name": "Benllech",
      "latitude": "53.32044000",
      "longitude": "-4.22607000"
    },
    {
      "id": 48481,
      "name": "Bethesda",
      "latitude": "53.18150000",
      "longitude": "-4.05828000"
    },
    {
      "id": 48484,
      "name": "Betws",
      "latitude": "51.56917000",
      "longitude": "-3.58833000"
    },
    {
      "id": 48485,
      "name": "Betws-y-Coed",
      "latitude": "53.09382000",
      "longitude": "-3.80668000"
    },
    {
      "id": 48533,
      "name": "Bishopston",
      "latitude": "51.57750000",
      "longitude": "-4.04806000"
    },
    {
      "id": 48553,
      "name": "Blackwood",
      "latitude": "51.66778000",
      "longitude": "-3.20750000"
    },
    {
      "id": 48555,
      "name": "Blaenau Gwent",
      "latitude": "51.75000000",
      "longitude": "-3.16667000"
    },
    {
      "id": 48556,
      "name": "Blaenau-Ffestiniog",
      "latitude": "52.99464000",
      "longitude": "-3.93697000"
    },
    {
      "id": 48557,
      "name": "Blaenavon",
      "latitude": "51.77402000",
      "longitude": "-3.08537000"
    },
    {
      "id": 48558,
      "name": "Blaengwynfi",
      "latitude": "51.65623000",
      "longitude": "-3.60371000"
    },
    {
      "id": 48580,
      "name": "Bodedern",
      "latitude": "53.29232000",
      "longitude": "-4.50303000"
    },
    {
      "id": 48581,
      "name": "Bodelwyddan",
      "latitude": "53.26827000",
      "longitude": "-3.50078000"
    },
    {
      "id": 48613,
      "name": "Borth",
      "latitude": "52.48887000",
      "longitude": "-4.05039000"
    },
    {
      "id": 48633,
      "name": "Bow Street",
      "latitude": "52.44213000",
      "longitude": "-4.02783000"
    },
    {
      "id": 48670,
      "name": "Brecon",
      "latitude": "51.94612000",
      "longitude": "-3.38887000"
    },
    {
      "id": 48683,
      "name": "Bridgend",
      "latitude": "51.50583000",
      "longitude": "-3.57722000"
    },
    {
      "id": 48684,
      "name": "Bridgend county borough",
      "latitude": "51.55000000",
      "longitude": "-3.58333000"
    },
    {
      "id": 48705,
      "name": "Briton Ferry",
      "latitude": "51.63106000",
      "longitude": "-3.81898000"
    },
    {
      "id": 48730,
      "name": "Broughton",
      "latitude": "53.16303000",
      "longitude": "-2.99309000"
    },
    {
      "id": 48737,
      "name": "Brymbo",
      "latitude": "53.06667000",
      "longitude": "-3.06667000"
    },
    {
      "id": 48738,
      "name": "Bryn",
      "latitude": "51.61639000",
      "longitude": "-3.71167000"
    },
    {
      "id": 48739,
      "name": "Brynamman",
      "latitude": "51.80000000",
      "longitude": "-3.86667000"
    },
    {
      "id": 48740,
      "name": "Brynmawr",
      "latitude": "51.80000000",
      "longitude": "-3.18333000"
    },
    {
      "id": 48741,
      "name": "Brynna",
      "latitude": "51.53845000",
      "longitude": "-3.46378000"
    },
    {
      "id": 48750,
      "name": "Buckley",
      "latitude": "53.16667000",
      "longitude": "-3.08333000"
    },
    {
      "id": 48756,
      "name": "Builth Wells",
      "latitude": "52.14940000",
      "longitude": "-3.40469000"
    },
    {
      "id": 48784,
      "name": "Burry Port",
      "latitude": "51.68435000",
      "longitude": "-4.24687000"
    },
    {
      "id": 48810,
      "name": "Caergwrle",
      "latitude": "53.10953000",
      "longitude": "-3.03808000"
    },
    {
      "id": 48811,
      "name": "Caerleon",
      "latitude": "51.60952000",
      "longitude": "-2.95378000"
    },
    {
      "id": 48812,
      "name": "Caernarfon",
      "latitude": "53.14126000",
      "longitude": "-4.27016000"
    },
    {
      "id": 48813,
      "name": "Caerphilly",
      "latitude": "51.57452000",
      "longitude": "-3.21800000"
    },
    {
      "id": 48814,
      "name": "Caerphilly County Borough",
      "latitude": "51.66667000",
      "longitude": "-3.16667000"
    },
    {
      "id": 48815,
      "name": "Caerwent",
      "latitude": "51.61120000",
      "longitude": "-2.76865000"
    },
    {
      "id": 48824,
      "name": "Caldicot",
      "latitude": "51.58661000",
      "longitude": "-2.75736000"
    },
    {
      "id": 48854,
      "name": "Cardiff",
      "latitude": "51.48000000",
      "longitude": "-3.18000000"
    },
    {
      "id": 48855,
      "name": "Cardigan",
      "latitude": "52.08373000",
      "longitude": "-4.66228000"
    },
    {
      "id": 48862,
      "name": "Carmarthen",
      "latitude": "51.85552000",
      "longitude": "-4.30535000"
    },
    {
      "id": 48863,
      "name": "Carmarthenshire",
      "latitude": "51.83333000",
      "longitude": "-4.16667000"
    },
    {
      "id": 48901,
      "name": "Cefn Cribwr",
      "latitude": "51.53167000",
      "longitude": "-3.65278000"
    },
    {
      "id": 48902,
      "name": "Cemaes Bay",
      "latitude": "53.41211000",
      "longitude": "-4.45190000"
    },
    {
      "id": 48948,
      "name": "Chepstow",
      "latitude": "51.64087000",
      "longitude": "-2.67683000"
    },
    {
      "id": 48976,
      "name": "Chirk",
      "latitude": "52.93586000",
      "longitude": "-3.05738000"
    },
    {
      "id": 49005,
      "name": "City and County of Swansea",
      "latitude": "51.58333000",
      "longitude": "-4.00000000"
    },
    {
      "id": 49042,
      "name": "Clydach",
      "latitude": "51.68333000",
      "longitude": "-3.90000000"
    },
    {
      "id": 49057,
      "name": "Coedpoeth",
      "latitude": "53.05391000",
      "longitude": "-3.06234000"
    },
    {
      "id": 49060,
      "name": "Coity",
      "latitude": "51.52200000",
      "longitude": "-3.55531000"
    },
    {
      "id": 49078,
      "name": "Colwyn Bay",
      "latitude": "53.29483000",
      "longitude": "-3.72674000"
    },
    {
      "id": 49093,
      "name": "Conwy",
      "latitude": "53.08333000",
      "longitude": "-3.75000000"
    },
    {
      "id": 49122,
      "name": "County of Ceredigion",
      "latitude": "52.25000000",
      "longitude": "-4.00000000"
    },
    {
      "id": 49123,
      "name": "County of Flintshire",
      "latitude": "53.25000000",
      "longitude": "-3.16667000"
    },
    {
      "id": 49129,
      "name": "Cowbridge",
      "latitude": "51.46028000",
      "longitude": "-3.44167000"
    },
    {
      "id": 49156,
      "name": "Criccieth",
      "latitude": "52.92053000",
      "longitude": "-4.23460000"
    },
    {
      "id": 49158,
      "name": "Crickhowell",
      "latitude": "51.85992000",
      "longitude": "-3.13771000"
    },
    {
      "id": 49162,
      "name": "Croeserw",
      "latitude": "51.64472000",
      "longitude": "-3.64028000"
    },
    {
      "id": 49165,
      "name": "Crofty",
      "latitude": "51.63448000",
      "longitude": "-4.12937000"
    },
    {
      "id": 49172,
      "name": "Cross Hands",
      "latitude": "51.79306000",
      "longitude": "-4.08750000"
    },
    {
      "id": 49189,
      "name": "Crumlin",
      "latitude": "51.67778000",
      "longitude": "-3.13528000"
    },
    {
      "id": 49191,
      "name": "Crymych",
      "latitude": "51.97361000",
      "longitude": "-4.64722000"
    },
    {
      "id": 49192,
      "name": "Crynant",
      "latitude": "51.72889000",
      "longitude": "-3.74806000"
    },
    {
      "id": 49215,
      "name": "Cwm",
      "latitude": "51.74000000",
      "longitude": "-3.18028000"
    },
    {
      "id": 49216,
      "name": "Cwmafan",
      "latitude": "51.61671000",
      "longitude": "-3.76205000"
    },
    {
      "id": 49217,
      "name": "Cwmbach",
      "latitude": "51.70556000",
      "longitude": "-3.40944000"
    },
    {
      "id": 49218,
      "name": "Cwmbran",
      "latitude": "51.65446000",
      "longitude": "-3.02281000"
    },
    {
      "id": 49254,
      "name": "Deeside",
      "latitude": "53.20053000",
      "longitude": "-3.03841000"
    },
    {
      "id": 49255,
      "name": "Deganwy",
      "latitude": "53.30446000",
      "longitude": "-3.82735000"
    },
    {
      "id": 49256,
      "name": "Deiniolen",
      "latitude": "53.14819000",
      "longitude": "-4.13185000"
    },
    {
      "id": 49259,
      "name": "Denbigh",
      "latitude": "53.18333000",
      "longitude": "-3.41667000"
    },
    {
      "id": 49260,
      "name": "Denbighshire",
      "latitude": "53.08333000",
      "longitude": "-3.33333000"
    },
    {
      "id": 49271,
      "name": "Deri",
      "latitude": "51.70812000",
      "longitude": "-3.26312000"
    },
    {
      "id": 49285,
      "name": "Dinas Powys",
      "latitude": "51.43486000",
      "longitude": "-3.21398000"
    },
    {
      "id": 49300,
      "name": "Dolgellau",
      "latitude": "52.74222000",
      "longitude": "-3.88611000"
    },
    {
      "id": 49370,
      "name": "Dyffryn Ardudwy",
      "latitude": "52.77748000",
      "longitude": "-4.06468000"
    },
    {
      "id": 49372,
      "name": "Dyserth",
      "latitude": "53.30032000",
      "longitude": "-3.41262000"
    },
    {
      "id": 49431,
      "name": "Ebbw Vale",
      "latitude": "51.77714000",
      "longitude": "-3.20792000"
    },
    {
      "id": 49546,
      "name": "Ferndale",
      "latitude": "51.66056000",
      "longitude": "-3.44750000"
    },
    {
      "id": 49562,
      "name": "Fishguard",
      "latitude": "51.99376000",
      "longitude": "-4.97631000"
    },
    {
      "id": 49574,
      "name": "Flint",
      "latitude": "53.24488000",
      "longitude": "-3.13231000"
    },
    {
      "id": 49580,
      "name": "Fochriw",
      "latitude": "51.74003000",
      "longitude": "-3.29861000"
    },
    {
      "id": 49596,
      "name": "Four Crosses",
      "latitude": "52.75941000",
      "longitude": "-3.08106000"
    },
    {
      "id": 49619,
      "name": "Gaerwen",
      "latitude": "53.22112000",
      "longitude": "-4.27362000"
    },
    {
      "id": 49636,
      "name": "Gelligaer",
      "latitude": "51.66444000",
      "longitude": "-3.25611000"
    },
    {
      "id": 49641,
      "name": "Gilfach Goch",
      "latitude": "51.59213000",
      "longitude": "-3.47296000"
    },
    {
      "id": 49644,
      "name": "Gilwern",
      "latitude": "51.82475000",
      "longitude": "-3.09355000"
    },
    {
      "id": 49647,
      "name": "Glanamman",
      "latitude": "51.80000000",
      "longitude": "-3.93333000"
    },
    {
      "id": 49648,
      "name": "Glandwr",
      "latitude": "51.92833000",
      "longitude": "-4.63333000"
    },
    {
      "id": 49666,
      "name": "Glyn-neath",
      "latitude": "51.74750000",
      "longitude": "-3.61833000"
    },
    {
      "id": 49667,
      "name": "Glyncorrwg",
      "latitude": "51.67944000",
      "longitude": "-3.62806000"
    },
    {
      "id": 49676,
      "name": "Goodwick",
      "latitude": "52.00491000",
      "longitude": "-4.99511000"
    },
    {
      "id": 49684,
      "name": "Gorseinon",
      "latitude": "51.66931000",
      "longitude": "-4.04163000"
    },
    {
      "id": 49693,
      "name": "Govilon",
      "latitude": "51.81928000",
      "longitude": "-3.06295000"
    },
    {
      "id": 49740,
      "name": "Greenfield",
      "latitude": "53.28333000",
      "longitude": "-3.21667000"
    },
    {
      "id": 49749,
      "name": "Gresford",
      "latitude": "53.08539000",
      "longitude": "-2.97062000"
    },
    {
      "id": 49756,
      "name": "Gronant",
      "latitude": "53.33669000",
      "longitude": "-3.36031000"
    },
    {
      "id": 49759,
      "name": "Grovesend",
      "latitude": "51.68472000",
      "longitude": "-4.03833000"
    },
    {
      "id": 49763,
      "name": "Guilsfield",
      "latitude": "52.69634000",
      "longitude": "-3.15712000"
    },
    {
      "id": 49769,
      "name": "Gwynedd",
      "latitude": "52.83333000",
      "longitude": "-3.91667000"
    },
    {
      "id": 49807,
      "name": "Harlech",
      "latitude": "52.85941000",
      "longitude": "-4.10831000"
    },
    {
      "id": 49847,
      "name": "Haverfordwest",
      "latitude": "51.80169000",
      "longitude": "-4.96914000"
    },
    {
      "id": 49850,
      "name": "Hawarden",
      "latitude": "53.18478000",
      "longitude": "-3.02578000"
    },
    {
      "id": 49858,
      "name": "Hay",
      "latitude": "52.07049000",
      "longitude": "-3.12741000"
    },
    {
      "id": 49902,
      "name": "Hengoed",
      "latitude": "51.65083000",
      "longitude": "-3.23167000"
    },
    {
      "id": 49905,
      "name": "Henllan",
      "latitude": "53.20000000",
      "longitude": "-3.46667000"
    },
    {
      "id": 49950,
      "name": "Hirwaun",
      "latitude": "51.73917000",
      "longitude": "-3.51028000"
    },
    {
      "id": 49971,
      "name": "Holyhead",
      "latitude": "53.30621000",
      "longitude": "-4.63211000"
    },
    {
      "id": 49973,
      "name": "Holywell",
      "latitude": "53.27466000",
      "longitude": "-3.22895000"
    },
    {
      "id": 49980,
      "name": "Hook",
      "latitude": "51.76500000",
      "longitude": "-4.93167000"
    },
    {
      "id": 49983,
      "name": "Hope",
      "latitude": "53.11667000",
      "longitude": "-3.03333000"
    },
    {
      "id": 50022,
      "name": "Hundleton",
      "latitude": "51.66694000",
      "longitude": "-4.94917000"
    },
    {
      "id": 50095,
      "name": "Johnston",
      "latitude": "51.75556000",
      "longitude": "-4.99667000"
    },
    {
      "id": 50138,
      "name": "Kidwelly",
      "latitude": "51.73639000",
      "longitude": "-4.30333000"
    },
    {
      "id": 50143,
      "name": "Kilgetty",
      "latitude": "51.73203000",
      "longitude": "-4.71983000"
    },
    {
      "id": 50219,
      "name": "Knighton",
      "latitude": "52.34251000",
      "longitude": "-3.04708000"
    },
    {
      "id": 50233,
      "name": "Lampeter",
      "latitude": "52.11285000",
      "longitude": "-4.08039000"
    },
    {
      "id": 50273,
      "name": "Leeswood",
      "latitude": "53.13347000",
      "longitude": "-3.09466000"
    },
    {
      "id": 50290,
      "name": "Letterston",
      "latitude": "51.92757000",
      "longitude": "-4.99141000"
    },
    {
      "id": 50340,
      "name": "Llanarth",
      "latitude": "52.19424000",
      "longitude": "-4.30811000"
    },
    {
      "id": 50341,
      "name": "Llanbedr",
      "latitude": "52.81667000",
      "longitude": "-4.10000000"
    },
    {
      "id": 50342,
      "name": "Llanberis",
      "latitude": "53.11809000",
      "longitude": "-4.12923000"
    },
    {
      "id": 50343,
      "name": "Llanbradach",
      "latitude": "51.60639000",
      "longitude": "-3.23028000"
    },
    {
      "id": 50344,
      "name": "Llandeilo",
      "latitude": "51.88459000",
      "longitude": "-3.99154000"
    },
    {
      "id": 50345,
      "name": "Llandovery",
      "latitude": "51.99415000",
      "longitude": "-3.79637000"
    },
    {
      "id": 50346,
      "name": "Llandrindod Wells",
      "latitude": "52.24164000",
      "longitude": "-3.37868000"
    },
    {
      "id": 50347,
      "name": "Llandudno",
      "latitude": "53.32498000",
      "longitude": "-3.83148000"
    },
    {
      "id": 50348,
      "name": "Llandybie",
      "latitude": "51.82044000",
      "longitude": "-4.00710000"
    },
    {
      "id": 50349,
      "name": "Llandysul",
      "latitude": "52.04166000",
      "longitude": "-4.30909000"
    },
    {
      "id": 50350,
      "name": "Llanelli",
      "latitude": "51.68195000",
      "longitude": "-4.16191000"
    },
    {
      "id": 50351,
      "name": "Llanerchymedd",
      "latitude": "53.33055000",
      "longitude": "-4.37700000"
    },
    {
      "id": 50352,
      "name": "Llanfair Caereinion",
      "latitude": "52.64790000",
      "longitude": "-3.32668000"
    },
    {
      "id": 50353,
      "name": "Llanfairfechan",
      "latitude": "53.25779000",
      "longitude": "-3.97423000"
    },
    {
      "id": 50354,
      "name": "Llanfairpwllgwyngyll",
      "latitude": "53.22141000",
      "longitude": "-4.20329000"
    },
    {
      "id": 50355,
      "name": "Llanfyllin",
      "latitude": "52.76570000",
      "longitude": "-3.27187000"
    },
    {
      "id": 50356,
      "name": "Llangefni",
      "latitude": "53.25561000",
      "longitude": "-4.31063000"
    },
    {
      "id": 50357,
      "name": "Llangoed",
      "latitude": "53.29420000",
      "longitude": "-4.08772000"
    },
    {
      "id": 50358,
      "name": "Llangollen",
      "latitude": "52.96829000",
      "longitude": "-3.17127000"
    },
    {
      "id": 50359,
      "name": "Llangwm",
      "latitude": "51.74833000",
      "longitude": "-4.91361000"
    },
    {
      "id": 50360,
      "name": "Llangybi",
      "latitude": "51.66583000",
      "longitude": "-2.90806000"
    },
    {
      "id": 50361,
      "name": "Llangynidr",
      "latitude": "51.86730000",
      "longitude": "-3.22762000"
    },
    {
      "id": 50362,
      "name": "Llanharan",
      "latitude": "51.53805000",
      "longitude": "-3.43906000"
    },
    {
      "id": 50363,
      "name": "Llanharry",
      "latitude": "51.51422000",
      "longitude": "-3.43240000"
    },
    {
      "id": 50364,
      "name": "Llanidloes",
      "latitude": "52.44977000",
      "longitude": "-3.53997000"
    },
    {
      "id": 50365,
      "name": "Llanilar",
      "latitude": "52.35657000",
      "longitude": "-4.02574000"
    },
    {
      "id": 50366,
      "name": "Llanrhaeadr-ym-Mochnant",
      "latitude": "52.82507000",
      "longitude": "-3.30225000"
    },
    {
      "id": 50367,
      "name": "Llanrug",
      "latitude": "53.14788000",
      "longitude": "-4.19596000"
    },
    {
      "id": 50368,
      "name": "Llanrwst",
      "latitude": "53.14021000",
      "longitude": "-3.79527000"
    },
    {
      "id": 50369,
      "name": "Llansantffraid Glan Conwy",
      "latitude": "53.26667000",
      "longitude": "-3.80000000"
    },
    {
      "id": 50370,
      "name": "Llansteffan",
      "latitude": "51.77222000",
      "longitude": "-4.39139000"
    },
    {
      "id": 50371,
      "name": "Llantrisant",
      "latitude": "51.54028000",
      "longitude": "-3.37389000"
    },
    {
      "id": 50372,
      "name": "Llantwit Fardre",
      "latitude": "51.55460000",
      "longitude": "-3.33241000"
    },
    {
      "id": 50373,
      "name": "Llantwit Major",
      "latitude": "51.41070000",
      "longitude": "-3.48632000"
    },
    {
      "id": 50374,
      "name": "Llwynypia",
      "latitude": "51.63333000",
      "longitude": "-3.45000000"
    },
    {
      "id": 50460,
      "name": "Machen",
      "latitude": "51.59599000",
      "longitude": "-3.14190000"
    },
    {
      "id": 50461,
      "name": "Machynlleth",
      "latitude": "52.59097000",
      "longitude": "-3.85051000"
    },
    {
      "id": 50465,
      "name": "Maesteg",
      "latitude": "51.60926000",
      "longitude": "-3.65823000"
    },
    {
      "id": 50470,
      "name": "Magor",
      "latitude": "51.57944000",
      "longitude": "-2.83139000"
    },
    {
      "id": 50493,
      "name": "Marchwiel",
      "latitude": "53.02390000",
      "longitude": "-2.96106000"
    },
    {
      "id": 50518,
      "name": "Marshfield",
      "latitude": "51.53389000",
      "longitude": "-3.07306000"
    },
    {
      "id": 50545,
      "name": "Menai Bridge",
      "latitude": "53.22775000",
      "longitude": "-4.16926000"
    },
    {
      "id": 50554,
      "name": "Merthyr Tydfil",
      "latitude": "51.74794000",
      "longitude": "-3.37779000"
    },
    {
      "id": 50555,
      "name": "Merthyr Tydfil County Borough",
      "latitude": "51.75000000",
      "longitude": "-3.33333000"
    },
    {
      "id": 50582,
      "name": "Milford Haven",
      "latitude": "51.71278000",
      "longitude": "-5.03410000"
    },
    {
      "id": 50610,
      "name": "Moelfre",
      "latitude": "53.35228000",
      "longitude": "-4.23734000"
    },
    {
      "id": 50614,
      "name": "Mold",
      "latitude": "53.16674000",
      "longitude": "-3.14143000"
    },
    {
      "id": 50619,
      "name": "Monmouth",
      "latitude": "51.81265000",
      "longitude": "-2.71363000"
    },
    {
      "id": 50620,
      "name": "Monmouthshire",
      "latitude": "51.75000000",
      "longitude": "-2.83333000"
    },
    {
      "id": 50636,
      "name": "Mostyn",
      "latitude": "53.31271000",
      "longitude": "-3.26765000"
    },
    {
      "id": 50642,
      "name": "Mountain Ash",
      "latitude": "51.68361000",
      "longitude": "-3.38008000"
    },
    {
      "id": 50664,
      "name": "Narberth",
      "latitude": "51.79784000",
      "longitude": "-4.74275000"
    },
    {
      "id": 50667,
      "name": "Neath",
      "latitude": "51.66317000",
      "longitude": "-3.80443000"
    },
    {
      "id": 50668,
      "name": "Neath Port Talbot",
      "latitude": "51.66667000",
      "longitude": "-3.75000000"
    },
    {
      "id": 50672,
      "name": "Nefyn",
      "latitude": "52.93538000",
      "longitude": "-4.52250000"
    },
    {
      "id": 50675,
      "name": "Nelson",
      "latitude": "51.65333000",
      "longitude": "-3.28444000"
    },
    {
      "id": 50694,
      "name": "New Quay",
      "latitude": "52.21515000",
      "longitude": "-4.35887000"
    },
    {
      "id": 50697,
      "name": "New Tredegar",
      "latitude": "51.72051000",
      "longitude": "-3.24130000"
    },
    {
      "id": 50703,
      "name": "Newbridge",
      "latitude": "51.66667000",
      "longitude": "-3.13333000"
    },
    {
      "id": 50708,
      "name": "Newcastle Emlyn",
      "latitude": "52.04056000",
      "longitude": "-4.46670000"
    },
    {
      "id": 50720,
      "name": "Newport",
      "latitude": "51.58774000",
      "longitude": "-2.99835000"
    },
    {
      "id": 50737,
      "name": "Newtown",
      "latitude": "52.51667000",
      "longitude": "-3.30000000"
    },
    {
      "id": 50742,
      "name": "Neyland",
      "latitude": "51.71014000",
      "longitude": "-4.95155000"
    },
    {
      "id": 50779,
      "name": "Northop",
      "latitude": "53.20692000",
      "longitude": "-3.13277000"
    },
    {
      "id": 50799,
      "name": "Ogmore Vale",
      "latitude": "51.60230000",
      "longitude": "-3.54217000"
    },
    {
      "id": 50836,
      "name": "Overton",
      "latitude": "52.96667000",
      "longitude": "-2.93333000"
    },
    {
      "id": 50871,
      "name": "Pembroke",
      "latitude": "51.67464000",
      "longitude": "-4.91286000"
    },
    {
      "id": 50872,
      "name": "Pembroke Dock",
      "latitude": "51.69161000",
      "longitude": "-4.94036000"
    },
    {
      "id": 50873,
      "name": "Pembrokeshire",
      "latitude": "51.83333000",
      "longitude": "-4.91667000"
    },
    {
      "id": 50875,
      "name": "Pen-clawdd",
      "latitude": "51.64028000",
      "longitude": "-4.09917000"
    },
    {
      "id": 50876,
      "name": "Penally",
      "latitude": "51.65986000",
      "longitude": "-4.72399000"
    },
    {
      "id": 50877,
      "name": "Penarth",
      "latitude": "51.43860000",
      "longitude": "-3.17342000"
    },
    {
      "id": 50878,
      "name": "Pencader",
      "latitude": "52.00080000",
      "longitude": "-4.26575000"
    },
    {
      "id": 50880,
      "name": "Pencoed",
      "latitude": "51.52371000",
      "longitude": "-3.50016000"
    },
    {
      "id": 50884,
      "name": "Penmaenmawr",
      "latitude": "53.26667000",
      "longitude": "-3.93333000"
    },
    {
      "id": 50885,
      "name": "Penparcau",
      "latitude": "52.40333000",
      "longitude": "-4.07417000"
    },
    {
      "id": 50886,
      "name": "Penrhyndeudraeth",
      "latitude": "52.93333000",
      "longitude": "-4.06667000"
    },
    {
      "id": 50890,
      "name": "Pentre",
      "latitude": "51.65429000",
      "longitude": "-3.49133000"
    },
    {
      "id": 50891,
      "name": "Pentyrch",
      "latitude": "51.52889000",
      "longitude": "-3.29500000"
    },
    {
      "id": 50892,
      "name": "Penyffordd",
      "latitude": "53.14829000",
      "longitude": "-3.04584000"
    },
    {
      "id": 50893,
      "name": "Penygroes",
      "latitude": "53.05502000",
      "longitude": "-4.28535000"
    },
    {
      "id": 50936,
      "name": "Pont Rhyd-y-cyff",
      "latitude": "51.58694000",
      "longitude": "-3.63639000"
    },
    {
      "id": 50937,
      "name": "Pontarddulais",
      "latitude": "51.71423000",
      "longitude": "-4.03859000"
    },
    {
      "id": 50941,
      "name": "Pontlliw",
      "latitude": "51.69139000",
      "longitude": "-4.01056000"
    },
    {
      "id": 50942,
      "name": "Pontyates",
      "latitude": "51.75182000",
      "longitude": "-4.21718000"
    },
    {
      "id": 50943,
      "name": "Pontyberem",
      "latitude": "51.77826000",
      "longitude": "-4.16890000"
    },
    {
      "id": 50944,
      "name": "Pontyclun",
      "latitude": "51.52162000",
      "longitude": "-3.39145000"
    },
    {
      "id": 50945,
      "name": "Pontycymer",
      "latitude": "51.61118000",
      "longitude": "-3.58421000"
    },
    {
      "id": 50946,
      "name": "Pontypool",
      "latitude": "51.70111000",
      "longitude": "-3.04444000"
    },
    {
      "id": 50947,
      "name": "Pontypridd",
      "latitude": "51.60210000",
      "longitude": "-3.34211000"
    },
    {
      "id": 50955,
      "name": "Port Talbot",
      "latitude": "51.59241000",
      "longitude": "-3.78019000"
    },
    {
      "id": 50960,
      "name": "Porthcawl",
      "latitude": "51.47903000",
      "longitude": "-3.70362000"
    },
    {
      "id": 50962,
      "name": "Porthmadog",
      "latitude": "52.92924000",
      "longitude": "-4.13137000"
    },
    {
      "id": 50984,
      "name": "Prestatyn",
      "latitude": "53.33748000",
      "longitude": "-3.40776000"
    },
    {
      "id": 50986,
      "name": "Presteigne",
      "latitude": "52.27183000",
      "longitude": "-3.00579000"
    },
    {
      "id": 50991,
      "name": "Price Town",
      "latitude": "51.61832000",
      "longitude": "-3.53662000"
    },
    {
      "id": 51008,
      "name": "Pwllheli",
      "latitude": "52.88990000",
      "longitude": "-4.41451000"
    },
    {
      "id": 51009,
      "name": "Pyle",
      "latitude": "51.51667000",
      "longitude": "-3.70000000"
    },
    {
      "id": 51021,
      "name": "Radyr",
      "latitude": "51.51864000",
      "longitude": "-3.25829000"
    },
    {
      "id": 51022,
      "name": "Raglan",
      "latitude": "51.76500000",
      "longitude": "-2.85331000"
    },
    {
      "id": 51064,
      "name": "Resolven",
      "latitude": "51.71193000",
      "longitude": "-3.69745000"
    },
    {
      "id": 51066,
      "name": "Rhayader",
      "latitude": "52.30154000",
      "longitude": "-3.51146000"
    },
    {
      "id": 51067,
      "name": "Rhondda",
      "latitude": "51.65896000",
      "longitude": "-3.44885000"
    },
    {
      "id": 51068,
      "name": "Rhondda Cynon Taf",
      "latitude": "51.66667000",
      "longitude": "-3.50000000"
    },
    {
      "id": 51069,
      "name": "Rhoose",
      "latitude": "51.38818000",
      "longitude": "-3.35430000"
    },
    {
      "id": 51070,
      "name": "Rhosllanerchrugog",
      "latitude": "53.00974000",
      "longitude": "-3.05814000"
    },
    {
      "id": 51071,
      "name": "Rhosneigr",
      "latitude": "53.23186000",
      "longitude": "-4.51480000"
    },
    {
      "id": 51073,
      "name": "Rhuddlan",
      "latitude": "53.29203000",
      "longitude": "-3.46996000"
    },
    {
      "id": 51074,
      "name": "Rhyl",
      "latitude": "53.31929000",
      "longitude": "-3.49228000"
    },
    {
      "id": 51075,
      "name": "Rhymney",
      "latitude": "51.75998000",
      "longitude": "-3.28553000"
    },
    {
      "id": 51088,
      "name": "Risca",
      "latitude": "51.60799000",
      "longitude": "-3.10081000"
    },
    {
      "id": 51100,
      "name": "Rogiet",
      "latitude": "51.58854000",
      "longitude": "-2.77868000"
    },
    {
      "id": 51112,
      "name": "Rossett",
      "latitude": "53.10921000",
      "longitude": "-2.94478000"
    },
    {
      "id": 51136,
      "name": "Ruabon",
      "latitude": "52.98780000",
      "longitude": "-3.03883000"
    },
    {
      "id": 51150,
      "name": "Ruthin",
      "latitude": "53.11368000",
      "longitude": "-3.31782000"
    },
    {
      "id": 51164,
      "name": "Saint Asaph",
      "latitude": "53.25815000",
      "longitude": "-3.44524000"
    },
    {
      "id": 51167,
      "name": "Saint Clears",
      "latitude": "51.81989000",
      "longitude": "-4.49783000"
    },
    {
      "id": 51170,
      "name": "Saint Davids",
      "latitude": "51.88094000",
      "longitude": "-5.26554000"
    },
    {
      "id": 51202,
      "name": "Saundersfoot",
      "latitude": "51.70945000",
      "longitude": "-4.70215000"
    },
    {
      "id": 51239,
      "name": "Seven Sisters",
      "latitude": "51.76667000",
      "longitude": "-3.71667000"
    },
    {
      "id": 51315,
      "name": "Sir Powys",
      "latitude": "52.33333000",
      "longitude": "-3.41667000"
    },
    {
      "id": 51375,
      "name": "Southgate",
      "latitude": "51.56944000",
      "longitude": "-4.08972000"
    },
    {
      "id": 51389,
      "name": "Spittal",
      "latitude": "51.86889000",
      "longitude": "-4.94250000"
    },
    {
      "id": 51448,
      "name": "Steynton",
      "latitude": "51.72917000",
      "longitude": "-5.01722000"
    },
    {
      "id": 51532,
      "name": "Swansea",
      "latitude": "51.62079000",
      "longitude": "-3.94323000"
    },
    {
      "id": 51546,
      "name": "Taibach",
      "latitude": "51.58333000",
      "longitude": "-3.76667000"
    },
    {
      "id": 51549,
      "name": "Tal-y-bont",
      "latitude": "52.77471000",
      "longitude": "-4.09224000"
    },
    {
      "id": 51550,
      "name": "Talgarth",
      "latitude": "51.99588000",
      "longitude": "-3.23205000"
    },
    {
      "id": 51551,
      "name": "Talysarn",
      "latitude": "53.05365000",
      "longitude": "-4.25767000"
    },
    {
      "id": 51573,
      "name": "Templeton",
      "latitude": "51.77194000",
      "longitude": "-4.73778000"
    },
    {
      "id": 51576,
      "name": "Tenby",
      "latitude": "51.67279000",
      "longitude": "-4.70447000"
    },
    {
      "id": 51611,
      "name": "Three Crosses",
      "latitude": "51.62865000",
      "longitude": "-4.06263000"
    },
    {
      "id": 51629,
      "name": "Tintern",
      "latitude": "51.69677000",
      "longitude": "-2.68142000"
    },
    {
      "id": 51641,
      "name": "Tonypandy",
      "latitude": "51.62202000",
      "longitude": "-3.45544000"
    },
    {
      "id": 51642,
      "name": "Tonyrefail",
      "latitude": "51.58402000",
      "longitude": "-3.43041000"
    },
    {
      "id": 51644,
      "name": "Torfaen County Borough",
      "latitude": "51.70146000",
      "longitude": "-3.05136000"
    },
    {
      "id": 51660,
      "name": "Trawsfynydd",
      "latitude": "52.90212000",
      "longitude": "-3.92289000"
    },
    {
      "id": 51661,
      "name": "Tredegar",
      "latitude": "51.77251000",
      "longitude": "-3.24679000"
    },
    {
      "id": 51663,
      "name": "Trefnant",
      "latitude": "53.22526000",
      "longitude": "-3.42030000"
    },
    {
      "id": 51664,
      "name": "Tregaron",
      "latitude": "52.21950000",
      "longitude": "-3.93295000"
    },
    {
      "id": 51665,
      "name": "Tregarth",
      "latitude": "53.19012000",
      "longitude": "-4.08780000"
    },
    {
      "id": 51666,
      "name": "Treharris",
      "latitude": "51.66457000",
      "longitude": "-3.30725000"
    },
    {
      "id": 51667,
      "name": "Treorchy",
      "latitude": "51.65958000",
      "longitude": "-3.50587000"
    },
    {
      "id": 51668,
      "name": "Treuddyn",
      "latitude": "53.11480000",
      "longitude": "-3.12003000"
    },
    {
      "id": 51671,
      "name": "Trimsaran",
      "latitude": "51.71988000",
      "longitude": "-4.24168000"
    },
    {
      "id": 51677,
      "name": "Tumble",
      "latitude": "51.78361000",
      "longitude": "-4.10972000"
    },
    {
      "id": 51684,
      "name": "Tycroes",
      "latitude": "51.77806000",
      "longitude": "-4.02000000"
    },
    {
      "id": 51688,
      "name": "Tywyn",
      "latitude": "52.58578000",
      "longitude": "-4.09276000"
    },
    {
      "id": 51696,
      "name": "Undy",
      "latitude": "51.57526000",
      "longitude": "-2.81453000"
    },
    {
      "id": 51710,
      "name": "Usk",
      "latitude": "51.70347000",
      "longitude": "-2.90332000"
    },
    {
      "id": 51712,
      "name": "Vale of Glamorgan",
      "latitude": "51.41667000",
      "longitude": "-3.41667000"
    },
    {
      "id": 51714,
      "name": "Valley",
      "latitude": "53.28490000",
      "longitude": "-4.56644000"
    },
    {
      "id": 51717,
      "name": "Victoria",
      "latitude": "51.75000000",
      "longitude": "-3.20000000"
    },
    {
      "id": 51794,
      "name": "Welshpool",
      "latitude": "52.65973000",
      "longitude": "-3.14710000"
    },
    {
      "id": 51803,
      "name": "Wenvoe",
      "latitude": "51.44776000",
      "longitude": "-3.26369000"
    },
    {
      "id": 51877,
      "name": "Whitland",
      "latitude": "51.81889000",
      "longitude": "-4.61528000"
    },
    {
      "id": 51888,
      "name": "Wick",
      "latitude": "51.43944000",
      "longitude": "-3.54944000"
    },
    {
      "id": 51998,
      "name": "Wrexham",
      "latitude": "53.00000000",
      "longitude": "-3.00000000"
    },
    {
      "id": 52008,
      "name": "Y Felinheli",
      "latitude": "53.18737000",
      "longitude": "-4.20476000"
    },
    {
      "id": 52023,
      "name": "Ynysybwl",
      "latitude": "51.63922000",
      "longitude": "-3.36036000"
    },
    {
      "id": 52027,
      "name": "Ystalyfera",
      "latitude": "51.76716000",
      "longitude": "-3.78082000"
    }
  ],
  "country": {
    "id": 232,
    "name": "United Kingdom",
    "iso3": "GBR",
    "iso2": "GB",
    "numeric_code": "826",
    "phone_code": "44",
    "capital": "London",
    "currency": "GBP",
    "currency_name": "British pound",
    "currency_symbol": "¬£",
    "tld": ".uk",
    "native": "United Kingdom",
    "region": "Europe",
    "subregion": "Northern Europe",
    "timezones": [
      {
        "zoneName": "Europe/London",
        "gmtOffset": 0,
        "gmtOffsetName": "UTC¬±00",
        "abbreviation": "GMT",
        "tzName": "Greenwich Mean Time"
      }
    ],
    "translations": {
      "kr": "ÏòÅÍµ≠",
      "pt-BR": "Reino Unido",
      "pt": "Reino Unido",
      "nl": "Verenigd Koninkrijk",
      "hr": "Ujedinjeno Kraljevstvo",
      "fa": "ÿ®ÿ±€åÿ™ÿßŸÜ€åÿß€å ⁄©ÿ®€åÿ± Ÿà ÿß€åÿ±ŸÑŸÜÿØ ÿ¥ŸÖÿßŸÑ€å",
      "de": "Vereinigtes K√∂nigreich",
      "es": "Reino Unido",
      "fr": "Royaume-Uni",
      "ja": "„Ç§„ÇÆ„É™„Çπ",
      "it": "Regno Unito",
      "cn": "Ëã±ÂõΩ",
      "tr": "Birle≈üik Krallik"
    },
    "latitude": "54.00000000",
    "longitude": "-2.00000000",
    "emoji": "üá¨üáß",
    "emojiU": "U+1F1EC U+1F1E7"
  }
}