{
  "id": 4857,
  "name": "Jalisco",
  "state_code": "JAL",
  "latitude": "20.65953820",
  "longitude": "-103.34943760",
  "type": "state",
  "cities": [
    {
      "id": 142147,
      "name": "Acatlán de Juárez Municipality",
      "latitude": "20.42416667",
      "longitude": "-103.60138889"
    },
    {
      "id": 142148,
      "name": "Acueducto Fraccionamiento",
      "latitude": "19.47917000",
      "longitude": "-103.31806000"
    },
    {
      "id": 142149,
      "name": "Agua Bermeja",
      "latitude": "20.66750000",
      "longitude": "-102.97056000"
    },
    {
      "id": 142150,
      "name": "Agua Caliente",
      "latitude": "21.77250000",
      "longitude": "-103.78806000"
    },
    {
      "id": 142151,
      "name": "Agua Colorada",
      "latitude": "20.94694000",
      "longitude": "-103.20611000"
    },
    {
      "id": 142152,
      "name": "Agua Delgada",
      "latitude": "20.16222000",
      "longitude": "-103.82750000"
    },
    {
      "id": 142153,
      "name": "Agua Escondida",
      "latitude": "20.86083000",
      "longitude": "-102.72500000"
    },
    {
      "id": 142154,
      "name": "Agua Fría",
      "latitude": "20.58778000",
      "longitude": "-102.55833000"
    },
    {
      "id": 142155,
      "name": "Agua Nueva",
      "latitude": "20.67889000",
      "longitude": "-102.45111000"
    },
    {
      "id": 142156,
      "name": "Agua Paloma",
      "latitude": "19.67799000",
      "longitude": "-105.18473000"
    },
    {
      "id": 142157,
      "name": "Agua Prieta",
      "latitude": "20.79361000",
      "longitude": "-102.89194000"
    },
    {
      "id": 142158,
      "name": "Agua Rica",
      "latitude": "20.83639000",
      "longitude": "-103.18778000"
    },
    {
      "id": 142159,
      "name": "Agua Salada",
      "latitude": "19.73111000",
      "longitude": "-103.19639000"
    },
    {
      "id": 142160,
      "name": "Agua Zarca",
      "latitude": "21.85035000",
      "longitude": "-103.49102000"
    },
    {
      "id": 142161,
      "name": "Ahualulco de Mercado Municipality",
      "latitude": "20.61666667",
      "longitude": "-103.86666667"
    },
    {
      "id": 142162,
      "name": "Ahuatlán",
      "latitude": "20.41836000",
      "longitude": "-102.88759000"
    },
    {
      "id": 142163,
      "name": "Ahuetita de Abajo",
      "latitude": "21.41972000",
      "longitude": "-102.65278000"
    },
    {
      "id": 142164,
      "name": "Ahuisculco",
      "latitude": "20.56875000",
      "longitude": "-103.70313000"
    },
    {
      "id": 142165,
      "name": "Ajijic",
      "latitude": "20.29944444",
      "longitude": "-103.25805556"
    },
    {
      "id": 142166,
      "name": "Alfredo V. Bonfil",
      "latitude": "20.66278000",
      "longitude": "-103.72278000"
    },
    {
      "id": 142167,
      "name": "Alista",
      "latitude": "19.63401000",
      "longitude": "-103.78890000"
    },
    {
      "id": 142168,
      "name": "Allende",
      "latitude": "20.72054000",
      "longitude": "-102.08557000"
    },
    {
      "id": 142169,
      "name": "Altavista de Ramos",
      "latitude": "20.43333333",
      "longitude": "-104.01666667"
    },
    {
      "id": 142170,
      "name": "Altus Bosques",
      "latitude": "20.56806000",
      "longitude": "-103.37250000"
    },
    {
      "id": 142171,
      "name": "Amacuautitlán",
      "latitude": "19.81619000",
      "longitude": "-104.02078000"
    },
    {
      "id": 142172,
      "name": "Amacueca Municipality",
      "latitude": "19.93333333",
      "longitude": "-103.06666667"
    },
    {
      "id": 142173,
      "name": "Amajaquillo",
      "latitude": "20.92750000",
      "longitude": "-104.60028000"
    },
    {
      "id": 142174,
      "name": "Amatanejo",
      "latitude": "20.95241000",
      "longitude": "-104.73775000"
    },
    {
      "id": 142175,
      "name": "Amatitán",
      "latitude": "20.83333333",
      "longitude": "-103.71666667"
    },
    {
      "id": 142176,
      "name": "Ambrosio",
      "latitude": "20.27605000",
      "longitude": "-103.97092000"
    },
    {
      "id": 142177,
      "name": "Ameca",
      "latitude": "20.67000000",
      "longitude": "-103.70000000"
    },
    {
      "id": 142178,
      "name": "Ameca Municipality",
      "latitude": "20.54831370",
      "longitude": "-104.04750230"
    },
    {
      "id": 142179,
      "name": "Analco",
      "latitude": "21.38500000",
      "longitude": "-102.63417000"
    },
    {
      "id": 142180,
      "name": "Anoca",
      "latitude": "20.09222000",
      "longitude": "-103.54556000"
    },
    {
      "id": 142181,
      "name": "Antonio Escobedo",
      "latitude": "20.80000000",
      "longitude": "-104.01667000"
    },
    {
      "id": 142182,
      "name": "Apazulco",
      "latitude": "19.36972000",
      "longitude": "-104.87889000"
    },
    {
      "id": 142183,
      "name": "Apozol de Gutiérrez",
      "latitude": "21.01778000",
      "longitude": "-102.82556000"
    },
    {
      "id": 142184,
      "name": "Aquiles Serdán",
      "latitude": "20.30019000",
      "longitude": "-105.62230000"
    },
    {
      "id": 142185,
      "name": "Arandas",
      "latitude": "20.70519000",
      "longitude": "-102.34635000"
    },
    {
      "id": 142186,
      "name": "Arroyo Hondo",
      "latitude": "19.68222000",
      "longitude": "-103.30000000"
    },
    {
      "id": 142187,
      "name": "Atacco",
      "latitude": "19.92662000",
      "longitude": "-103.74249000"
    },
    {
      "id": 142188,
      "name": "Atarjeas de Covarrubias",
      "latitude": "19.91944000",
      "longitude": "-103.94333000"
    },
    {
      "id": 142189,
      "name": "Atemanica",
      "latitude": "21.07528000",
      "longitude": "-103.75028000"
    },
    {
      "id": 142190,
      "name": "Atengo",
      "latitude": "20.21666667",
      "longitude": "-104.08333333"
    },
    {
      "id": 142191,
      "name": "Atenguillo",
      "latitude": "20.41553000",
      "longitude": "-104.49387000"
    },
    {
      "id": 142192,
      "name": "Atequiza",
      "latitude": "20.39006000",
      "longitude": "-103.14065000"
    },
    {
      "id": 142193,
      "name": "Atotonilco el Alto Municipality",
      "latitude": "20.53333333",
      "longitude": "-102.50000000"
    },
    {
      "id": 142194,
      "name": "Atotonilco el Bajo",
      "latitude": "20.34833333",
      "longitude": "-103.67083333"
    },
    {
      "id": 142195,
      "name": "Atotonilquillo",
      "latitude": "20.39287000",
      "longitude": "-103.12356000"
    },
    {
      "id": 142196,
      "name": "Atoyac",
      "latitude": "20.01700000",
      "longitude": "-103.53300000"
    },
    {
      "id": 142197,
      "name": "Atzcatlán",
      "latitude": "20.40306000",
      "longitude": "-102.97111000"
    },
    {
      "id": 142198,
      "name": "Autlán de Navarro",
      "latitude": "19.76666667",
      "longitude": "-104.36666667"
    },
    {
      "id": 142199,
      "name": "Ayotitlán",
      "latitude": "20.22048000",
      "longitude": "-103.94397000"
    },
    {
      "id": 142200,
      "name": "Ayotlán Municipality",
      "latitude": "20.49388889",
      "longitude": "-102.35083333"
    },
    {
      "id": 142201,
      "name": "Ayuquila",
      "latitude": "19.84001000",
      "longitude": "-104.27156000"
    },
    {
      "id": 142202,
      "name": "Ayutla Jalisco",
      "latitude": "20.81666667",
      "longitude": "-104.20000000"
    },
    {
      "id": 142204,
      "name": "Bajío de Ratones",
      "latitude": "20.71306000",
      "longitude": "-102.42861000"
    },
    {
      "id": 142205,
      "name": "Bajío de San José",
      "latitude": "21.67525000",
      "longitude": "-102.11606000"
    },
    {
      "id": 142203,
      "name": "Bajío Seco",
      "latitude": "20.70889000",
      "longitude": "-102.39028000"
    },
    {
      "id": 142206,
      "name": "Balcones de la Calera",
      "latitude": "20.44250000",
      "longitude": "-103.26722000"
    },
    {
      "id": 142207,
      "name": "Banus Vallarta",
      "latitude": "20.71611000",
      "longitude": "-105.22306000"
    },
    {
      "id": 142208,
      "name": "Barra de Navidad",
      "latitude": "19.20805556",
      "longitude": "-104.68055556"
    },
    {
      "id": 142211,
      "name": "Barranca de los Laureles",
      "latitude": "20.23333333",
      "longitude": "-103.63333333"
    },
    {
      "id": 142209,
      "name": "Barranca de Otates",
      "latitude": "20.26806000",
      "longitude": "-103.66472000"
    },
    {
      "id": 142210,
      "name": "Barranca de Santa Clara",
      "latitude": "20.25566000",
      "longitude": "-103.65560000"
    },
    {
      "id": 142212,
      "name": "Barranca del Tule",
      "latitude": "21.98028000",
      "longitude": "-103.90694000"
    },
    {
      "id": 142213,
      "name": "Barrio de Reyes",
      "latitude": "21.29194000",
      "longitude": "-102.50556000"
    },
    {
      "id": 142214,
      "name": "Barrio de Tapias",
      "latitude": "22.18361000",
      "longitude": "-103.22667000"
    },
    {
      "id": 142215,
      "name": "Belem del Refugio",
      "latitude": "21.53023000",
      "longitude": "-102.43515000"
    },
    {
      "id": 142216,
      "name": "Bellavista",
      "latitude": "20.43408000",
      "longitude": "-103.63742000"
    },
    {
      "id": 142217,
      "name": "Benito Juárez",
      "latitude": "20.03639000",
      "longitude": "-105.26806000"
    },
    {
      "id": 142218,
      "name": "Betania",
      "latitude": "20.58199000",
      "longitude": "-102.37914000"
    },
    {
      "id": 142219,
      "name": "Betulia",
      "latitude": "21.75935000",
      "longitude": "-102.01940000"
    },
    {
      "id": 142220,
      "name": "Bicercio",
      "latitude": "20.65944000",
      "longitude": "-102.98389000"
    },
    {
      "id": 142221,
      "name": "Boca de Tomatlán",
      "latitude": "20.51211000",
      "longitude": "-105.31442000"
    },
    {
      "id": 142222,
      "name": "Bolaños Municipality",
      "latitude": "21.83055556",
      "longitude": "-103.78055556"
    },
    {
      "id": 142223,
      "name": "Bosque Real Fraccionamiento",
      "latitude": "20.56833000",
      "longitude": "-103.49389000"
    },
    {
      "id": 142224,
      "name": "Brisas de la Navidad",
      "latitude": "19.22444000",
      "longitude": "-104.65639000"
    },
    {
      "id": 142225,
      "name": "Brizuela",
      "latitude": "20.18333333",
      "longitude": "-103.70000000"
    },
    {
      "id": 142226,
      "name": "Buena Vista",
      "latitude": "20.77722000",
      "longitude": "-102.75778000"
    },
    {
      "id": 142227,
      "name": "Buenavista",
      "latitude": "21.55889000",
      "longitude": "-102.55639000"
    },
    {
      "id": 142228,
      "name": "Buenos Aires",
      "latitude": "20.54056000",
      "longitude": "-102.93444000"
    },
    {
      "id": 142229,
      "name": "Cabo Corrientes",
      "latitude": "20.34394000",
      "longitude": "-105.39322000"
    },
    {
      "id": 142230,
      "name": "Cajititlán",
      "latitude": "20.43174000",
      "longitude": "-103.30940000"
    },
    {
      "id": 142231,
      "name": "Calerita",
      "latitude": "21.46000000",
      "longitude": "-102.58806000"
    },
    {
      "id": 142232,
      "name": "Callejones",
      "latitude": "19.66833000",
      "longitude": "-103.26278000"
    },
    {
      "id": 142233,
      "name": "Camajapita",
      "latitude": "20.35000000",
      "longitude": "-103.91666667"
    },
    {
      "id": 142234,
      "name": "Campestre las Palomas Fraccionamiento",
      "latitude": "20.81778000",
      "longitude": "-103.45167000"
    },
    {
      "id": 142235,
      "name": "Campo Acosta",
      "latitude": "19.77061000",
      "longitude": "-105.24917000"
    },
    {
      "id": 142236,
      "name": "Campo Real",
      "latitude": "20.78722000",
      "longitude": "-103.44306000"
    },
    {
      "id": 142252,
      "name": "Cañada de Islas",
      "latitude": "21.24139000",
      "longitude": "-102.83722000"
    },
    {
      "id": 142253,
      "name": "Cañada de Ricos",
      "latitude": "21.37140000",
      "longitude": "-101.87653000"
    },
    {
      "id": 142254,
      "name": "Cañada de San Ignacio",
      "latitude": "20.55222000",
      "longitude": "-102.35333000"
    },
    {
      "id": 142251,
      "name": "Cañada Grande",
      "latitude": "21.03889000",
      "longitude": "-102.59278000"
    },
    {
      "id": 142255,
      "name": "Cañadas de Obregón",
      "latitude": "21.14685000",
      "longitude": "-102.68616111"
    },
    {
      "id": 142237,
      "name": "Canchol",
      "latitude": "19.30028000",
      "longitude": "-102.94889000"
    },
    {
      "id": 142238,
      "name": "Canoas",
      "latitude": "21.27222000",
      "longitude": "-101.80694000"
    },
    {
      "id": 142239,
      "name": "Canoas de Arriba",
      "latitude": "22.12333000",
      "longitude": "-103.24556000"
    },
    {
      "id": 142240,
      "name": "Capilla de Guadalupe",
      "latitude": "20.82694444",
      "longitude": "-102.59222222"
    },
    {
      "id": 142241,
      "name": "Capilla de Milpillas",
      "latitude": "20.66331000",
      "longitude": "-102.84295000"
    },
    {
      "id": 142242,
      "name": "Capulín",
      "latitude": "20.47802000",
      "longitude": "-103.26947000"
    },
    {
      "id": 142243,
      "name": "Caquixtle de Arriba",
      "latitude": "21.51250000",
      "longitude": "-102.07472000"
    },
    {
      "id": 142244,
      "name": "Carrasqueño",
      "latitude": "20.37917000",
      "longitude": "-102.61889000"
    },
    {
      "id": 142245,
      "name": "Carretas",
      "latitude": "20.44222000",
      "longitude": "-102.42417000"
    },
    {
      "id": 142246,
      "name": "Carrizal",
      "latitude": "22.21306000",
      "longitude": "-104.30389000"
    },
    {
      "id": 142247,
      "name": "Casa de Teja",
      "latitude": "20.45639000",
      "longitude": "-103.13583000"
    },
    {
      "id": 142248,
      "name": "Casas Viejas",
      "latitude": "21.18972000",
      "longitude": "-102.25389000"
    },
    {
      "id": 142249,
      "name": "Casimiro Castillo",
      "latitude": "19.60429000",
      "longitude": "-104.43572000"
    },
    {
      "id": 142250,
      "name": "Castro Urdiales",
      "latitude": "20.59754000",
      "longitude": "-103.82046000"
    },
    {
      "id": 142256,
      "name": "Ceja de Bolitas",
      "latitude": "21.31083000",
      "longitude": "-102.02861000"
    },
    {
      "id": 142257,
      "name": "Centro de Readaptación Social",
      "latitude": "20.55444000",
      "longitude": "-103.19361000"
    },
    {
      "id": 142258,
      "name": "Cerrito de Buenos Aires",
      "latitude": "20.52778000",
      "longitude": "-102.93889000"
    },
    {
      "id": 142259,
      "name": "Cerrito de Tierra",
      "latitude": "20.88861000",
      "longitude": "-103.10389000"
    },
    {
      "id": 142260,
      "name": "Cerro Santa Fe",
      "latitude": "20.52599000",
      "longitude": "-103.08448000"
    },
    {
      "id": 142261,
      "name": "Chacala",
      "latitude": "20.42833000",
      "longitude": "-105.46778000"
    },
    {
      "id": 142262,
      "name": "Chachahuatlán",
      "latitude": "19.63361000",
      "longitude": "-103.98750000"
    },
    {
      "id": 142263,
      "name": "Chalpicote",
      "latitude": "20.30972000",
      "longitude": "-102.91615000"
    },
    {
      "id": 142264,
      "name": "Chamacuero",
      "latitude": "20.10793000",
      "longitude": "-103.29326000"
    },
    {
      "id": 142265,
      "name": "Chamela Jalisco",
      "latitude": "19.52722222",
      "longitude": "-105.07333333"
    },
    {
      "id": 142266,
      "name": "Chancol",
      "latitude": "19.48056000",
      "longitude": "-104.17194000"
    },
    {
      "id": 142267,
      "name": "Chancuellar",
      "latitude": "19.50972000",
      "longitude": "-103.83111000"
    },
    {
      "id": 142268,
      "name": "Chapala",
      "latitude": "20.29333333",
      "longitude": "-103.18972222"
    },
    {
      "id": 142269,
      "name": "Chayotillo",
      "latitude": "21.74972000",
      "longitude": "-101.93861000"
    },
    {
      "id": 142270,
      "name": "Chilacayote",
      "latitude": "20.13861000",
      "longitude": "-104.64861000"
    },
    {
      "id": 142271,
      "name": "Chimaltitán",
      "latitude": "21.74805556",
      "longitude": "-103.69472222"
    },
    {
      "id": 142272,
      "name": "Chinampas",
      "latitude": "21.83686000",
      "longitude": "-101.81564000"
    },
    {
      "id": 142273,
      "name": "Chipinque de Arriba",
      "latitude": "21.43194000",
      "longitude": "-101.90667000"
    },
    {
      "id": 142274,
      "name": "Chiquihuitillo",
      "latitude": "20.74556000",
      "longitude": "-102.98722000"
    },
    {
      "id": 142275,
      "name": "Chiquilistlán",
      "latitude": "20.20000000",
      "longitude": "-103.81667000"
    },
    {
      "id": 142276,
      "name": "Chiquilistlán Jalisco",
      "latitude": "20.08555556",
      "longitude": "-103.89388889"
    },
    {
      "id": 142277,
      "name": "Chome",
      "latitude": "20.89528000",
      "longitude": "-103.73528000"
    },
    {
      "id": 142278,
      "name": "Churintzio",
      "latitude": "21.26167000",
      "longitude": "-102.01444000"
    },
    {
      "id": 142284,
      "name": "Ciénega de Galvanes",
      "latitude": "20.57500000",
      "longitude": "-101.97000000"
    },
    {
      "id": 142285,
      "name": "Ciénega del Pastor",
      "latitude": "20.52060000",
      "longitude": "-102.65710000"
    },
    {
      "id": 142279,
      "name": "Cihuatlán Jalisco",
      "latitude": "19.25000000",
      "longitude": "-104.56666667"
    },
    {
      "id": 142280,
      "name": "Cima del Sol",
      "latitude": "20.46889000",
      "longitude": "-103.41722000"
    },
    {
      "id": 142281,
      "name": "Citala",
      "latitude": "20.10454000",
      "longitude": "-103.26194000"
    },
    {
      "id": 142282,
      "name": "Ciudad Guzmán",
      "latitude": "19.70861111",
      "longitude": "-103.46416667"
    },
    {
      "id": 142283,
      "name": "Ciudad Guzmán CERESO",
      "latitude": "19.65194000",
      "longitude": "-103.50000000"
    },
    {
      "id": 142286,
      "name": "Coamostita",
      "latitude": "21.92833000",
      "longitude": "-103.99083000"
    },
    {
      "id": 142287,
      "name": "Coatlancillo",
      "latitude": "19.89314000",
      "longitude": "-103.96414000"
    },
    {
      "id": 142288,
      "name": "Cocuasco",
      "latitude": "21.83444000",
      "longitude": "-103.64389000"
    },
    {
      "id": 142289,
      "name": "Cocula Jalisco",
      "latitude": "20.36516667",
      "longitude": "-103.82214167"
    },
    {
      "id": 142290,
      "name": "Codorniz",
      "latitude": "22.14528000",
      "longitude": "-104.31694000"
    },
    {
      "id": 142291,
      "name": "Cofradía",
      "latitude": "19.51667000",
      "longitude": "-104.71667000"
    },
    {
      "id": 142292,
      "name": "Cofradía Santa Cruz de Camotlán",
      "latitude": "20.93086000",
      "longitude": "-104.64303000"
    },
    {
      "id": 142293,
      "name": "Colinas del Roble",
      "latitude": "20.50417000",
      "longitude": "-103.39833000"
    },
    {
      "id": 142294,
      "name": "Colinas del Valle",
      "latitude": "20.75694000",
      "longitude": "-105.15917000"
    },
    {
      "id": 142295,
      "name": "Colonia Agua Caliente",
      "latitude": "21.37778000",
      "longitude": "-101.91611000"
    },
    {
      "id": 142296,
      "name": "Colonia Bosques del Sol",
      "latitude": "20.59944000",
      "longitude": "-103.21778000"
    },
    {
      "id": 142297,
      "name": "Colonia Capilla de Rayo",
      "latitude": "20.14806000",
      "longitude": "-104.34639000"
    },
    {
      "id": 142298,
      "name": "Colonia Cuisillos",
      "latitude": "20.72417000",
      "longitude": "-103.65528000"
    },
    {
      "id": 142299,
      "name": "Colonia Ganadera",
      "latitude": "21.15611000",
      "longitude": "-102.89944000"
    },
    {
      "id": 142300,
      "name": "Colonia Guadalupana",
      "latitude": "20.56667000",
      "longitude": "-103.21889000"
    },
    {
      "id": 142301,
      "name": "Colonia Hatmasie",
      "latitude": "22.39278000",
      "longitude": "-103.99111000"
    },
    {
      "id": 142313,
      "name": "Colonia la Granjena",
      "latitude": "20.35167000",
      "longitude": "-102.79639000"
    },
    {
      "id": 142314,
      "name": "Colonia las Granjas",
      "latitude": "22.61583000",
      "longitude": "-103.89639000"
    },
    {
      "id": 142315,
      "name": "Colonia las Palmas Campamento SAGAR",
      "latitude": "19.97139000",
      "longitude": "-105.32389000"
    },
    {
      "id": 142303,
      "name": "Colonia Lázaro Cárdenas",
      "latitude": "20.42778000",
      "longitude": "-103.68083000"
    },
    {
      "id": 142304,
      "name": "Colonia Lázaro Cárdenas del Río",
      "latitude": "19.98917000",
      "longitude": "-103.25583000"
    },
    {
      "id": 142302,
      "name": "Colonia Loma Alta",
      "latitude": "19.44583000",
      "longitude": "-104.36556000"
    },
    {
      "id": 142316,
      "name": "Colonia los Robles",
      "latitude": "20.59194000",
      "longitude": "-105.21500000"
    },
    {
      "id": 142317,
      "name": "Colonia los Sauces",
      "latitude": "20.55028000",
      "longitude": "-103.35167000"
    },
    {
      "id": 142305,
      "name": "Colonia Madero",
      "latitude": "20.07056000",
      "longitude": "-103.08917000"
    },
    {
      "id": 142306,
      "name": "Colonia Niños Héroes",
      "latitude": "20.55917000",
      "longitude": "-103.43083000"
    },
    {
      "id": 142307,
      "name": "Colonia Paso del Molino",
      "latitude": "20.59278000",
      "longitude": "-105.21833000"
    },
    {
      "id": 142308,
      "name": "Colonia Pinal Villa",
      "latitude": "19.23806000",
      "longitude": "-104.69389000"
    },
    {
      "id": 142309,
      "name": "Colonia Santa Cecilia",
      "latitude": "21.25250000",
      "longitude": "-102.35139000"
    },
    {
      "id": 142310,
      "name": "Colonia Trigomil",
      "latitude": "19.94222000",
      "longitude": "-104.24917000"
    },
    {
      "id": 142311,
      "name": "Colonia Veintitrés de Mayo",
      "latitude": "21.01000000",
      "longitude": "-102.19778000"
    },
    {
      "id": 142312,
      "name": "Colonia Veintiuno de Marzo",
      "latitude": "22.23710000",
      "longitude": "-103.08390000"
    },
    {
      "id": 142318,
      "name": "Colotlán",
      "latitude": "22.11343000",
      "longitude": "-103.26664000"
    },
    {
      "id": 142319,
      "name": "Colotlán Municipality",
      "latitude": "22.20000000",
      "longitude": "-103.30000000"
    },
    {
      "id": 142320,
      "name": "Comanja de Corona",
      "latitude": "21.32520000",
      "longitude": "-101.71379000"
    },
    {
      "id": 142321,
      "name": "Concepción de Buenos Aires",
      "latitude": "19.86666667",
      "longitude": "-103.15000000"
    },
    {
      "id": 142322,
      "name": "Concepción del Bramador",
      "latitude": "20.24460000",
      "longitude": "-105.07807000"
    },
    {
      "id": 142342,
      "name": "Cópala",
      "latitude": "19.92333000",
      "longitude": "-103.74806000"
    },
    {
      "id": 142323,
      "name": "Copales",
      "latitude": "20.85278000",
      "longitude": "-104.74778000"
    },
    {
      "id": 142324,
      "name": "Corral Blanco",
      "latitude": "21.56778000",
      "longitude": "-102.37139000"
    },
    {
      "id": 142325,
      "name": "Corral de Piedra",
      "latitude": "21.48333000",
      "longitude": "-102.11806000"
    },
    {
      "id": 142326,
      "name": "Corralillos",
      "latitude": "20.64944000",
      "longitude": "-102.91056000"
    },
    {
      "id": 142327,
      "name": "Coyamel",
      "latitude": "19.49806000",
      "longitude": "-104.52306000"
    },
    {
      "id": 142328,
      "name": "Coyula",
      "latitude": "20.65881000",
      "longitude": "-103.22654000"
    },
    {
      "id": 142329,
      "name": "Cristeros Fraccionamiento",
      "latitude": "21.32111000",
      "longitude": "-101.97333000"
    },
    {
      "id": 142330,
      "name": "Cuauhtémoc",
      "latitude": "19.63306000",
      "longitude": "-103.92722000"
    },
    {
      "id": 142331,
      "name": "Cuautitlán",
      "latitude": "21.73639000",
      "longitude": "-101.96917000"
    },
    {
      "id": 142332,
      "name": "Cuautitlán de García Barragán",
      "latitude": "19.43333333",
      "longitude": "-104.30000000"
    },
    {
      "id": 142333,
      "name": "Cuautla",
      "latitude": "20.20139000",
      "longitude": "-104.40750000"
    },
    {
      "id": 142334,
      "name": "Cuesta Chica",
      "latitude": "20.56444000",
      "longitude": "-102.67167000"
    },
    {
      "id": 142335,
      "name": "Cuesta de Ovejas",
      "latitude": "20.55222000",
      "longitude": "-102.66750000"
    },
    {
      "id": 142336,
      "name": "Cuexcomatitlán",
      "latitude": "20.42810000",
      "longitude": "-103.36189000"
    },
    {
      "id": 142337,
      "name": "Cuisillos",
      "latitude": "20.60948000",
      "longitude": "-103.77441000"
    },
    {
      "id": 142338,
      "name": "Cuitzeo",
      "latitude": "20.34278000",
      "longitude": "-102.78389000"
    },
    {
      "id": 142339,
      "name": "Cuquío",
      "latitude": "20.92750000",
      "longitude": "-103.02388889"
    },
    {
      "id": 142340,
      "name": "Custique",
      "latitude": "21.62000000",
      "longitude": "-102.49111000"
    },
    {
      "id": 142341,
      "name": "Cuxpala",
      "latitude": "20.55935000",
      "longitude": "-103.64510000"
    },
    {
      "id": 142343,
      "name": "Degollado",
      "latitude": "20.46702000",
      "longitude": "-102.14976000"
    },
    {
      "id": 142344,
      "name": "Dieciocho de Marzo",
      "latitude": "21.48238000",
      "longitude": "-101.79880000"
    },
    {
      "id": 142345,
      "name": "Ejido Agua Zarca",
      "latitude": "19.83611000",
      "longitude": "-103.26917000"
    },
    {
      "id": 142346,
      "name": "Ejido Ciénega de Mora",
      "latitude": "21.50389000",
      "longitude": "-102.35000000"
    },
    {
      "id": 142347,
      "name": "Ejido Modelo",
      "latitude": "19.53750000",
      "longitude": "-104.51361000"
    },
    {
      "id": 142348,
      "name": "Ejido Poblado Atenquique",
      "latitude": "19.56639000",
      "longitude": "-103.51722000"
    },
    {
      "id": 142349,
      "name": "Ejido Uno de Febrero",
      "latitude": "19.81417000",
      "longitude": "-103.49139000"
    },
    {
      "id": 142350,
      "name": "Ejutla",
      "latitude": "19.90000000",
      "longitude": "-104.15000000"
    },
    {
      "id": 142351,
      "name": "El Agostadero",
      "latitude": "19.14493000",
      "longitude": "-103.38721000"
    },
    {
      "id": 142352,
      "name": "El Aguacate",
      "latitude": "20.70172000",
      "longitude": "-103.20799000"
    },
    {
      "id": 142353,
      "name": "El Alto",
      "latitude": "20.77472000",
      "longitude": "-102.49583000"
    },
    {
      "id": 142354,
      "name": "El Amarillo",
      "latitude": "20.91333000",
      "longitude": "-103.72500000"
    },
    {
      "id": 142355,
      "name": "El Amarradero",
      "latitude": "20.65306000",
      "longitude": "-102.01278000"
    },
    {
      "id": 142356,
      "name": "El Arca",
      "latitude": "20.37167000",
      "longitude": "-102.17611000"
    },
    {
      "id": 142357,
      "name": "El Arco Ameca",
      "latitude": "20.60944000",
      "longitude": "-104.07333000"
    },
    {
      "id": 142358,
      "name": "El Arenal",
      "latitude": "20.77538000",
      "longitude": "-103.69353000"
    },
    {
      "id": 142359,
      "name": "El Asoleadero",
      "latitude": "21.36389000",
      "longitude": "-102.38222000"
    },
    {
      "id": 142360,
      "name": "El Bajío",
      "latitude": "21.37944000",
      "longitude": "-101.95028000"
    },
    {
      "id": 142362,
      "name": "El Bajío de Plascencia",
      "latitude": "20.71583000",
      "longitude": "-102.79278000"
    },
    {
      "id": 142361,
      "name": "El Bajío Lomas del Club",
      "latitude": "20.58361000",
      "longitude": "-103.29583000"
    },
    {
      "id": 142363,
      "name": "El Banco del Venado",
      "latitude": "21.85083000",
      "longitude": "-103.98722000"
    },
    {
      "id": 142364,
      "name": "El Barrio",
      "latitude": "21.40056000",
      "longitude": "-102.55444000"
    },
    {
      "id": 142365,
      "name": "El Brillante Fraccionamiento",
      "latitude": "20.55750000",
      "longitude": "-104.03194000"
    },
    {
      "id": 142366,
      "name": "El Briseño",
      "latitude": "20.23889000",
      "longitude": "-103.59500000"
    },
    {
      "id": 142367,
      "name": "El Cabezón",
      "latitude": "20.49569000",
      "longitude": "-103.95144000"
    },
    {
      "id": 142368,
      "name": "El Cacalote",
      "latitude": "19.84417000",
      "longitude": "-104.28083000"
    },
    {
      "id": 142369,
      "name": "El Camichín",
      "latitude": "19.64194000",
      "longitude": "-104.04452000"
    },
    {
      "id": 142370,
      "name": "El Cantón",
      "latitude": "20.74268000",
      "longitude": "-105.18052000"
    },
    {
      "id": 142371,
      "name": "El Capulín de Chávez",
      "latitude": "20.65806000",
      "longitude": "-102.20583000"
    },
    {
      "id": 142372,
      "name": "El Carmen",
      "latitude": "21.70111000",
      "longitude": "-101.99250000"
    },
    {
      "id": 142373,
      "name": "El Carricillo",
      "latitude": "20.73000000",
      "longitude": "-103.03056000"
    },
    {
      "id": 142374,
      "name": "El Carrizal",
      "latitude": "19.99750000",
      "longitude": "-103.38750000"
    },
    {
      "id": 142375,
      "name": "El Cedazo",
      "latitude": "20.70583000",
      "longitude": "-102.69222000"
    },
    {
      "id": 142376,
      "name": "El Cerrito",
      "latitude": "19.85394000",
      "longitude": "-103.93187000"
    },
    {
      "id": 142377,
      "name": "El Cerro Jalisco",
      "latitude": "22.18639000",
      "longitude": "-103.39944000"
    },
    {
      "id": 142378,
      "name": "El Chalate",
      "latitude": "22.13556000",
      "longitude": "-104.27944000"
    },
    {
      "id": 142379,
      "name": "El Chante",
      "latitude": "19.71800000",
      "longitude": "-104.20025000"
    },
    {
      "id": 142380,
      "name": "El Chaveño",
      "latitude": "20.44056000",
      "longitude": "-102.31333000"
    },
    {
      "id": 142381,
      "name": "El Chilar",
      "latitude": "20.83667000",
      "longitude": "-103.29528000"
    },
    {
      "id": 142382,
      "name": "El Chispeadero",
      "latitude": "20.77083000",
      "longitude": "-102.80000000"
    },
    {
      "id": 142383,
      "name": "El Chivatillo",
      "latitude": "20.29733000",
      "longitude": "-103.78934000"
    },
    {
      "id": 142384,
      "name": "El Coahuayote",
      "latitude": "19.61028000",
      "longitude": "-103.35611000"
    },
    {
      "id": 142385,
      "name": "El Colomo",
      "latitude": "20.86962000",
      "longitude": "-105.15597000"
    },
    {
      "id": 142386,
      "name": "El Colorado",
      "latitude": "20.77029000",
      "longitude": "-105.15651000"
    },
    {
      "id": 142387,
      "name": "El Columpio",
      "latitude": "20.39861000",
      "longitude": "-105.31056000"
    },
    {
      "id": 142388,
      "name": "El Conde",
      "latitude": "20.38250000",
      "longitude": "-103.85389000"
    },
    {
      "id": 142389,
      "name": "El Conejo",
      "latitude": "21.46528000",
      "longitude": "-101.86944000"
    },
    {
      "id": 142390,
      "name": "El Corcovado",
      "latitude": "19.84525000",
      "longitude": "-104.28566000"
    },
    {
      "id": 142391,
      "name": "El Cortijo",
      "latitude": "20.46917000",
      "longitude": "-103.42194000"
    },
    {
      "id": 142392,
      "name": "El Coyotillo",
      "latitude": "20.94611000",
      "longitude": "-103.11250000"
    },
    {
      "id": 142393,
      "name": "El Crucero",
      "latitude": "20.73306000",
      "longitude": "-103.60333000"
    },
    {
      "id": 142394,
      "name": "El Crucero de Arandas",
      "latitude": "20.88861000",
      "longitude": "-102.70972000"
    },
    {
      "id": 142395,
      "name": "El Crucero de Santa María",
      "latitude": "20.38398611",
      "longitude": "-103.86053333"
    },
    {
      "id": 142396,
      "name": "El Cuatro",
      "latitude": "20.85611000",
      "longitude": "-103.02583000"
    },
    {
      "id": 142397,
      "name": "El Derramadero",
      "latitude": "21.00417000",
      "longitude": "-102.97472000"
    },
    {
      "id": 142398,
      "name": "El Dique",
      "latitude": "20.45694000",
      "longitude": "-102.73861000"
    },
    {
      "id": 142399,
      "name": "El Fraile",
      "latitude": "22.26646000",
      "longitude": "-103.23881000"
    },
    {
      "id": 142400,
      "name": "El Gato",
      "latitude": "20.60444000",
      "longitude": "-102.89722000"
    },
    {
      "id": 142401,
      "name": "El Grullo Municipality",
      "latitude": "19.79388889",
      "longitude": "-104.20166667"
    },
    {
      "id": 142402,
      "name": "El Hollejo",
      "latitude": "20.63750000",
      "longitude": "-104.50389000"
    },
    {
      "id": 142403,
      "name": "El Huiroche",
      "latitude": "21.77722000",
      "longitude": "-102.00583000"
    },
    {
      "id": 142404,
      "name": "El Jabalí",
      "latitude": "20.46583000",
      "longitude": "-102.97528000"
    },
    {
      "id": 142405,
      "name": "El Jagüey",
      "latitude": "20.92889000",
      "longitude": "-103.19611000"
    },
    {
      "id": 142406,
      "name": "El Jaral",
      "latitude": "21.17444000",
      "longitude": "-101.97139000"
    },
    {
      "id": 142407,
      "name": "El Jaralillo",
      "latitude": "21.64056000",
      "longitude": "-102.27278000"
    },
    {
      "id": 142408,
      "name": "El Jaralito",
      "latitude": "21.44389000",
      "longitude": "-101.80556000"
    },
    {
      "id": 142409,
      "name": "El Jardín",
      "latitude": "19.77528000",
      "longitude": "-103.89667000"
    },
    {
      "id": 142410,
      "name": "El Jazmín",
      "latitude": "19.65344000",
      "longitude": "-103.71006000"
    },
    {
      "id": 142411,
      "name": "El Jomate",
      "latitude": "21.81278000",
      "longitude": "-104.16111000"
    },
    {
      "id": 142412,
      "name": "El Laurel",
      "latitude": "20.63194000",
      "longitude": "-102.38889000"
    },
    {
      "id": 142413,
      "name": "El Lazo",
      "latitude": "20.79639000",
      "longitude": "-103.32806000"
    },
    {
      "id": 142414,
      "name": "El Limón",
      "latitude": "19.75000000",
      "longitude": "-104.01666667"
    },
    {
      "id": 142415,
      "name": "El Llano de Barajas",
      "latitude": "20.87583000",
      "longitude": "-103.03722000"
    },
    {
      "id": 142417,
      "name": "El Llano de los Toros",
      "latitude": "19.93500000",
      "longitude": "-103.00944000"
    },
    {
      "id": 142416,
      "name": "El Llano de Plascencia",
      "latitude": "20.92889000",
      "longitude": "-103.09917000"
    },
    {
      "id": 142418,
      "name": "El Lobo",
      "latitude": "21.17361000",
      "longitude": "-101.79361000"
    },
    {
      "id": 142419,
      "name": "El Lopeño",
      "latitude": "20.39639000",
      "longitude": "-102.56139000"
    },
    {
      "id": 142420,
      "name": "El Loreto Occidental",
      "latitude": "20.34222000",
      "longitude": "-102.47093000"
    },
    {
      "id": 142421,
      "name": "El Macuchi",
      "latitude": "20.37882000",
      "longitude": "-104.26388000"
    },
    {
      "id": 142422,
      "name": "El Maestranzo",
      "latitude": "20.72444000",
      "longitude": "-103.14528000"
    },
    {
      "id": 142423,
      "name": "El Manantial",
      "latitude": "20.52694000",
      "longitude": "-103.35750000"
    },
    {
      "id": 142424,
      "name": "El Mastranzo",
      "latitude": "20.88917000",
      "longitude": "-102.39528000"
    },
    {
      "id": 142425,
      "name": "El Mayoral de Abajo",
      "latitude": "21.21056000",
      "longitude": "-102.45222000"
    },
    {
      "id": 142426,
      "name": "El Medineño",
      "latitude": "20.86722000",
      "longitude": "-103.77917000"
    },
    {
      "id": 142427,
      "name": "El Mentidero",
      "latitude": "19.77070000",
      "longitude": "-104.29313000"
    },
    {
      "id": 142428,
      "name": "El Mesoncito",
      "latitude": "21.41583000",
      "longitude": "-101.85250000"
    },
    {
      "id": 142429,
      "name": "El Mezquite Grande",
      "latitude": "20.68611000",
      "longitude": "-103.12583000"
    },
    {
      "id": 142430,
      "name": "El Mirador",
      "latitude": "21.16722000",
      "longitude": "-102.87111000"
    },
    {
      "id": 142431,
      "name": "El Molino",
      "latitude": "22.01750000",
      "longitude": "-101.85389000"
    },
    {
      "id": 142432,
      "name": "El Moral",
      "latitude": "19.92667000",
      "longitude": "-102.93750000"
    },
    {
      "id": 142433,
      "name": "El Muey",
      "latitude": "20.50278000",
      "longitude": "-103.22083000"
    },
    {
      "id": 142434,
      "name": "El Nacimiento",
      "latitude": "20.53828000",
      "longitude": "-102.55107000"
    },
    {
      "id": 142435,
      "name": "El Nacimiento de Abajo",
      "latitude": "20.65361000",
      "longitude": "-102.28444000"
    },
    {
      "id": 142436,
      "name": "El Naranjo",
      "latitude": "20.53417000",
      "longitude": "-104.06028000"
    },
    {
      "id": 142437,
      "name": "El Nuevo Poblado",
      "latitude": "19.52778000",
      "longitude": "-103.40111000"
    },
    {
      "id": 142438,
      "name": "El Ocote",
      "latitude": "20.74028000",
      "longitude": "-102.51556000"
    },
    {
      "id": 142439,
      "name": "El Ocotillo",
      "latitude": "20.60306000",
      "longitude": "-103.20722000"
    },
    {
      "id": 142440,
      "name": "El Ojo de Agua",
      "latitude": "20.66361000",
      "longitude": "-102.35500000"
    },
    {
      "id": 142441,
      "name": "El Ojuelo",
      "latitude": "21.40167000",
      "longitude": "-101.83750000"
    },
    {
      "id": 142442,
      "name": "El Olvido",
      "latitude": "20.96583000",
      "longitude": "-103.65556000"
    },
    {
      "id": 142443,
      "name": "El Padre Juan",
      "latitude": "21.36000000",
      "longitude": "-102.36583000"
    },
    {
      "id": 142444,
      "name": "El Palmar de San Antonio",
      "latitude": "19.89083000",
      "longitude": "-104.03972000"
    },
    {
      "id": 142445,
      "name": "El Pantano",
      "latitude": "20.58000000",
      "longitude": "-104.75472000"
    },
    {
      "id": 142446,
      "name": "El Paso Real",
      "latitude": "19.60457000",
      "longitude": "-103.95977000"
    },
    {
      "id": 142447,
      "name": "El Pino",
      "latitude": "20.57667000",
      "longitude": "-103.39389000"
    },
    {
      "id": 142448,
      "name": "El Plan",
      "latitude": "20.41836000",
      "longitude": "-103.60667000"
    },
    {
      "id": 142449,
      "name": "El Platanar",
      "latitude": "20.44387000",
      "longitude": "-103.05006000"
    },
    {
      "id": 142450,
      "name": "El Pochote",
      "latitude": "20.81778000",
      "longitude": "-102.80639000"
    },
    {
      "id": 142451,
      "name": "El Popote",
      "latitude": "21.91639000",
      "longitude": "-104.16972000"
    },
    {
      "id": 142452,
      "name": "El Portezuelo",
      "latitude": "20.60004000",
      "longitude": "-104.04624000"
    },
    {
      "id": 142453,
      "name": "El Porvenir",
      "latitude": "20.75379000",
      "longitude": "-105.24196000"
    },
    {
      "id": 142454,
      "name": "El Pozo Santo",
      "latitude": "19.32611000",
      "longitude": "-103.38611000"
    },
    {
      "id": 142455,
      "name": "El Pueblito",
      "latitude": "21.46250000",
      "longitude": "-102.46056000"
    },
    {
      "id": 142456,
      "name": "El Puente",
      "latitude": "21.76389000",
      "longitude": "-102.02306000"
    },
    {
      "id": 142457,
      "name": "El Puerto",
      "latitude": "20.49222000",
      "longitude": "-103.45944000"
    },
    {
      "id": 142458,
      "name": "El Puerto de Amolero",
      "latitude": "20.96639000",
      "longitude": "-102.12889000"
    },
    {
      "id": 142459,
      "name": "El Puesto",
      "latitude": "21.62448000",
      "longitude": "-101.96540000"
    },
    {
      "id": 142460,
      "name": "El Quemado",
      "latitude": "20.79639000",
      "longitude": "-103.42722000"
    },
    {
      "id": 142461,
      "name": "El Quince",
      "latitude": "20.54388000",
      "longitude": "-103.28467000"
    },
    {
      "id": 142462,
      "name": "El Ranchito",
      "latitude": "20.07806000",
      "longitude": "-103.86861000"
    },
    {
      "id": 142463,
      "name": "El Rayo",
      "latitude": "19.38083000",
      "longitude": "-103.16028000"
    },
    {
      "id": 142464,
      "name": "El Rebalse",
      "latitude": "19.18750000",
      "longitude": "-104.59352000"
    },
    {
      "id": 142465,
      "name": "El Rebalsito de Apazulco",
      "latitude": "19.30556000",
      "longitude": "-104.88667000"
    },
    {
      "id": 142466,
      "name": "El Refugio",
      "latitude": "20.12231000",
      "longitude": "-103.14516000"
    },
    {
      "id": 142469,
      "name": "El Refugio de los Altos",
      "latitude": "20.63083000",
      "longitude": "-102.57944000"
    },
    {
      "id": 142468,
      "name": "El Refugio de Vázquez",
      "latitude": "20.39806000",
      "longitude": "-102.19306000"
    },
    {
      "id": 142470,
      "name": "El Refugio Jalisco",
      "latitude": "20.11670000",
      "longitude": "-103.13300000"
    },
    {
      "id": 142467,
      "name": "El Refugio Suchitlán",
      "latitude": "20.44333000",
      "longitude": "-105.54583000"
    },
    {
      "id": 142471,
      "name": "El Reparo",
      "latitude": "21.79028000",
      "longitude": "-102.04944000"
    },
    {
      "id": 142472,
      "name": "El Rincón",
      "latitude": "19.34083000",
      "longitude": "-103.08972000"
    },
    {
      "id": 142473,
      "name": "El Rodeo",
      "latitude": "19.58194000",
      "longitude": "-103.18611000"
    },
    {
      "id": 142474,
      "name": "El Rodeo Viejo",
      "latitude": "20.20417000",
      "longitude": "-103.86500000"
    },
    {
      "id": 142475,
      "name": "El Romereño",
      "latitude": "20.38083000",
      "longitude": "-102.94944000"
    },
    {
      "id": 142476,
      "name": "El Rosario",
      "latitude": "21.04528000",
      "longitude": "-102.58944000"
    },
    {
      "id": 142477,
      "name": "El Sabino",
      "latitude": "22.61528000",
      "longitude": "-103.90389000"
    },
    {
      "id": 142478,
      "name": "El Sacrificio",
      "latitude": "20.40806000",
      "longitude": "-103.19667000"
    },
    {
      "id": 142479,
      "name": "El Salero",
      "latitude": "20.76250000",
      "longitude": "-102.50917000"
    },
    {
      "id": 142480,
      "name": "El Salitre",
      "latitude": "20.51000000",
      "longitude": "-103.85800000"
    },
    {
      "id": 142481,
      "name": "El Salto",
      "latitude": "20.33333000",
      "longitude": "-104.50000000"
    },
    {
      "id": 142484,
      "name": "El Salto de las Peñas",
      "latitude": "20.65250000",
      "longitude": "-103.04222000"
    },
    {
      "id": 142483,
      "name": "El Salto de San Antonio",
      "latitude": "21.17833000",
      "longitude": "-101.82389000"
    },
    {
      "id": 142482,
      "name": "El Salto Municipality",
      "latitude": "20.51666667",
      "longitude": "-103.18333333"
    },
    {
      "id": 142485,
      "name": "El Salvador",
      "latitude": "21.01659000",
      "longitude": "-103.71568000"
    },
    {
      "id": 142486,
      "name": "El Salvial",
      "latitude": "20.83917000",
      "longitude": "-103.26306000"
    },
    {
      "id": 142487,
      "name": "El Saucillo",
      "latitude": "20.31389000",
      "longitude": "-103.91333000"
    },
    {
      "id": 142488,
      "name": "El Saucillo de los Pérez",
      "latitude": "22.02861000",
      "longitude": "-103.23444000"
    },
    {
      "id": 142489,
      "name": "El Saucito",
      "latitude": "20.73194000",
      "longitude": "-102.50889000"
    },
    {
      "id": 142490,
      "name": "El Sauz de Ibarra",
      "latitude": "21.33083000",
      "longitude": "-102.23222000"
    },
    {
      "id": 142491,
      "name": "El Seminario",
      "latitude": "21.27333000",
      "longitude": "-102.30806000"
    },
    {
      "id": 142492,
      "name": "El Sitio",
      "latitude": "21.33306000",
      "longitude": "-102.04056000"
    },
    {
      "id": 142493,
      "name": "El Sopial",
      "latitude": "20.58278000",
      "longitude": "-102.62806000"
    },
    {
      "id": 142494,
      "name": "El Soyate",
      "latitude": "21.50667000",
      "longitude": "-101.89250000"
    },
    {
      "id": 142495,
      "name": "El Tablero",
      "latitude": "21.47472000",
      "longitude": "-102.41639000"
    },
    {
      "id": 142496,
      "name": "El Taray",
      "latitude": "19.62361000",
      "longitude": "-103.26806000"
    },
    {
      "id": 142497,
      "name": "El Tarengo Nuevo",
      "latitude": "20.43121000",
      "longitude": "-102.49508000"
    },
    {
      "id": 142498,
      "name": "El Tecolote",
      "latitude": "21.20056000",
      "longitude": "-102.24583000"
    },
    {
      "id": 142499,
      "name": "El Tecuán",
      "latitude": "20.31389000",
      "longitude": "-103.73083000"
    },
    {
      "id": 142500,
      "name": "El Tempisque",
      "latitude": "20.77861000",
      "longitude": "-103.32667000"
    },
    {
      "id": 142501,
      "name": "El Tepame",
      "latitude": "20.56972000",
      "longitude": "-103.19444000"
    },
    {
      "id": 142502,
      "name": "El Tepec",
      "latitude": "21.84111000",
      "longitude": "-103.77389000"
    },
    {
      "id": 142503,
      "name": "El Tepetate",
      "latitude": "21.06472000",
      "longitude": "-103.77333000"
    },
    {
      "id": 142504,
      "name": "El Tepozán",
      "latitude": "20.79194000",
      "longitude": "-102.52917000"
    },
    {
      "id": 142505,
      "name": "El Tequesquite",
      "latitude": "20.06613000",
      "longitude": "-105.30064000"
    },
    {
      "id": 142506,
      "name": "El Terrerito de Sevilla",
      "latitude": "20.45417000",
      "longitude": "-102.08000000"
    },
    {
      "id": 142507,
      "name": "El Terrero",
      "latitude": "19.29917000",
      "longitude": "-102.87806000"
    },
    {
      "id": 142508,
      "name": "El Torque",
      "latitude": "21.37056000",
      "longitude": "-102.36667000"
    },
    {
      "id": 142509,
      "name": "El Torreón",
      "latitude": "21.78583000",
      "longitude": "-102.00139000"
    },
    {
      "id": 142510,
      "name": "El Tuito",
      "latitude": "20.32042000",
      "longitude": "-105.32469000"
    },
    {
      "id": 142511,
      "name": "El Tule",
      "latitude": "20.71667000",
      "longitude": "-102.44083000"
    },
    {
      "id": 142512,
      "name": "El Tulillo",
      "latitude": "21.20472000",
      "longitude": "-102.90222000"
    },
    {
      "id": 142513,
      "name": "El Uvalano",
      "latitude": "20.43861000",
      "longitude": "-102.79028000"
    },
    {
      "id": 142514,
      "name": "El Verde",
      "latitude": "20.55567000",
      "longitude": "-103.27901000"
    },
    {
      "id": 142515,
      "name": "El Vergel",
      "latitude": "21.62139000",
      "longitude": "-102.30639000"
    },
    {
      "id": 142516,
      "name": "El Vigía",
      "latitude": "19.50417000",
      "longitude": "-104.29639000"
    },
    {
      "id": 142517,
      "name": "El Zancudo",
      "latitude": "20.77972000",
      "longitude": "-105.15333000"
    },
    {
      "id": 142518,
      "name": "El Zapatero",
      "latitude": "19.86778000",
      "longitude": "-103.07556000"
    },
    {
      "id": 142519,
      "name": "El Zapote",
      "latitude": "21.11257000",
      "longitude": "-102.80555000"
    },
    {
      "id": 142520,
      "name": "El Zapote de Chávez",
      "latitude": "20.21972000",
      "longitude": "-104.32639000"
    },
    {
      "id": 142521,
      "name": "El Zapotillo",
      "latitude": "19.96611000",
      "longitude": "-104.39889000"
    },
    {
      "id": 142522,
      "name": "Emiliano Zapata",
      "latitude": "19.24278000",
      "longitude": "-104.71778000"
    },
    {
      "id": 142523,
      "name": "Emiliano Zapata Jalisco",
      "latitude": "19.38305556",
      "longitude": "-104.96583333"
    },
    {
      "id": 142524,
      "name": "Encarnación de Díaz",
      "latitude": "21.51666667",
      "longitude": "-102.23333333"
    },
    {
      "id": 142525,
      "name": "Epeche Chico",
      "latitude": "19.93917000",
      "longitude": "-103.01972000"
    },
    {
      "id": 142526,
      "name": "Epeche Grande",
      "latitude": "19.92333000",
      "longitude": "-103.10667000"
    },
    {
      "id": 142528,
      "name": "Estancia de San Nicolás",
      "latitude": "20.38417000",
      "longitude": "-102.83750000"
    },
    {
      "id": 142527,
      "name": "Estancia Vieja de Arriba",
      "latitude": "21.16722000",
      "longitude": "-102.32389000"
    },
    {
      "id": 142529,
      "name": "Estanzuela",
      "latitude": "20.52306000",
      "longitude": "-104.34000000"
    },
    {
      "id": 142530,
      "name": "Estipa",
      "latitude": "20.36199000",
      "longitude": "-103.72345000"
    },
    {
      "id": 142531,
      "name": "Etzatlán Municipality",
      "latitude": "20.76666667",
      "longitude": "-104.08333333"
    },
    {
      "id": 142532,
      "name": "Ferrería de Tula",
      "latitude": "20.06529000",
      "longitude": "-103.72980000"
    },
    {
      "id": 142533,
      "name": "Francisco I. Madero",
      "latitude": "19.56000000",
      "longitude": "-104.55917000"
    },
    {
      "id": 142534,
      "name": "Francisco Primo de Verdad",
      "latitude": "21.74472000",
      "longitude": "-101.82611000"
    },
    {
      "id": 142535,
      "name": "Galaxia Bonito Jalisco",
      "latitude": "20.50500000",
      "longitude": "-103.20472000"
    },
    {
      "id": 142536,
      "name": "Galaxia la Noria",
      "latitude": "20.45722000",
      "longitude": "-103.41889000"
    },
    {
      "id": 142537,
      "name": "Gargantillo",
      "latitude": "20.01747000",
      "longitude": "-105.34619000"
    },
    {
      "id": 142538,
      "name": "General Andrés Figueroa",
      "latitude": "20.30396000",
      "longitude": "-103.60923000"
    },
    {
      "id": 142539,
      "name": "General Gabriel Leyva",
      "latitude": "20.42889000",
      "longitude": "-102.47111000"
    },
    {
      "id": 142540,
      "name": "Geovillas Laureles del Campanario",
      "latitude": "21.33056000",
      "longitude": "-101.92361000"
    },
    {
      "id": 142541,
      "name": "Getsemaní",
      "latitude": "20.72778000",
      "longitude": "-105.20639000"
    },
    {
      "id": 142549,
      "name": "Gómez Farías Municipality",
      "latitude": "19.80000000",
      "longitude": "-103.48333333"
    },
    {
      "id": 142542,
      "name": "Granadillas",
      "latitude": "21.37972000",
      "longitude": "-101.90139000"
    },
    {
      "id": 142543,
      "name": "Guachinango",
      "latitude": "20.56700000",
      "longitude": "-104.36700000"
    },
    {
      "id": 142544,
      "name": "Guadalajara",
      "latitude": "20.67666667",
      "longitude": "-103.34750000"
    },
    {
      "id": 142546,
      "name": "Guadalupe de Lerma",
      "latitude": "20.34077000",
      "longitude": "-102.36090000"
    },
    {
      "id": 142545,
      "name": "Guadalupe Victoria",
      "latitude": "21.70106000",
      "longitude": "-101.61778000"
    },
    {
      "id": 142547,
      "name": "Guamuchilillo",
      "latitude": "22.05028000",
      "longitude": "-104.31583000"
    },
    {
      "id": 142548,
      "name": "Guayabitos",
      "latitude": "20.42611000",
      "longitude": "-104.73111000"
    },
    {
      "id": 142553,
      "name": "Hacienda de la Labor",
      "latitude": "20.31639000",
      "longitude": "-103.17333000"
    },
    {
      "id": 142554,
      "name": "Hacienda los Fresnos",
      "latitude": "20.51944000",
      "longitude": "-103.39306000"
    },
    {
      "id": 142550,
      "name": "Hacienda Santa Fe",
      "latitude": "20.51806000",
      "longitude": "-103.38056000"
    },
    {
      "id": 142551,
      "name": "Hacienda Vieja",
      "latitude": "19.60083000",
      "longitude": "-103.21444000"
    },
    {
      "id": 142552,
      "name": "Hacienda Vieja del Castillo",
      "latitude": "20.54000000",
      "longitude": "-103.24417000"
    },
    {
      "id": 142555,
      "name": "Haciendas la Herradura",
      "latitude": "20.77250000",
      "longitude": "-103.60861000"
    },
    {
      "id": 142556,
      "name": "Hierba de Matancillas",
      "latitude": "21.86528000",
      "longitude": "-101.67333000"
    },
    {
      "id": 142557,
      "name": "Higueras San Miguel",
      "latitude": "19.59472000",
      "longitude": "-103.17944000"
    },
    {
      "id": 142558,
      "name": "Higuerillas",
      "latitude": "20.76083000",
      "longitude": "-102.47417000"
    },
    {
      "id": 142559,
      "name": "Hostotipaquillo",
      "latitude": "21.06035000",
      "longitude": "-104.05091000"
    },
    {
      "id": 142560,
      "name": "Huajacatlán",
      "latitude": "21.04444000",
      "longitude": "-103.95222000"
    },
    {
      "id": 142561,
      "name": "Huascato",
      "latitude": "20.47951000",
      "longitude": "-102.24806000"
    },
    {
      "id": 142562,
      "name": "Huaxtla",
      "latitude": "20.73179000",
      "longitude": "-103.66291000"
    },
    {
      "id": 142564,
      "name": "Huejotitán",
      "latitude": "20.35524000",
      "longitude": "-103.48742000"
    },
    {
      "id": 142563,
      "name": "Huejotitlán",
      "latitude": "20.65694000",
      "longitude": "-103.04222000"
    },
    {
      "id": 142566,
      "name": "Huejúcar",
      "latitude": "22.33409000",
      "longitude": "-103.25253000"
    },
    {
      "id": 142565,
      "name": "Huejuquilla El Alto Municipality",
      "latitude": "22.61666667",
      "longitude": "-103.88333333"
    },
    {
      "id": 142567,
      "name": "Huertas Familiares San Pedro",
      "latitude": "21.32750000",
      "longitude": "-101.97444000"
    },
    {
      "id": 142568,
      "name": "Huisichi",
      "latitude": "19.56611000",
      "longitude": "-103.86556000"
    },
    {
      "id": 142569,
      "name": "Huitzometl",
      "latitude": "19.51000000",
      "longitude": "-103.75250000"
    },
    {
      "id": 142570,
      "name": "Huizaches",
      "latitude": "19.17167000",
      "longitude": "-103.49000000"
    },
    {
      "id": 142572,
      "name": "Ipazoltic",
      "latitude": "20.43330000",
      "longitude": "-103.98300000"
    },
    {
      "id": 142571,
      "name": "IPROVIPE I",
      "latitude": "20.88639000",
      "longitude": "-103.82444000"
    },
    {
      "id": 142573,
      "name": "Ixtapa",
      "latitude": "20.71623000",
      "longitude": "-105.20408000"
    },
    {
      "id": 142574,
      "name": "Ixtlahuacán de los Membrillos",
      "latitude": "20.34666667",
      "longitude": "-103.19138889"
    },
    {
      "id": 142575,
      "name": "Ixtlahuacán del Río",
      "latitude": "20.86666667",
      "longitude": "-103.25000000"
    },
    {
      "id": 142576,
      "name": "Izolta",
      "latitude": "22.01000000",
      "longitude": "-103.74639000"
    },
    {
      "id": 142577,
      "name": "J. Isabel Flores",
      "latitude": "20.63750000",
      "longitude": "-103.07806000"
    },
    {
      "id": 142578,
      "name": "Jalostotitlan",
      "latitude": "21.16741000",
      "longitude": "-102.46386000"
    },
    {
      "id": 142579,
      "name": "Jaluco",
      "latitude": "19.23089000",
      "longitude": "-104.68527000"
    },
    {
      "id": 142580,
      "name": "Jamay",
      "latitude": "20.29444444",
      "longitude": "-102.70972222"
    },
    {
      "id": 142581,
      "name": "Jardines de San Sebastián",
      "latitude": "20.51889000",
      "longitude": "-103.42222000"
    },
    {
      "id": 142582,
      "name": "Jardines del Edén",
      "latitude": "20.53250000",
      "longitude": "-103.36278000"
    },
    {
      "id": 142583,
      "name": "Jaritas",
      "latitude": "21.31167000",
      "longitude": "-101.99750000"
    },
    {
      "id": 142584,
      "name": "Jesús María",
      "latitude": "20.66666667",
      "longitude": "-103.35027778"
    },
    {
      "id": 142585,
      "name": "Jesús María Nayarit",
      "latitude": "20.66667000",
      "longitude": "-104.26670000"
    },
    {
      "id": 142586,
      "name": "Jilotlán de los Dolores",
      "latitude": "19.37083333",
      "longitude": "-103.01972222"
    },
    {
      "id": 142587,
      "name": "Jiquilpan",
      "latitude": "19.77889000",
      "longitude": "-103.77895000"
    },
    {
      "id": 142588,
      "name": "Joconoxtle",
      "latitude": "20.45222000",
      "longitude": "-102.67639000"
    },
    {
      "id": 142589,
      "name": "Jocotepec",
      "latitude": "20.16666667",
      "longitude": "-103.28333333"
    },
    {
      "id": 142592,
      "name": "José de Jesús Aguirre Teocaltiche",
      "latitude": "21.52167000",
      "longitude": "-102.47139000"
    },
    {
      "id": 142591,
      "name": "José María Pino Suárez",
      "latitude": "19.94889000",
      "longitude": "-105.32778000"
    },
    {
      "id": 142590,
      "name": "Josefa Ortíz de Domínguez",
      "latitude": "20.90000000",
      "longitude": "-103.83306000"
    },
    {
      "id": 142593,
      "name": "Juan Gil Preciado",
      "latitude": "20.37269000",
      "longitude": "-103.72752000"
    },
    {
      "id": 142594,
      "name": "Juanacatlán",
      "latitude": "20.50000000",
      "longitude": "-103.16666667"
    },
    {
      "id": 142595,
      "name": "La Alameda",
      "latitude": "20.49528000",
      "longitude": "-103.24833000"
    },
    {
      "id": 142596,
      "name": "La Aldaba",
      "latitude": "19.74964000",
      "longitude": "-104.23306000"
    },
    {
      "id": 142597,
      "name": "La Angostura de los Altos",
      "latitude": "20.56194000",
      "longitude": "-102.43500000"
    },
    {
      "id": 142598,
      "name": "La Arbolada Plus",
      "latitude": "20.53694000",
      "longitude": "-103.36389000"
    },
    {
      "id": 142599,
      "name": "La Barca",
      "latitude": "20.28333333",
      "longitude": "-102.56666667"
    },
    {
      "id": 142600,
      "name": "La Barranca",
      "latitude": "20.51639000",
      "longitude": "-103.07306000"
    },
    {
      "id": 142601,
      "name": "La Calera",
      "latitude": "21.49694000",
      "longitude": "-102.58556000"
    },
    {
      "id": 142602,
      "name": "La Calera Fraccionamiento",
      "latitude": "21.26889000",
      "longitude": "-102.33778000"
    },
    {
      "id": 142604,
      "name": "La Cañada",
      "latitude": "20.48222000",
      "longitude": "-102.94306000"
    },
    {
      "id": 142605,
      "name": "La Cañada Tezcaltilti",
      "latitude": "20.01167000",
      "longitude": "-103.71278000"
    },
    {
      "id": 142603,
      "name": "La Cantera",
      "latitude": "21.34333000",
      "longitude": "-102.01972000"
    },
    {
      "id": 142606,
      "name": "La Cebadilla",
      "latitude": "20.89028000",
      "longitude": "-102.74250000"
    },
    {
      "id": 142607,
      "name": "La Ceja de la Capilla",
      "latitude": "20.73583000",
      "longitude": "-102.41833000"
    },
    {
      "id": 142608,
      "name": "La Cerca Blanca",
      "latitude": "21.15806000",
      "longitude": "-102.88361000"
    },
    {
      "id": 142610,
      "name": "La Ciénega",
      "latitude": "20.66056000",
      "longitude": "-102.71333000"
    },
    {
      "id": 142611,
      "name": "La Ciénega de Huaistita",
      "latitude": "22.06306000",
      "longitude": "-104.32583000"
    },
    {
      "id": 142609,
      "name": "La Cieneguita",
      "latitude": "20.75611000",
      "longitude": "-102.29944000"
    },
    {
      "id": 142612,
      "name": "La Cofradía",
      "latitude": "22.61361000",
      "longitude": "-103.92417000"
    },
    {
      "id": 142613,
      "name": "La Cofradía del Rosario",
      "latitude": "19.88861000",
      "longitude": "-103.72444000"
    },
    {
      "id": 142614,
      "name": "La Colonia San Juanito",
      "latitude": "21.19361000",
      "longitude": "-102.90472000"
    },
    {
      "id": 142615,
      "name": "La Concepción",
      "latitude": "20.35171000",
      "longitude": "-102.32959000"
    },
    {
      "id": 142616,
      "name": "La Conchilla",
      "latitude": "20.90528000",
      "longitude": "-103.73861000"
    },
    {
      "id": 142617,
      "name": "La Conchita",
      "latitude": "19.49972000",
      "longitude": "-104.56139000"
    },
    {
      "id": 142618,
      "name": "La Constancia",
      "latitude": "20.40333000",
      "longitude": "-102.98361000"
    },
    {
      "id": 142619,
      "name": "La Cruz",
      "latitude": "20.25083000",
      "longitude": "-103.59111000"
    },
    {
      "id": 142620,
      "name": "La Cruz de Loreto",
      "latitude": "20.00755000",
      "longitude": "-105.45508000"
    },
    {
      "id": 142621,
      "name": "La Cuchilla",
      "latitude": "20.78000000",
      "longitude": "-103.46222000"
    },
    {
      "id": 142622,
      "name": "La Cuesta de Medina",
      "latitude": "21.22583000",
      "longitude": "-102.33056000"
    },
    {
      "id": 142623,
      "name": "La Cueva",
      "latitude": "21.24056000",
      "longitude": "-102.59444000"
    },
    {
      "id": 142624,
      "name": "La Estacada",
      "latitude": "19.93528000",
      "longitude": "-103.03472000"
    },
    {
      "id": 142625,
      "name": "La Estancia",
      "latitude": "21.04694000",
      "longitude": "-102.84167000"
    },
    {
      "id": 142626,
      "name": "La Estancia de Arriba",
      "latitude": "22.61972000",
      "longitude": "-103.90861000"
    },
    {
      "id": 142627,
      "name": "La Estancia de Ayones",
      "latitude": "20.88220000",
      "longitude": "-104.08717000"
    },
    {
      "id": 142628,
      "name": "La Estancia de Navarro",
      "latitude": "20.54917000",
      "longitude": "-102.60944000"
    },
    {
      "id": 142629,
      "name": "La Estancita",
      "latitude": "20.56722000",
      "longitude": "-104.01083000"
    },
    {
      "id": 142630,
      "name": "La Estanzuela",
      "latitude": "20.66892000",
      "longitude": "-103.82609000"
    },
    {
      "id": 142631,
      "name": "La Floreña",
      "latitude": "20.46750000",
      "longitude": "-102.73500000"
    },
    {
      "id": 142632,
      "name": "La Fortuna Fraccionamiento",
      "latitude": "20.48472000",
      "longitude": "-103.39583000"
    },
    {
      "id": 142633,
      "name": "La Frontera",
      "latitude": "19.96083000",
      "longitude": "-103.71139000"
    },
    {
      "id": 142634,
      "name": "La Garita Jalisco",
      "latitude": "19.76666667",
      "longitude": "-103.11666667"
    },
    {
      "id": 142635,
      "name": "La Garruña",
      "latitude": "20.95556000",
      "longitude": "-103.13944000"
    },
    {
      "id": 142636,
      "name": "La Gila",
      "latitude": "20.61444000",
      "longitude": "-102.20472000"
    },
    {
      "id": 142637,
      "name": "La Gloria",
      "latitude": "20.61222000",
      "longitude": "-102.38389000"
    },
    {
      "id": 142638,
      "name": "La Granjena",
      "latitude": "20.70694000",
      "longitude": "-102.44361000"
    },
    {
      "id": 142639,
      "name": "La Guadalupe",
      "latitude": "19.73556000",
      "longitude": "-103.78083000"
    },
    {
      "id": 142640,
      "name": "La Guásima",
      "latitude": "22.11889000",
      "longitude": "-103.74111000"
    },
    {
      "id": 142641,
      "name": "La Hermosura",
      "latitude": "20.11333000",
      "longitude": "-103.60139000"
    },
    {
      "id": 142642,
      "name": "La Higuera",
      "latitude": "19.42358000",
      "longitude": "-103.40955000"
    },
    {
      "id": 142643,
      "name": "La Huerta",
      "latitude": "19.48444444",
      "longitude": "-104.64388889"
    },
    {
      "id": 142644,
      "name": "La Huevera",
      "latitude": "19.88917000",
      "longitude": "-103.12000000"
    },
    {
      "id": 142645,
      "name": "La Isla",
      "latitude": "21.39472000",
      "longitude": "-101.92278000"
    },
    {
      "id": 142646,
      "name": "La Jarrilla",
      "latitude": "21.05444000",
      "longitude": "-102.95417000"
    },
    {
      "id": 142647,
      "name": "La Joya",
      "latitude": "19.94472000",
      "longitude": "-102.86944000"
    },
    {
      "id": 142648,
      "name": "La Joya Chica",
      "latitude": "20.71021000",
      "longitude": "-103.00250000"
    },
    {
      "id": 142649,
      "name": "La Joya Grande",
      "latitude": "20.70861000",
      "longitude": "-103.04444000"
    },
    {
      "id": 142650,
      "name": "La Labor de la Concepción",
      "latitude": "21.23306000",
      "longitude": "-102.78333000"
    },
    {
      "id": 142651,
      "name": "La Labor de los Alba",
      "latitude": "21.37722000",
      "longitude": "-102.31639000"
    },
    {
      "id": 142652,
      "name": "La Ladera",
      "latitude": "20.20722000",
      "longitude": "-104.15139000"
    },
    {
      "id": 142653,
      "name": "La Ladera Grande",
      "latitude": "20.52417000",
      "longitude": "-102.35167000"
    },
    {
      "id": 142654,
      "name": "La Laguna",
      "latitude": "22.25417000",
      "longitude": "-104.20667000"
    },
    {
      "id": 142655,
      "name": "La Laguna Grande",
      "latitude": "20.93611000",
      "longitude": "-103.06111000"
    },
    {
      "id": 142656,
      "name": "La Laja",
      "latitude": "19.85481000",
      "longitude": "-104.28520000"
    },
    {
      "id": 142657,
      "name": "La Lobera",
      "latitude": "21.08694000",
      "longitude": "-103.56583000"
    },
    {
      "id": 142658,
      "name": "La Loma",
      "latitude": "20.44139000",
      "longitude": "-102.08833000"
    },
    {
      "id": 142659,
      "name": "La Loma de los Rizo",
      "latitude": "20.72444000",
      "longitude": "-102.22222000"
    },
    {
      "id": 142660,
      "name": "La Loma del Nopal",
      "latitude": "20.73000000",
      "longitude": "-102.40167000"
    },
    {
      "id": 142661,
      "name": "La Lomita",
      "latitude": "21.44056000",
      "longitude": "-102.31278000"
    },
    {
      "id": 142662,
      "name": "La Luz",
      "latitude": "20.44917000",
      "longitude": "-102.71750000"
    },
    {
      "id": 142663,
      "name": "La Manzanilla",
      "latitude": "19.28111111",
      "longitude": "-104.78750000"
    },
    {
      "id": 142664,
      "name": "La Manzanilla de La Paz",
      "latitude": "19.91666667",
      "longitude": "-102.01666667"
    },
    {
      "id": 142665,
      "name": "La Mata",
      "latitude": "20.89528000",
      "longitude": "-103.74889000"
    },
    {
      "id": 142666,
      "name": "La Merced",
      "latitude": "21.48250000",
      "longitude": "-101.86722000"
    },
    {
      "id": 142667,
      "name": "La Mesa",
      "latitude": "20.54944000",
      "longitude": "-103.11918000"
    },
    {
      "id": 142668,
      "name": "La Mesa del Guitarrero",
      "latitude": "20.66972000",
      "longitude": "-102.76667000"
    },
    {
      "id": 142669,
      "name": "La Mesita",
      "latitude": "20.83889000",
      "longitude": "-103.50667000"
    },
    {
      "id": 142670,
      "name": "La Mezcalilla",
      "latitude": "20.45250000",
      "longitude": "-103.12306000"
    },
    {
      "id": 142671,
      "name": "La Mezquitera",
      "latitude": "20.55833000",
      "longitude": "-103.11250000"
    },
    {
      "id": 142672,
      "name": "La Mial",
      "latitude": "20.58639000",
      "longitude": "-103.27500000"
    },
    {
      "id": 142673,
      "name": "La Mina",
      "latitude": "20.94750000",
      "longitude": "-102.72250000"
    },
    {
      "id": 142674,
      "name": "La Mojarra",
      "latitude": "20.84944000",
      "longitude": "-103.04250000"
    },
    {
      "id": 142675,
      "name": "La Mora",
      "latitude": "20.70575000",
      "longitude": "-104.03409000"
    },
    {
      "id": 142676,
      "name": "La Mota",
      "latitude": "20.70556000",
      "longitude": "-102.69028000"
    },
    {
      "id": 142677,
      "name": "La Nance",
      "latitude": "19.48667000",
      "longitude": "-104.39639000"
    },
    {
      "id": 142678,
      "name": "La Nopalera",
      "latitude": "20.47750000",
      "longitude": "-102.40056000"
    },
    {
      "id": 142679,
      "name": "La Noria",
      "latitude": "21.10972000",
      "longitude": "-101.83750000"
    },
    {
      "id": 142680,
      "name": "La Orilla de la Cerca",
      "latitude": "20.36556000",
      "longitude": "-102.71667000"
    },
    {
      "id": 142681,
      "name": "La Orilla del Agua",
      "latitude": "21.38389000",
      "longitude": "-101.95250000"
    },
    {
      "id": 142682,
      "name": "La Palma",
      "latitude": "21.38778000",
      "longitude": "-101.92167000"
    },
    {
      "id": 142683,
      "name": "La Palmita",
      "latitude": "21.76833000",
      "longitude": "-101.91778000"
    },
    {
      "id": 142684,
      "name": "La Parota",
      "latitude": "19.55944000",
      "longitude": "-103.89028000"
    },
    {
      "id": 142685,
      "name": "La Parrita",
      "latitude": "21.54722000",
      "longitude": "-102.55056000"
    },
    {
      "id": 142686,
      "name": "La Paz",
      "latitude": "21.81608000",
      "longitude": "-101.76793000"
    },
    {
      "id": 142687,
      "name": "La Paz de Ordaz",
      "latitude": "20.34489000",
      "longitude": "-102.53059000"
    },
    {
      "id": 142688,
      "name": "La Peña Jalisco",
      "latitude": "20.32722000",
      "longitude": "-102.97556000"
    },
    {
      "id": 142689,
      "name": "La Playa",
      "latitude": "21.82278000",
      "longitude": "-103.78861000"
    },
    {
      "id": 142690,
      "name": "La Presa",
      "latitude": "21.77589000",
      "longitude": "-101.81477000"
    },
    {
      "id": 142691,
      "name": "La Primavera",
      "latitude": "20.72302000",
      "longitude": "-103.56543000"
    },
    {
      "id": 142692,
      "name": "La Providencia",
      "latitude": "21.02556000",
      "longitude": "-102.60444000"
    },
    {
      "id": 142693,
      "name": "La Puerta de San Pedro",
      "latitude": "20.92778000",
      "longitude": "-103.84389000"
    },
    {
      "id": 142694,
      "name": "La Puerta del Coche",
      "latitude": "20.80400000",
      "longitude": "-104.22577000"
    },
    {
      "id": 142695,
      "name": "La Punta",
      "latitude": "20.57156000",
      "longitude": "-103.21147000"
    },
    {
      "id": 142696,
      "name": "La Purísima",
      "latitude": "19.49162000",
      "longitude": "-103.32896000"
    },
    {
      "id": 142697,
      "name": "La Quemada",
      "latitude": "20.97127000",
      "longitude": "-104.04914000"
    },
    {
      "id": 142698,
      "name": "La Rana",
      "latitude": "20.81056000",
      "longitude": "-102.42444000"
    },
    {
      "id": 142699,
      "name": "La Raya",
      "latitude": "20.53639000",
      "longitude": "-102.51944000"
    },
    {
      "id": 142700,
      "name": "La Red",
      "latitude": "20.71861000",
      "longitude": "-102.81333000"
    },
    {
      "id": 142701,
      "name": "La Resolana",
      "latitude": "20.74139000",
      "longitude": "-102.92528000"
    },
    {
      "id": 142702,
      "name": "La Ribera",
      "latitude": "20.34908000",
      "longitude": "-102.28273000"
    },
    {
      "id": 142703,
      "name": "La Roca",
      "latitude": "20.51278000",
      "longitude": "-103.42639000"
    },
    {
      "id": 142704,
      "name": "La Rosa",
      "latitude": "19.46278000",
      "longitude": "-104.31556000"
    },
    {
      "id": 142705,
      "name": "La Rosa Amarilla",
      "latitude": "20.08404000",
      "longitude": "-103.10903000"
    },
    {
      "id": 142706,
      "name": "La Rosa de Castilla",
      "latitude": "20.70806000",
      "longitude": "-102.25083000"
    },
    {
      "id": 142707,
      "name": "La Rueda",
      "latitude": "20.10167000",
      "longitude": "-103.26250000"
    },
    {
      "id": 142708,
      "name": "La Sanguijuela",
      "latitude": "20.49222000",
      "longitude": "-102.04417000"
    },
    {
      "id": 142709,
      "name": "La Sauceda",
      "latitude": "20.45251000",
      "longitude": "-103.80681000"
    },
    {
      "id": 142710,
      "name": "La Soledad",
      "latitude": "20.63528000",
      "longitude": "-102.55444000"
    },
    {
      "id": 142711,
      "name": "La Teja",
      "latitude": "20.44611000",
      "longitude": "-103.48306000"
    },
    {
      "id": 142712,
      "name": "La Tijera",
      "latitude": "20.58167000",
      "longitude": "-103.44056000"
    },
    {
      "id": 142713,
      "name": "La Tinajera",
      "latitude": "20.46972000",
      "longitude": "-102.18778000"
    },
    {
      "id": 142714,
      "name": "La Tiricia",
      "latitude": "20.47833000",
      "longitude": "-102.72306000"
    },
    {
      "id": 142715,
      "name": "La Tortuga",
      "latitude": "20.90139000",
      "longitude": "-104.61583000"
    },
    {
      "id": 142716,
      "name": "La Trinidad",
      "latitude": "21.27389000",
      "longitude": "-101.99250000"
    },
    {
      "id": 142717,
      "name": "La Unión del Cuatro",
      "latitude": "20.53148000",
      "longitude": "-103.36812000"
    },
    {
      "id": 142718,
      "name": "La Vaquera",
      "latitude": "20.85611000",
      "longitude": "-102.22056000"
    },
    {
      "id": 142719,
      "name": "La Vega",
      "latitude": "20.58331000",
      "longitude": "-103.85830000"
    },
    {
      "id": 142720,
      "name": "La Venta del Astillero",
      "latitude": "20.72795000",
      "longitude": "-103.54509000"
    },
    {
      "id": 142721,
      "name": "La Verdolaga",
      "latitude": "21.68917000",
      "longitude": "-102.03778000"
    },
    {
      "id": 142722,
      "name": "La Villa",
      "latitude": "20.62806000",
      "longitude": "-102.94667000"
    },
    {
      "id": 142723,
      "name": "La Virgencita",
      "latitude": "20.72889000",
      "longitude": "-102.53389000"
    },
    {
      "id": 142724,
      "name": "La Yerbabuena",
      "latitude": "20.53722000",
      "longitude": "-103.09722000"
    },
    {
      "id": 142725,
      "name": "La Zapotera",
      "latitude": "20.30611000",
      "longitude": "-102.89778000"
    },
    {
      "id": 142726,
      "name": "Labor de Medina",
      "latitude": "20.46666667",
      "longitude": "-103.91666667"
    },
    {
      "id": 142727,
      "name": "Labor de Montoya",
      "latitude": "21.36722000",
      "longitude": "-102.21917000"
    },
    {
      "id": 142728,
      "name": "Ladera Chica",
      "latitude": "20.52167000",
      "longitude": "-102.34694000"
    },
    {
      "id": 142729,
      "name": "Lagos de Moreno",
      "latitude": "21.35638889",
      "longitude": "-101.92916667"
    },
    {
      "id": 142730,
      "name": "Laguna Colorada",
      "latitude": "20.75917000",
      "longitude": "-102.83111000"
    },
    {
      "id": 142731,
      "name": "Laguna de Piedra",
      "latitude": "20.82028000",
      "longitude": "-102.13778000"
    },
    {
      "id": 142732,
      "name": "Lagunillas Jalisco",
      "latitude": "20.33972222",
      "longitude": "-103.99583333"
    },
    {
      "id": 142733,
      "name": "Las Alfalfas",
      "latitude": "21.32861000",
      "longitude": "-101.91056000"
    },
    {
      "id": 142734,
      "name": "Las Amarillas",
      "latitude": "21.58918000",
      "longitude": "-101.65548000"
    },
    {
      "id": 142735,
      "name": "Las Asturias Fraccionamiento",
      "latitude": "20.52222000",
      "longitude": "-103.29083000"
    },
    {
      "id": 142736,
      "name": "Las Azules",
      "latitude": "20.89194000",
      "longitude": "-102.79167000"
    },
    {
      "id": 142737,
      "name": "Las Calaveras",
      "latitude": "20.19944000",
      "longitude": "-104.02250000"
    },
    {
      "id": 142740,
      "name": "Las Cañadas",
      "latitude": "21.14000000",
      "longitude": "-102.46167000"
    },
    {
      "id": 142738,
      "name": "Las Canoas",
      "latitude": "19.61028000",
      "longitude": "-103.47389000"
    },
    {
      "id": 142739,
      "name": "Las Carretas",
      "latitude": "20.44861000",
      "longitude": "-103.24639000"
    },
    {
      "id": 142741,
      "name": "Las Golondrinas [Fraccionamiento]",
      "latitude": "22.10528000",
      "longitude": "-103.25417000"
    },
    {
      "id": 142742,
      "name": "Las Juntas",
      "latitude": "19.43061000",
      "longitude": "-104.70646000"
    },
    {
      "id": 142743,
      "name": "Las Pintas de Arriba",
      "latitude": "20.57376000",
      "longitude": "-103.32345000"
    },
    {
      "id": 142744,
      "name": "Las Pintitas",
      "latitude": "20.56444000",
      "longitude": "-103.30222000"
    },
    {
      "id": 142745,
      "name": "Las Primaveras [Invernadero]",
      "latitude": "19.69472000",
      "longitude": "-103.83333000"
    },
    {
      "id": 142760,
      "name": "Lázaro Cárdenas Jalisco",
      "latitude": "20.44166667",
      "longitude": "-103.96888889"
    },
    {
      "id": 142746,
      "name": "Lo Arado",
      "latitude": "19.62139000",
      "longitude": "-104.53444000"
    },
    {
      "id": 142747,
      "name": "Lomas de San Agustín",
      "latitude": "20.52750000",
      "longitude": "-103.46778000"
    },
    {
      "id": 142748,
      "name": "Lomas de Tejeda",
      "latitude": "20.46658000",
      "longitude": "-103.40202000"
    },
    {
      "id": 142749,
      "name": "Lomas del Sur",
      "latitude": "20.49250000",
      "longitude": "-103.41750000"
    },
    {
      "id": 142750,
      "name": "Los Azulitos",
      "latitude": "21.84610000",
      "longitude": "-101.96527000"
    },
    {
      "id": 142751,
      "name": "Los Cedros",
      "latitude": "20.38980000",
      "longitude": "-103.23250000"
    },
    {
      "id": 142752,
      "name": "Los Gavilanes",
      "latitude": "20.57456000",
      "longitude": "-103.44881000"
    },
    {
      "id": 142753,
      "name": "Los Guerrero",
      "latitude": "20.43333333",
      "longitude": "-103.88333333"
    },
    {
      "id": 142754,
      "name": "Los Mazos",
      "latitude": "19.57000000",
      "longitude": "-103.50000000"
    },
    {
      "id": 142755,
      "name": "Los Olivos",
      "latitude": "20.43917000",
      "longitude": "-103.23778000"
    },
    {
      "id": 142756,
      "name": "Los Pocitos",
      "latitude": "20.53724000",
      "longitude": "-103.93721000"
    },
    {
      "id": 142757,
      "name": "Los Ruiseñores",
      "latitude": "20.71083000",
      "longitude": "-103.69139000"
    },
    {
      "id": 142758,
      "name": "Los Sauces",
      "latitude": "21.57425000",
      "longitude": "-102.13827000"
    },
    {
      "id": 142759,
      "name": "Los Vergara",
      "latitude": "20.45000000",
      "longitude": "-103.91666667"
    },
    {
      "id": 142761,
      "name": "Magdalena",
      "latitude": "20.90916667",
      "longitude": "-103.98027778"
    },
    {
      "id": 142762,
      "name": "Manalisco",
      "latitude": "21.05928000",
      "longitude": "-102.92203000"
    },
    {
      "id": 142763,
      "name": "Margaritas",
      "latitude": "20.45306000",
      "longitude": "-102.47417000"
    },
    {
      "id": 142764,
      "name": "Mascota Municipality",
      "latitude": "20.52611111",
      "longitude": "-104.78777778"
    },
    {
      "id": 142765,
      "name": "Matancillas (San Isidro Matancillas)",
      "latitude": "21.89036000",
      "longitude": "-101.65059000"
    },
    {
      "id": 142766,
      "name": "Matanzas",
      "latitude": "21.63333000",
      "longitude": "-101.65528000"
    },
    {
      "id": 142767,
      "name": "Matatlán",
      "latitude": "20.70978000",
      "longitude": "-103.15009000"
    },
    {
      "id": 142768,
      "name": "Mazamitlongo",
      "latitude": "19.91555556",
      "longitude": "-103.01944444"
    },
    {
      "id": 142769,
      "name": "Mechoacanejo",
      "latitude": "21.54038000",
      "longitude": "-102.59587000"
    },
    {
      "id": 142770,
      "name": "Mexticacán",
      "latitude": "21.21666667",
      "longitude": "-102.71666667"
    },
    {
      "id": 142771,
      "name": "Mezcala",
      "latitude": "20.95278000",
      "longitude": "-102.84611000"
    },
    {
      "id": 142773,
      "name": "Mezquitic de la Magdalena",
      "latitude": "21.22111000",
      "longitude": "-102.30444000"
    },
    {
      "id": 142772,
      "name": "Mezquitic Municipality",
      "latitude": "22.20609000",
      "longitude": "-104.04531000"
    },
    {
      "id": 142774,
      "name": "Milpillas",
      "latitude": "20.50111000",
      "longitude": "-102.53418000"
    },
    {
      "id": 142775,
      "name": "Misión San Luis Gonzaga Chiriyaqui",
      "latitude": "21.78333000",
      "longitude": "-101.97278000"
    },
    {
      "id": 142776,
      "name": "Mismaloya",
      "latitude": "20.53101800",
      "longitude": "-105.29262500"
    },
    {
      "id": 142777,
      "name": "Mismaloya (Fraccionamiento Pedregal de Santa Martha)",
      "latitude": "20.60694000",
      "longitude": "-103.17139000"
    },
    {
      "id": 142778,
      "name": "Mixtlán",
      "latitude": "20.36666667",
      "longitude": "-104.25000000"
    },
    {
      "id": 142779,
      "name": "Moras",
      "latitude": "20.32622000",
      "longitude": "-102.59254000"
    },
    {
      "id": 142780,
      "name": "Navajas",
      "latitude": "20.53318000",
      "longitude": "-103.67972000"
    },
    {
      "id": 142781,
      "name": "Nextipac",
      "latitude": "20.76725000",
      "longitude": "-103.52405000"
    },
    {
      "id": 142782,
      "name": "Nicolás R Casillas",
      "latitude": "20.54638000",
      "longitude": "-103.46622000"
    },
    {
      "id": 142783,
      "name": "Nuevo México Jalisco",
      "latitude": "20.75777778",
      "longitude": "-103.43416667"
    },
    {
      "id": 142784,
      "name": "Nuevo Refugio de Afuera (Nuevo Refugio)",
      "latitude": "20.54889000",
      "longitude": "-102.70722000"
    },
    {
      "id": 142785,
      "name": "Oconahua Jalisco",
      "latitude": "20.74373667",
      "longitude": "-104.16384278"
    },
    {
      "id": 142786,
      "name": "Ocotlán Jalisco",
      "latitude": "20.35138889",
      "longitude": "-102.76805556"
    },
    {
      "id": 142787,
      "name": "Ojo de Agua de Morán Jalisco",
      "latitude": "20.53333333",
      "longitude": "-102.50000000"
    },
    {
      "id": 142788,
      "name": "Ojuelos de Jalisco",
      "latitude": "21.86416667",
      "longitude": "-101.59333333"
    },
    {
      "id": 142789,
      "name": "Otatlán",
      "latitude": "20.44084000",
      "longitude": "-102.80389000"
    },
    {
      "id": 142790,
      "name": "Palomar",
      "latitude": "20.59250000",
      "longitude": "-103.46056000"
    },
    {
      "id": 142791,
      "name": "Palos Altos",
      "latitude": "20.87143000",
      "longitude": "-103.15296000"
    },
    {
      "id": 142793,
      "name": "Paseo de las Cañadas",
      "latitude": "20.62139000",
      "longitude": "-103.19778000"
    },
    {
      "id": 142794,
      "name": "Paseo del Prado",
      "latitude": "20.56444000",
      "longitude": "-103.38917000"
    },
    {
      "id": 142792,
      "name": "Paseo Puente Viejo",
      "latitude": "20.56917000",
      "longitude": "-103.19056000"
    },
    {
      "id": 142795,
      "name": "Paseos del Valle [Fraccionamiento]",
      "latitude": "20.52222000",
      "longitude": "-103.33333000"
    },
    {
      "id": 142796,
      "name": "Paso de Cuarenta",
      "latitude": "21.50344000",
      "longitude": "-101.75236000"
    },
    {
      "id": 142797,
      "name": "Pegueros",
      "latitude": "20.95353000",
      "longitude": "-102.66762000"
    },
    {
      "id": 142798,
      "name": "Piedra Pesada",
      "latitude": "19.55056000",
      "longitude": "-104.47683000"
    },
    {
      "id": 142799,
      "name": "Pihuamo",
      "latitude": "18.95000000",
      "longitude": "-103.16700000"
    },
    {
      "id": 142800,
      "name": "Pochotita",
      "latitude": "22.27306000",
      "longitude": "-104.11611000"
    },
    {
      "id": 142801,
      "name": "Poncitlán Municipality",
      "latitude": "20.30000000",
      "longitude": "-102.26666667"
    },
    {
      "id": 142802,
      "name": "Portes Gil",
      "latitude": "20.65812000",
      "longitude": "-103.93838000"
    },
    {
      "id": 142803,
      "name": "Potrerillos",
      "latitude": "20.33837000",
      "longitude": "-103.37762000"
    },
    {
      "id": 142804,
      "name": "Primero de Mayo (Chupaderos)",
      "latitude": "21.46611000",
      "longitude": "-101.82722000"
    },
    {
      "id": 142806,
      "name": "Puente de Camotlán",
      "latitude": "21.69870000",
      "longitude": "-104.07996000"
    },
    {
      "id": 142805,
      "name": "Puente Grande",
      "latitude": "20.56977000",
      "longitude": "-103.15377000"
    },
    {
      "id": 142807,
      "name": "Puerta del Llano",
      "latitude": "20.78528000",
      "longitude": "-103.46139000"
    },
    {
      "id": 142808,
      "name": "Puerto Vallarta",
      "latitude": "20.61666667",
      "longitude": "-105.23333333"
    },
    {
      "id": 142809,
      "name": "Punta de la Vega",
      "latitude": "20.59070000",
      "longitude": "-103.89831000"
    },
    {
      "id": 142810,
      "name": "Purificación",
      "latitude": "19.71738000",
      "longitude": "-104.60534000"
    },
    {
      "id": 142811,
      "name": "Quitupan",
      "latitude": "19.65000000",
      "longitude": "-102.75000000"
    },
    {
      "id": 142812,
      "name": "Rancho Alegre [Fraccionamiento]",
      "latitude": "20.47361000",
      "longitude": "-103.25778000"
    },
    {
      "id": 142813,
      "name": "Real del Valle (El Paraíso) [Fraccionamiento]",
      "latitude": "20.54556000",
      "longitude": "-103.36972000"
    },
    {
      "id": 142814,
      "name": "Rinconada la Loma [Fraccionamiento]",
      "latitude": "20.45417000",
      "longitude": "-103.21917000"
    },
    {
      "id": 142815,
      "name": "San Agustín",
      "latitude": "20.28557000",
      "longitude": "-102.63293000"
    },
    {
      "id": 142816,
      "name": "San Andrés Cohamiata",
      "latitude": "22.18944000",
      "longitude": "-104.24083000"
    },
    {
      "id": 142817,
      "name": "San Andrés Ixtlán",
      "latitude": "19.82059000",
      "longitude": "-103.47144000"
    },
    {
      "id": 142818,
      "name": "San Antonio",
      "latitude": "20.55186000",
      "longitude": "-102.61761000"
    },
    {
      "id": 142820,
      "name": "San Antonio de los Barrera",
      "latitude": "21.38944000",
      "longitude": "-102.25528000"
    },
    {
      "id": 142821,
      "name": "San Antonio de los Vázquez",
      "latitude": "20.81767000",
      "longitude": "-103.14623000"
    },
    {
      "id": 142819,
      "name": "San Antonio de Rivas",
      "latitude": "20.35015000",
      "longitude": "-102.42786000"
    },
    {
      "id": 142822,
      "name": "San Clemente",
      "latitude": "20.08433000",
      "longitude": "-104.25161000"
    },
    {
      "id": 142823,
      "name": "San Cristóbal",
      "latitude": "21.68159000",
      "longitude": "-101.94093000"
    },
    {
      "id": 142825,
      "name": "San Cristóbal de la Barranca Municipality",
      "latitude": "21.04472222",
      "longitude": "-103.42805556"
    },
    {
      "id": 142824,
      "name": "San Cristóbal Zapotitlán",
      "latitude": "20.22453000",
      "longitude": "-103.36969000"
    },
    {
      "id": 142826,
      "name": "San Diego de Alejandría",
      "latitude": "20.86666667",
      "longitude": "-101.90000000"
    },
    {
      "id": 142827,
      "name": "San Esteban (San Miguel Tateposco)",
      "latitude": "20.79889000",
      "longitude": "-103.37444000"
    },
    {
      "id": 142828,
      "name": "San Felipe de Híjar",
      "latitude": "20.90171000",
      "longitude": "-104.72172000"
    },
    {
      "id": 142829,
      "name": "San Francisco de Asís",
      "latitude": "20.53333333",
      "longitude": "-102.50000000"
    },
    {
      "id": 142830,
      "name": "San Francisco de Rivas",
      "latitude": "20.34053000",
      "longitude": "-102.57208000"
    },
    {
      "id": 142831,
      "name": "San Gabriel  Jalisco",
      "latitude": "19.74750000",
      "longitude": "-103.76527778"
    },
    {
      "id": 142832,
      "name": "San Gaspar",
      "latitude": "20.51056000",
      "longitude": "-102.62361000"
    },
    {
      "id": 142833,
      "name": "San Gaspar de los Reyes",
      "latitude": "21.28333333",
      "longitude": "-102.50000000"
    },
    {
      "id": 142834,
      "name": "San Ignacio Municipality Jalisco",
      "latitude": "20.73330000",
      "longitude": "-102.51700000"
    },
    {
      "id": 142835,
      "name": "San Isidro",
      "latitude": "20.79111000",
      "longitude": "-103.35111000"
    },
    {
      "id": 142836,
      "name": "San Isidro Mazatepec",
      "latitude": "20.52284000",
      "longitude": "-103.61294000"
    },
    {
      "id": 142837,
      "name": "San Jacintito",
      "latitude": "20.35400000",
      "longitude": "-103.92400000"
    },
    {
      "id": 142838,
      "name": "San Jacinto Jalisco",
      "latitude": "20.35900000",
      "longitude": "-103.93300000"
    },
    {
      "id": 142839,
      "name": "San Joaquín Zorrillos",
      "latitude": "20.62070000",
      "longitude": "-103.01546000"
    },
    {
      "id": 142840,
      "name": "San Jorge",
      "latitude": "21.37167000",
      "longitude": "-101.86556000"
    },
    {
      "id": 142842,
      "name": "San José Casas Caídas",
      "latitude": "20.42108000",
      "longitude": "-102.44066000"
    },
    {
      "id": 142841,
      "name": "San Jose de Gracia Jalisco",
      "latitude": "20.67444444",
      "longitude": "-102.56694444"
    },
    {
      "id": 142843,
      "name": "San José de la Paz",
      "latitude": "20.55094000",
      "longitude": "-102.05858000"
    },
    {
      "id": 142844,
      "name": "San José de las Flores",
      "latitude": "20.64851000",
      "longitude": "-102.96616000"
    },
    {
      "id": 142845,
      "name": "San José de los Reynoso",
      "latitude": "21.02361111",
      "longitude": "-102.40583333"
    },
    {
      "id": 142846,
      "name": "San José del Caliche (El Caliche)",
      "latitude": "21.12528000",
      "longitude": "-101.93000000"
    },
    {
      "id": 142847,
      "name": "San José del Castillo",
      "latitude": "20.53333333",
      "longitude": "-103.23333333"
    },
    {
      "id": 142848,
      "name": "San José del Valle",
      "latitude": "20.76376000",
      "longitude": "-105.22813000"
    },
    {
      "id": 142849,
      "name": "San Juan Cosalá",
      "latitude": "20.28756000",
      "longitude": "-103.34109000"
    },
    {
      "id": 142851,
      "name": "San Juan de los Arcos",
      "latitude": "20.60508000",
      "longitude": "-103.71947000"
    },
    {
      "id": 142852,
      "name": "San Juan de los Lagos",
      "latitude": "21.24583333",
      "longitude": "-102.33083333"
    },
    {
      "id": 142850,
      "name": "San Juan Tecomatlán",
      "latitude": "20.32838000",
      "longitude": "-103.10035000"
    },
    {
      "id": 142853,
      "name": "San Juanito de Escobedo",
      "latitude": "20.80000000",
      "longitude": "-104.00000000"
    },
    {
      "id": 142854,
      "name": "San Julián",
      "latitude": "21.01666667",
      "longitude": "-102.16666667"
    },
    {
      "id": 142855,
      "name": "San Lucas Evangelista",
      "latitude": "20.40815000",
      "longitude": "-103.36080000"
    },
    {
      "id": 142856,
      "name": "San Luciano",
      "latitude": "20.31426000",
      "longitude": "-103.41693000"
    },
    {
      "id": 142858,
      "name": "San Luis de Agua Caliente",
      "latitude": "20.38317000",
      "longitude": "-102.82447000"
    },
    {
      "id": 142857,
      "name": "San Luis Soyatlán",
      "latitude": "20.19834000",
      "longitude": "-103.30720000"
    },
    {
      "id": 142859,
      "name": "San Marcos",
      "latitude": "20.78333333",
      "longitude": "-104.18333333"
    },
    {
      "id": 142860,
      "name": "San Martín de Bolaños",
      "latitude": "21.50000000",
      "longitude": "-103.80000000"
    },
    {
      "id": 142861,
      "name": "San Martín de Hidalgo",
      "latitude": "20.43538000",
      "longitude": "-103.92878000"
    },
    {
      "id": 142862,
      "name": "San Miguel Cuyutlán",
      "latitude": "20.41633000",
      "longitude": "-103.38987000"
    },
    {
      "id": 142864,
      "name": "San Miguel de la Paz",
      "latitude": "20.37051000",
      "longitude": "-102.66267000"
    },
    {
      "id": 142865,
      "name": "San Miguel de la Sierra Ayutla",
      "latitude": "20.09934000",
      "longitude": "-104.60035000"
    },
    {
      "id": 142866,
      "name": "San Miguel el Alto",
      "latitude": "21.02361111",
      "longitude": "-102.40583333"
    },
    {
      "id": 142863,
      "name": "San Miguel Zapotitlán",
      "latitude": "20.39085000",
      "longitude": "-102.99428000"
    },
    {
      "id": 142867,
      "name": "San Nicolas",
      "latitude": "20.32982000",
      "longitude": "-103.12881000"
    },
    {
      "id": 142868,
      "name": "San Nicolás de las Flores",
      "latitude": "21.29055556",
      "longitude": "-102.55138889"
    },
    {
      "id": 142869,
      "name": "San Patricio Jalisco",
      "latitude": "19.22527778",
      "longitude": "-104.70111111"
    },
    {
      "id": 142870,
      "name": "San Pedro",
      "latitude": "20.22687000",
      "longitude": "-103.41488000"
    },
    {
      "id": 142871,
      "name": "San Pedro Itzicán",
      "latitude": "20.31724000",
      "longitude": "-102.95406000"
    },
    {
      "id": 142872,
      "name": "San Sebastian",
      "latitude": "20.53274000",
      "longitude": "-103.42804000"
    },
    {
      "id": 142873,
      "name": "San Sebastián del Oeste",
      "latitude": "20.85110000",
      "longitude": "-104.81903000"
    },
    {
      "id": 142874,
      "name": "San Vicente",
      "latitude": "20.42833000",
      "longitude": "-102.65443000"
    },
    {
      "id": 142875,
      "name": "Santa Anita",
      "latitude": "20.55090000",
      "longitude": "-103.44396000"
    },
    {
      "id": 142876,
      "name": "Santa Cruz de Barcenas",
      "latitude": "20.66868000",
      "longitude": "-104.00161000"
    },
    {
      "id": 142877,
      "name": "Santa Cruz de la Loma (Tepetates)",
      "latitude": "20.48806000",
      "longitude": "-103.54972000"
    },
    {
      "id": 142878,
      "name": "Santa Cruz de la Soledad",
      "latitude": "20.31746000",
      "longitude": "-103.15860000"
    },
    {
      "id": 142879,
      "name": "Santa Cruz de las Flores Tlajomulco de Zúñiga Jalisco",
      "latitude": "20.48056000",
      "longitude": "-103.50278000"
    },
    {
      "id": 142880,
      "name": "Santa Cruz del Astillero",
      "latitude": "20.74661000",
      "longitude": "-103.64281000"
    },
    {
      "id": 142881,
      "name": "Santa Cruz del Valle",
      "latitude": "20.53333000",
      "longitude": "-103.43333000"
    },
    {
      "id": 142882,
      "name": "Santa Cruz el Grande",
      "latitude": "20.37514000",
      "longitude": "-102.86382000"
    },
    {
      "id": 142884,
      "name": "Santa María de Enmedio",
      "latitude": "21.41938000",
      "longitude": "-102.22231000"
    },
    {
      "id": 142885,
      "name": "Santa María de los Ángeles",
      "latitude": "22.30000000",
      "longitude": "-103.03333333"
    },
    {
      "id": 142886,
      "name": "Santa María del Valle",
      "latitude": "20.87837000",
      "longitude": "-102.37983000"
    },
    {
      "id": 142883,
      "name": "Santa María Transpontina",
      "latitude": "21.41490000",
      "longitude": "-102.25720000"
    },
    {
      "id": 142887,
      "name": "Santa Rita",
      "latitude": "20.44150000",
      "longitude": "-102.39016000"
    },
    {
      "id": 142888,
      "name": "Santa Rosa",
      "latitude": "20.41440000",
      "longitude": "-103.23534000"
    },
    {
      "id": 142889,
      "name": "Santa Rosalía Jalisco",
      "latitude": "20.81805556",
      "longitude": "-104.08472222"
    },
    {
      "id": 142890,
      "name": "Santa Teresa",
      "latitude": "20.91587000",
      "longitude": "-103.89208000"
    },
    {
      "id": 142891,
      "name": "Santiaguito",
      "latitude": "20.77992000",
      "longitude": "-103.72394000"
    },
    {
      "id": 142892,
      "name": "Santiaguito (Santiaguito de Velázquez)",
      "latitude": "20.72533000",
      "longitude": "-102.23716000"
    },
    {
      "id": 142893,
      "name": "Sayula",
      "latitude": "19.88361111",
      "longitude": "-103.59722222"
    },
    {
      "id": 142894,
      "name": "Soyatlán de Afuera",
      "latitude": "19.69083000",
      "longitude": "-103.28278000"
    },