{
  "id": 55,
  "name": "Upper East",
  "state_code": "UE",
  "latitude": "10.70824990",
  "longitude": "-0.98206680",
  "type": "region",
  "cities": [
    {
      "id": 52161,
      "name": "Bawku",
      "latitude": "11.06160000",
      "longitude": "-0.24169000"
    },
    {
      "id": 52167,
      "name": "Bolgatanga",
      "latitude": "10.78556000",
      "longitude": "-0.85139000"
    },
    {
      "id": 52193,
      "name": "Navrongo",
      "latitude": "10.89557000",
      "longitude": "-1.09210000"
    }
  ],
  "country": {
    "id": 83,
    "name": "Ghana",
    "iso3": "GHA",
    "iso2": "GH",
    "numeric_code": "288",
    "phone_code": "233",
    "capital": "Accra",
    "currency": "GHS",
    "currency_name": "Ghanaian cedi",
    "currency_symbol": "GHâ‚µ",
    "tld": ".gh",
    "native": "Ghana",
    "region": "Africa",
    "subregion": "Western Africa",
    "timezones": [
      {
        "zoneName": "Africa/Accra",
        "gmtOffset": 0,
        "gmtOffsetName": "UTCÂ±00",
        "abbreviation": "GMT",
        "tzName": "Greenwich Mean Time"
      }
    ],
    "translations": {
      "kr": "ê°€ë‚˜",
      "pt-BR": "Gana",
      "pt": "Gana",
      "nl": "Ghana",
      "hr": "Gana",
      "fa": "ØºÙ†Ø§",
      "de": "Ghana",
      "es": "Ghana",
      "fr": "Ghana",
      "ja": "ã‚¬ãƒ¼ãƒŠ",
      "it": "Ghana",
      "cn": "åŠ çº³",
      "tr": "Gana"
    },
    "latitude": "8.00000000",
    "longitude": "-2.00000000",
    "emoji": "ðŸ‡¬ðŸ‡­",
    "emojiU": "U+1F1EC U+1F1ED"
  }
}