{
  "id": 2142,
  "name": "Ayeyarwady Region",
  "state_code": "07",
  "latitude": "17.03421250",
  "longitude": "95.22666750",
  "type": null,
  "cities": [
    {
      "id": 67633,
      "name": "Bogale",
      "latitude": "16.29415000",
      "longitude": "95.39742000"
    },
    {
      "id": 67639,
      "name": "Hinthada",
      "latitude": "17.64944000",
      "longitude": "95.45705000"
    },
    {
      "id": 67646,
      "name": "Kyaiklat",
      "latitude": "16.44502000",
      "longitude": "95.72373000"
    },
    {
      "id": 67656,
      "name": "Maubin",
      "latitude": "16.73148000",
      "longitude": "95.65441000"
    },
    {
      "id": 67659,
      "name": "Mawlamyinegyunn",
      "latitude": "16.37720000",
      "longitude": "95.26488000"
    },
    {
      "id": 67666,
      "name": "Myanaung",
      "latitude": "18.28651000",
      "longitude": "95.32014000"
    },
    {
      "id": 67673,
      "name": "Nyaungdon",
      "latitude": "17.04459000",
      "longitude": "95.63957000"
    },
    {
      "id": 67677,
      "name": "Pathein",
      "latitude": "16.77919000",
      "longitude": "94.73212000"
    },
    {
      "id": 67680,
      "name": "Pyapon",
      "latitude": "16.28543000",
      "longitude": "95.67882000"
    },
    {
      "id": 67701,
      "name": "Wakema",
      "latitude": "16.60333000",
      "longitude": "95.18278000"
    }
  ],
  "country": {
    "id": 151,
    "name": "Myanmar",
    "iso3": "MMR",
    "iso2": "MM",
    "numeric_code": "104",
    "phone_code": "95",
    "capital": "Nay Pyi Taw",
    "currency": "MMK",
    "currency_name": "Burmese kyat",
    "currency_symbol": "K",
    "tld": ".mm",
    "native": "á€™á€¼á€”á€ºá€™á€¬",
    "region": "Asia",
    "subregion": "South-Eastern Asia",
    "timezones": [
      {
        "zoneName": "Asia/Yangon",
        "gmtOffset": 23400,
        "gmtOffsetName": "UTC+06:30",
        "abbreviation": "MMT",
        "tzName": "Myanmar Standard Time"
      }
    ],
    "translations": {
      "kr": "ë¯¸ì–€ë§ˆ",
      "pt-BR": "Myanmar",
      "pt": "Myanmar",
      "nl": "Myanmar",
      "hr": "Mijanmar",
      "fa": "Ù…ÛŒØ§Ù†Ù…Ø§Ø±",
      "de": "Myanmar",
      "es": "Myanmar",
      "fr": "Myanmar",
      "ja": "ãƒŸãƒ£ãƒ³ãƒžãƒ¼",
      "it": "Birmania",
      "cn": "ç¼…ç”¸",
      "tr": "Myanmar"
    },
    "latitude": "22.00000000",
    "longitude": "98.00000000",
    "emoji": "ðŸ‡²ðŸ‡²",
    "emojiU": "U+1F1F2 U+1F1F2"
  }
}