{
  "id": 963,
  "name": "Ajloun",
  "state_code": "AJ",
  "latitude": "32.33255840",
  "longitude": "35.75168440",
  "type": null,
  "cities": [
    {
      "id": 63206,
      "name": "窶連jlﾅｫn",
      "latitude": "32.33326000",
      "longitude": "35.75279000"
    },
    {
      "id": 63207,
      "name": "窶連njarah",
      "latitude": "32.30630000",
      "longitude": "35.75653000"
    },
    {
      "id": 63208,
      "name": "窶連yn Jannah",
      "latitude": "32.33466000",
      "longitude": "35.76370000"
    },
    {
      "id": 63202,
      "name": "盧ｨalﾄ『ah",
      "latitude": "32.38433000",
      "longitude": "35.66167000"
    },
    {
      "id": 63199,
      "name": "ﾅ杪khrah",
      "latitude": "32.37087000",
      "longitude": "35.84267000"
    }
  ],
  "country": {
    "id": 111,
    "name": "Jordan",
    "iso3": "JOR",
    "iso2": "JO",
    "numeric_code": "400",
    "phone_code": "962",
    "capital": "Amman",
    "currency": "JOD",
    "currency_name": "Jordanian dinar",
    "currency_symbol": "ﾘｧ.ﾘｯ",
    "tld": ".jo",
    "native": "ﾘｧﾙﾘ｣ﾘｱﾘｯﾙ",
    "region": "Asia",
    "subregion": "Western Asia",
    "timezones": [
      {
        "zoneName": "Asia/Amman",
        "gmtOffset": 7200,
        "gmtOffsetName": "UTC+02:00",
        "abbreviation": "EET",
        "tzName": "Eastern European Time"
      }
    ],
    "translations": {
      "kr": "囈･ｴ卿",
      "pt-BR": "Jordﾃ｢nia",
      "pt": "Jordﾃ｢nia",
      "nl": "Jordaniﾃｫ",
      "hr": "Jordan",
      "fa": "ﾘｧﾘｱﾘｯﾙ",
      "de": "Jordanien",
      "es": "Jordania",
      "fr": "Jordanie",
      "ja": "繝ｨ繝ｫ繝繝ｳ",
      "it": "Giordania",
      "cn": "郤ｦ譌ｦ",
      "tr": "ﾃ徨dﾃｼn"
    },
    "latitude": "31.00000000",
    "longitude": "36.00000000",
    "emoji": "汞ｯ汞ｴ",
    "emojiU": "U+1F1EF U+1F1F4"
  }
}