{
  "id": 3448,
  "name": "Oaxaca",
  "state_code": "OAX",
  "latitude": "17.07318420",
  "longitude": "-96.72658890",
  "type": "state",
  "cities": [
    {
      "id": 68052,
      "name": "Acatlán de Pérez Figueroa",
      "latitude": "18.53973000",
      "longitude": "-96.60568000"
    },
    {
      "id": 68121,
      "name": "Agua del Espino",
      "latitude": "16.59095000",
      "longitude": "-96.80204000"
    },
    {
      "id": 68155,
      "name": "Ahuehuetitlán",
      "latitude": "17.67130000",
      "longitude": "-98.32024000"
    },
    {
      "id": 68173,
      "name": "Albarradas",
      "latitude": "17.06752000",
      "longitude": "-96.20012000"
    },
    {
      "id": 68212,
      "name": "Almolonga",
      "latitude": "18.60848000",
      "longitude": "-96.66099000"
    },
    {
      "id": 76394,
      "name": "Álvaro Obregón",
      "latitude": "16.29811000",
      "longitude": "-95.08392000"
    },
    {
      "id": 68275,
      "name": "Animas Trujano",
      "latitude": "16.99086000",
      "longitude": "-96.71319000"
    },
    {
      "id": 68310,
      "name": "Apoala",
      "latitude": "17.64845000",
      "longitude": "-97.13608000"
    },
    {
      "id": 68356,
      "name": "Arroyo Chical (Nuevo Arroyo Chicali)",
      "latitude": "18.21611000",
      "longitude": "-96.33667000"
    },
    {
      "id": 68357,
      "name": "Arroyo Choápam",
      "latitude": "17.97028000",
      "longitude": "-96.15722000"
    },
    {
      "id": 68368,
      "name": "Arroyo de Banco",
      "latitude": "17.80312000",
      "longitude": "-96.34794000"
    },
    {
      "id": 68369,
      "name": "Arroyo de Enmedio",
      "latitude": "18.49750000",
      "longitude": "-96.54722000"
    },
    {
      "id": 68362,
      "name": "Arroyo Limón",
      "latitude": "17.90008000",
      "longitude": "-95.96175000"
    },
    {
      "id": 68367,
      "name": "Arroyo Zapotillo",
      "latitude": "18.07639000",
      "longitude": "-96.54417000"
    },
    {
      "id": 68383,
      "name": "Asunción Cacalotepec",
      "latitude": "17.03470000",
      "longitude": "-95.93361000"
    },
    {
      "id": 68384,
      "name": "Asunción Ixtaltepec",
      "latitude": "16.50315000",
      "longitude": "-95.06121000"
    },
    {
      "id": 68385,
      "name": "Asunción Nochixtlán",
      "latitude": "17.45916000",
      "longitude": "-97.22605000"
    },
    {
      "id": 68386,
      "name": "Asunción Ocotlán",
      "latitude": "16.76195000",
      "longitude": "-96.72137000"
    },
    {
      "id": 68387,
      "name": "Asunción Tlacolulita",
      "latitude": "16.22612000",
      "longitude": "-95.76620000"
    },
    {
      "id": 68463,
      "name": "Ayoquezco de Aldama",
      "latitude": "16.68370000",
      "longitude": "-96.84287000"
    },
    {
      "id": 68468,
      "name": "Ayotzintepec",
      "latitude": "17.67261000",
      "longitude": "-96.12855000"
    },
    {
      "id": 68469,
      "name": "Ayutla",
      "latitude": "17.02756000",
      "longitude": "-96.07632000"
    },
    {
      "id": 68502,
      "name": "Bajos de Chila",
      "latitude": "15.92343000",
      "longitude": "-97.12113000"
    },
    {
      "id": 68530,
      "name": "Barrio San Diego",
      "latitude": "17.27917000",
      "longitude": "-97.67417000"
    },
    {
      "id": 68584,
      "name": "Benemérito Juárez",
      "latitude": "18.11944000",
      "longitude": "-96.00194000"
    },
    {
      "id": 68593,
      "name": "Benito Juárez",
      "latitude": "15.88178000",
      "longitude": "-96.32405000"
    },
    {
      "id": 68605,
      "name": "Benito Juárez II (San Martín)",
      "latitude": "18.14056000",
      "longitude": "-96.46139000"
    },
    {
      "id": 68614,
      "name": "Bethania",
      "latitude": "17.91939000",
      "longitude": "-96.00459000"
    },
    {
      "id": 68650,
      "name": "Brisas de Zicatela",
      "latitude": "15.83694000",
      "longitude": "-97.04194000"
    },
    {
      "id": 68723,
      "name": "Cajonos",
      "latitude": "17.16801000",
      "longitude": "-96.26174000"
    },
    {
      "id": 68737,
      "name": "Calihualá",
      "latitude": "17.53134000",
      "longitude": "-98.27792000"
    },
    {
      "id": 68762,
      "name": "Camelia Roja",
      "latitude": "18.02833000",
      "longitude": "-96.20806000"
    },
    {
      "id": 68767,
      "name": "Camotinchan",
      "latitude": "16.55873000",
      "longitude": "-98.12433000"
    },
    {
      "id": 68790,
      "name": "Candelaria Loxicha",
      "latitude": "15.92638000",
      "longitude": "-96.49268000"
    },
    {
      "id": 68812,
      "name": "Capulálpam de Méndez",
      "latitude": "17.30972000",
      "longitude": "-96.44656000"
    },
    {
      "id": 68921,
      "name": "Cerro Armadillo Grande",
      "latitude": "17.86611000",
      "longitude": "-96.30861000"
    },
    {
      "id": 68938,
      "name": "Cerro del Aire",
      "latitude": "16.11012000",
      "longitude": "-97.20438000"
    },
    {
      "id": 68932,
      "name": "Cerro Quemado",
      "latitude": "18.15417000",
      "longitude": "-96.57500000"
    },
    {
      "id": 68952,
      "name": "Chahuite",
      "latitude": "16.30000000",
      "longitude": "-94.18333000"
    },
    {
      "id": 68953,
      "name": "Chahuites",
      "latitude": "16.28842000",
      "longitude": "-94.19478000"
    },
    {
      "id": 69015,
      "name": "Chicahua",
      "latitude": "17.63667000",
      "longitude": "-97.19497000"
    },
    {
      "id": 69017,
      "name": "Chicapa de Castro",
      "latitude": "16.43844000",
      "longitude": "-94.82206000"
    },
    {
      "id": 69200,
      "name": "Ciénega de Zimatlán",
      "latitude": "16.89366000",
      "longitude": "-96.76801000"
    },
    {
      "id": 69128,
      "name": "Cieneguilla",
      "latitude": "16.32353000",
      "longitude": "-97.31762000"
    },
    {
      "id": 69189,
      "name": "Ciudad de Huajuapan de León",
      "latitude": "17.80787000",
      "longitude": "-97.77956000"
    },
    {
      "id": 69223,
      "name": "Coatecas Altas",
      "latitude": "16.53926000",
      "longitude": "-96.66878000"
    },
    {
      "id": 69253,
      "name": "Coixtlahuaca",
      "latitude": "17.72021000",
      "longitude": "-97.31880000"
    },
    {
      "id": 69262,
      "name": "Collantes",
      "latitude": "16.18810000",
      "longitude": "-97.97184000"
    },
    {
      "id": 69315,
      "name": "Colonia Jordán",
      "latitude": "16.38893000",
      "longitude": "-95.20203000"
    },
    {
      "id": 69317,
      "name": "Colonia Juárez",
      "latitude": "16.20967000",
      "longitude": "-95.02722000"
    },
    {
      "id": 69394,
      "name": "Colonia la Central",
      "latitude": "18.08666000",
      "longitude": "-96.51619000"
    },
    {
      "id": 69352,
      "name": "Colonia Progreso",
      "latitude": "16.80111000",
      "longitude": "-95.07972000"
    },
    {
      "id": 69358,
      "name": "Colonia Rincón Viejo",
      "latitude": "16.88678000",
      "longitude": "-95.04731000"
    },
    {
      "id": 69366,
      "name": "Colonia San Luis",
      "latitude": "16.38000000",
      "longitude": "-95.24111000"
    },
    {
      "id": 69439,
      "name": "Concepción Pápalo",
      "latitude": "17.85391000",
      "longitude": "-96.84472000"
    },
    {
      "id": 69461,
      "name": "Constancia del Rosario",
      "latitude": "17.03820000",
      "longitude": "-97.94125000"
    },
    {
      "id": 69466,
      "name": "Constitución Mexicana",
      "latitude": "17.34102000",
      "longitude": "-95.37326000"
    },
    {
      "id": 69487,
      "name": "Corral de Piedra",
      "latitude": "18.24528000",
      "longitude": "-96.30556000"
    },
    {
      "id": 69491,
      "name": "Corralero",
      "latitude": "16.23846000",
      "longitude": "-98.18952000"
    },
    {
      "id": 69505,
      "name": "Cosoltepec",
      "latitude": "18.14255000",
      "longitude": "-97.79084000"
    },
    {
      "id": 69538,
      "name": "Crucecita",
      "latitude": "15.76889000",
      "longitude": "-96.13500000"
    },
    {
      "id": 69563,
      "name": "Cuapinolito (Azulillo)",
      "latitude": "15.82194000",
      "longitude": "-96.31833000"
    },
    {
      "id": 69579,
      "name": "Cuauhtémoc",
      "latitude": "17.10149000",
      "longitude": "-94.88532000"
    },
    {
      "id": 69625,
      "name": "Cuicatlan",
      "latitude": "17.80272000",
      "longitude": "-96.95939000"
    },
    {
      "id": 69627,
      "name": "Cuilapan de Guerrero",
      "latitude": "16.97756000",
      "longitude": "-96.78081000"
    },
    {
      "id": 69714,
      "name": "Donaji",
      "latitude": "17.22950000",
      "longitude": "-95.05295000"
    },
    {
      "id": 69819,
      "name": "Ejutla de Crespo",
      "latitude": "16.56623000",
      "longitude": "-96.73123000"
    },
    {
      "id": 69830,
      "name": "El Arador",
      "latitude": "16.54111000",
      "longitude": "-97.18194000"
    },
    {
      "id": 69836,
      "name": "El Bajío",
      "latitude": "16.88917000",
      "longitude": "-95.03528000"
    },
    {
      "id": 69842,
      "name": "El Barrio de la Soledad",
      "latitude": "16.80131000",
      "longitude": "-95.03909000"
    },
    {
      "id": 69856,
      "name": "El Camalote",
      "latitude": "15.87250000",
      "longitude": "-96.62361000"
    },
    {
      "id": 69857,
      "name": "El Camarón",
      "latitude": "16.55745000",
      "longitude": "-96.02868000"
    },
    {
      "id": 69867,
      "name": "El Capulín (La Nueva Pochota)",
      "latitude": "18.22972000",
      "longitude": "-96.27806000"
    },
    {
      "id": 69881,
      "name": "El Carrizal",
      "latitude": "16.06438000",
      "longitude": "-95.39308000"
    },
    {
      "id": 69884,
      "name": "El Carrizo",
      "latitude": "16.25453000",
      "longitude": "-98.03080000"
    },
    {
      "id": 69902,
      "name": "El Chocolate",
      "latitude": "16.93191000",
      "longitude": "-95.08946000"
    },
    {
      "id": 69906,
      "name": "El Ciruelo",
      "latitude": "16.31780000",
      "longitude": "-98.25707000"
    },
    {
      "id": 69933,
      "name": "El Coyul",
      "latitude": "15.91472000",
      "longitude": "-95.81028000"
    },
    {
      "id": 69963,
      "name": "El Espinal",
      "latitude": "16.46751000",
      "longitude": "-95.04198000"
    },
    {
      "id": 70044,
      "name": "El Molino",
      "latitude": "17.77536000",
      "longitude": "-97.75227000"
    },
    {
      "id": 70051,
      "name": "El Morro",
      "latitude": "16.09745000",
      "longitude": "-95.37906000"
    },
    {
      "id": 70115,
      "name": "El Porvenir",
      "latitude": "17.47446000",
      "longitude": "-95.25596000"
    },
    {
      "id": 70171,
      "name": "El Rosario",
      "latitude": "17.04271000",
      "longitude": "-96.69209000"
    },
    {
      "id": 70274,
      "name": "Eloxochitlán de Flores Magón",
      "latitude": "18.17724000",
      "longitude": "-96.87538000"
    },
    {
      "id": 70301,
      "name": "Encinal Colorado",
      "latitude": "17.00995000",
      "longitude": "-95.10732000"
    },
    {
      "id": 70347,
      "name": "Estación Mogoñé",
      "latitude": "16.99472000",
      "longitude": "-95.03667000"
    },
    {
      "id": 70404,
      "name": "Flor Batavia",
      "latitude": "17.98475000",
      "longitude": "-96.51880000"
    },
    {
      "id": 70414,
      "name": "Fraccionamiento Ciudad Yagul",
      "latitude": "16.97750000",
      "longitude": "-96.46194000"
    },
    {
      "id": 70419,
      "name": "Fraccionamiento Ex-Hacienda Catano",
      "latitude": "17.22750000",
      "longitude": "-96.81556000"
    },
    {
      "id": 70437,
      "name": "Fraccionamiento Real del Valle",
      "latitude": "16.93278000",
      "longitude": "-96.76778000"
    },
    {
      "id": 70438,
      "name": "Fraccionamiento Riberas de San Jerónimo",
      "latitude": "17.11250000",
      "longitude": "-96.77722000"
    },
    {
      "id": 70440,
      "name": "Fraccionamiento San Miguel",
      "latitude": "17.21278000",
      "longitude": "-96.78694000"
    },
    {
      "id": 70470,
      "name": "Francisco Ibarra Ramos",
      "latitude": "17.97781000",
      "longitude": "-97.91748000"
    },
    {
      "id": 70543,
      "name": "General Pascual Fentes",
      "latitude": "16.43472000",
      "longitude": "-94.26270000"
    },
    {
      "id": 70582,
      "name": "Guadalupe Etla",
      "latitude": "17.17268000",
      "longitude": "-96.81022000"
    },
    {
      "id": 70584,
      "name": "Guadalupe Hidalgo",
      "latitude": "17.14950000",
      "longitude": "-96.81109000"
    },
    {
      "id": 70596,
      "name": "Guadalupe Victoria",
      "latitude": "16.89627000",
      "longitude": "-95.84981000"
    },
    {
      "id": 70614,
      "name": "Guamúchil",
      "latitude": "16.36937000",
      "longitude": "-94.66863000"
    },
    {
      "id": 70636,
      "name": "Guixé",
      "latitude": "16.46991000",
      "longitude": "-96.70271000"
    },
    {
      "id": 70651,
      "name": "Hacienda Blanca",
      "latitude": "17.13994000",
      "longitude": "-96.77590000"
    },
    {
      "id": 70676,
      "name": "Heroica Ciudad de Ejutla de Crespo",
      "latitude": "16.57835000",
      "longitude": "-96.73079000"
    },
    {
      "id": 70677,
      "name": "Heroica Ciudad de Juchitán de Zaragoza",
      "latitude": "16.44873000",
      "longitude": "-94.98619000"
    },
    {
      "id": 70678,
      "name": "Heroica Ciudad de Tlaxiaco",
      "latitude": "17.26916000",
      "longitude": "-97.68053000"
    },
    {
      "id": 70720,
      "name": "Huajintepec",
      "latitude": "16.61003000",
      "longitude": "-98.23028000"
    },
    {
      "id": 70745,
      "name": "Huautepec",
      "latitude": "18.10138000",
      "longitude": "-96.79590000"
    },
    {
      "id": 70753,
      "name": "Huazantlán del Río",
      "latitude": "16.21932000",
      "longitude": "-95.12864000"
    },
    {
      "id": 70853,
      "name": "Ignacio Zaragoza",
      "latitude": "17.53556000",
      "longitude": "-95.89361000"
    },
    {
      "id": 70886,
      "name": "Isla Soyaltepec",
      "latitude": "18.20107000",
      "longitude": "-96.48325000"
    },
    {
      "id": 70919,
      "name": "Ixpantepec Nieves",
      "latitude": "17.50690000",
      "longitude": "-98.04264000"
    },
    {
      "id": 70934,
      "name": "Ixtepec",
      "latitude": "16.56052000",
      "longitude": "-95.10375000"
    },
    {
      "id": 70944,
      "name": "Ixtlán de Juárez",
      "latitude": "17.33211000",
      "longitude": "-96.48812000"
    },
    {
      "id": 70964,
      "name": "Jalapa",
      "latitude": "16.50000000",
      "longitude": "-95.46667000"
    },
    {
      "id": 70987,
      "name": "Jaltepec de Candayoc",
      "latitude": "17.35495000",
      "longitude": "-95.41428000"
    },
    {
      "id": 70988,
      "name": "Jaltepetongo",
      "latitude": "17.68623000",
      "longitude": "-97.03569000"
    },
    {
      "id": 70998,
      "name": "Jamiltepec",
      "latitude": "16.28258000",
      "longitude": "-97.82446000"
    },
    {
      "id": 71095,
      "name": "José María Morelos",
      "latitude": "16.20389000",
      "longitude": "-97.93000000"
    },
    {
      "id": 71133,
      "name": "Juchitán de Zaragoza",
      "latitude": "16.43603000",
      "longitude": "-95.01975000"
    },
    {
      "id": 71181,
      "name": "La Barra de Colotepec",
      "latitude": "15.82546000",
      "longitude": "-97.02882000"
    },
    {
      "id": 71183,
      "name": "La Blanca",
      "latitude": "16.59482000",
      "longitude": "-94.69256000"
    },
    {
      "id": 71208,
      "name": "La Cañada",
      "latitude": "17.07000000",
      "longitude": "-96.77806000"
    },
    {
      "id": 71196,
      "name": "La Candelaria",
      "latitude": "17.21833000",
      "longitude": "-95.93306000"
    },
    {
      "id": 71264,
      "name": "La Erradura",
      "latitude": "15.83402000",
      "longitude": "-96.33478000"
    },
    {
      "id": 71321,
      "name": "La Humedad",
      "latitude": "16.58222000",
      "longitude": "-97.66724000"
    },
    {
      "id": 71337,
      "name": "La Junta",
      "latitude": "17.82778000",
      "longitude": "-97.74556000"
    },
    {
      "id": 71371,
      "name": "La Luz",
      "latitude": "16.11477000",
      "longitude": "-97.59570000"
    },
    {
      "id": 71395,
      "name": "La Mina",
      "latitude": "17.98689000",
      "longitude": "-96.09978000"
    },
    {
      "id": 71407,
      "name": "La Noria",
      "latitude": "16.25444000",
      "longitude": "-95.22056000"
    },
    {
      "id": 71437,
      "name": "La Pe",
      "latitude": "16.63027000",
      "longitude": "-96.79766000"
    },
    {
      "id": 71471,
      "name": "La Reforma",
      "latitude": "16.62414000",
      "longitude": "-97.84544000"
    },
    {
      "id": 71500,
      "name": "La Tabaquera",
      "latitude": "18.33582000",
      "longitude": "-96.45129000"
    },
    {
      "id": 71527,
      "name": "La Venta",
      "latitude": "16.57109000",
      "longitude": "-94.81773000"
    },
    {
      "id": 71529,
      "name": "La Ventosa",
      "latitude": "16.55188000",
      "longitude": "-94.94762000"
    },
    {
      "id": 71574,
      "name": "Las Amilpas",
      "latitude": "16.36667000",
      "longitude": "-94.61667000"
    },
    {
      "id": 71618,
      "name": "Las Margaritas",
      "latitude": "18.25501000",
      "longitude": "-96.28421000"
    },
    {
      "id": 71887,
      "name": "Lázaro Cárdenas",
      "latitude": "16.72818000",
      "longitude": "-94.85981000"
    },
    {
      "id": 71690,
      "name": "Llano de Agua",
      "latitude": "18.10611000",
      "longitude": "-96.81083000"
    },
    {
      "id": 71689,
      "name": "Llano Suchiapa",
      "latitude": "16.86611000",
      "longitude": "-95.05389000"
    },
    {
      "id": 71714,
      "name": "Loma Bonita",
      "latitude": "18.10721000",
      "longitude": "-95.87904000"
    },
    {
      "id": 71718,
      "name": "Loma Chapultepec",
      "latitude": "18.11972000",
      "longitude": "-96.83917000"
    },
    {
      "id": 71870,
      "name": "Los Ángeles",
      "latitude": "17.39485000",
      "longitude": "-95.16540000"
    },
    {
      "id": 71821,
      "name": "Los Naranjos Esquipulas",
      "latitude": "15.98167000",
      "longitude": "-96.45889000"
    },
    {
      "id": 71916,
      "name": "Macín Chico",
      "latitude": "18.06820000",
      "longitude": "-96.27184000"
    },
    {
      "id": 71911,
      "name": "Macuilxóchitl de Artigas Carranza",
      "latitude": "17.01583000",
      "longitude": "-96.54000000"
    },
    {
      "id": 71921,
      "name": "Magdalena Apasco",
      "latitude": "17.24083000",
      "longitude": "-96.82083000"
    },
    {
      "id": 71925,
      "name": "Magdalena Jaltepec",
      "latitude": "17.32318000",
      "longitude": "-97.22122000"
    },
    {
      "id": 71926,
      "name": "Magdalena Mixtepec",
      "latitude": "16.89659000",
      "longitude": "-96.90618000"
    },
    {
      "id": 71927,
      "name": "Magdalena Ocotlán",
      "latitude": "16.70865000",
      "longitude": "-96.71010000"
    },
    {
      "id": 71928,
      "name": "Magdalena Teitipac",
      "latitude": "16.90393000",
      "longitude": "-96.55840000"
    },
    {
      "id": 71929,
      "name": "Magdalena Tequisistlán",
      "latitude": "16.39929000",
      "longitude": "-95.60204000"
    },
    {
      "id": 71930,
      "name": "Magdalena Tlacotepec",
      "latitude": "16.50416000",
      "longitude": "-95.20248000"
    },
    {
      "id": 71931,
      "name": "Magdalena Yodocono de Porfirio Díaz",
      "latitude": "17.38470000",
      "longitude": "-97.35530000"
    },
    {
      "id": 71932,
      "name": "Magdalena Zahuatlán",
      "latitude": "17.38978000",
      "longitude": "-97.22747000"
    },
    {
      "id": 71954,
      "name": "Mancuernas",
      "latitude": "16.38940000",
      "longitude": "-98.11018000"
    },
    {
      "id": 72005,
      "name": "María Lombardo de Caso",
      "latitude": "17.44931000",
      "longitude": "-95.42821000"
    },
    {
      "id": 71996,
      "name": "Mariscala de Juárez",
      "latitude": "17.85972000",
      "longitude": "-98.14083000"
    },
    {
      "id": 72024,
      "name": "Matías Romero",
      "latitude": "16.87902000",
      "longitude": "-95.03939000"
    },
    {
      "id": 72048,
      "name": "Mazatlán Villa de Flores",
      "latitude": "18.03264000",
      "longitude": "-96.91404000"
    },
    {
      "id": 72052,
      "name": "Mazín Grande",
      "latitude": "18.11630000",
      "longitude": "-96.30956000"
    },
    {
      "id": 72077,
      "name": "Merced del Potrero",
      "latitude": "16.04679000",
      "longitude": "-96.07048000"
    },
    {
      "id": 72085,
      "name": "Mesones Hidalgo",
      "latitude": "16.92208000",
      "longitude": "-97.99765000"
    },
    {
      "id": 72117,
      "name": "Miahuatlán de Porfirio Díaz",
      "latitude": "16.33276000",
      "longitude": "-96.59562000"
    },
    {
      "id": 72165,
      "name": "Mixistlán de la Reforma",
      "latitude": "17.14669000",
      "longitude": "-96.10669000"
    },
    {
      "id": 72217,
      "name": "Montenegro la Lana",
      "latitude": "17.59296000",
      "longitude": "-95.86510000"
    },
    {
      "id": 72275,
      "name": "Nanahuatípam",
      "latitude": "18.13414000",
      "longitude": "-97.12501000"
    },
    {
      "id": 72288,
      "name": "Nativitas",
      "latitude": "17.66160000",
      "longitude": "-97.33566000"
    },
    {
      "id": 72300,
      "name": "Nazareno Etla",
      "latitude": "17.17667000",
      "longitude": "-96.83264000"
    },
    {
      "id": 72309,
      "name": "Nejapa de Madero",
      "latitude": "16.60571000",
      "longitude": "-95.97855000"
    },
    {
      "id": 72332,
      "name": "Niltepec",
      "latitude": "16.56401000",
      "longitude": "-94.61373000"
    },
    {
      "id": 72388,
      "name": "Nuevo Ixcatlán",
      "latitude": "17.64145000",
      "longitude": "-95.43807000"
    },
    {
      "id": 72403,
      "name": "Nuevo Paso Nazareno (Chichicazapa)",
      "latitude": "18.29667000",
      "longitude": "-96.34722000"
    },
    {
      "id": 72411,
      "name": "Nuevo San Martín",
      "latitude": "17.57987000",
      "longitude": "-95.52346000"
    },
    {
      "id": 72432,
      "name": "Oaxaca",
      "latitude": "17.06542000",
      "longitude": "-96.72365000"
    },
    {
      "id": 72433,
      "name": "Oaxaca de Juárez",
      "latitude": "17.11345000",
      "longitude": "-96.73556000"
    },
    {
      "id": 72460,
      "name": "Ocotlán de Morelos",
      "latitude": "16.79151000",
      "longitude": "-96.67455000"
    },
    {
      "id": 72612,
      "name": "Palomares",
      "latitude": "17.13830000",
      "longitude": "-95.06266000"
    },
    {
      "id": 72631,
      "name": "Papaloapan",
      "latitude": "18.16087000",
      "longitude": "-96.09383000"
    },
    {
      "id": 72678,
      "name": "Paso Canoa",
      "latitude": "18.01274000",
      "longitude": "-96.23786000"
    },
    {
      "id": 72685,
      "name": "Paso Real de Sarabia",
      "latitude": "17.07389000",
      "longitude": "-95.04667000"
    },
    {
      "id": 72749,
      "name": "Peña Colorada",
      "latitude": "17.47778000",
      "longitude": "-97.79417000"
    },
    {
      "id": 72764,
      "name": "Piedra Blanca",
      "latitude": "16.98861000",
      "longitude": "-95.01278000"
    },
    {
      "id": 72769,
      "name": "Piedra de Amolar",
      "latitude": "18.12000000",
      "longitude": "-96.45122000"
    },
    {
      "id": 72782,
      "name": "Pinotepa de Don Luis",
      "latitude": "16.42716000",
      "longitude": "-97.97678000"
    },
    {
      "id": 72781,
      "name": "Pinotepa Nacional",
      "latitude": "16.34014000",
      "longitude": "-98.05297000"
    },
    {
      "id": 72810,
      "name": "Playa Chica",
      "latitude": "18.06139000",
      "longitude": "-96.51833000"
    },
    {
      "id": 72818,
      "name": "Pluma Hidalgo",
      "latitude": "15.92127000",
      "longitude": "-96.42977000"
    },
    {
      "id": 72885,
      "name": "Praxedis de Guerrero",
      "latitude": "16.72000000",
      "longitude": "-96.64000000"
    },
    {
      "id": 72915,
      "name": "Progreso",
      "latitude": "17.04528000",
      "longitude": "-97.57028000"
    },
    {
      "id": 72948,
      "name": "Pueblo Viejo",
      "latitude": "17.90750000",
      "longitude": "-96.05778000"
    },
    {
      "id": 72981,
      "name": "Puerto Ángel",
      "latitude": "15.66898000",
      "longitude": "-96.49095000"
    },
    {
      "id": 72968,
      "name": "Puerto Escondido",
      "latitude": "15.87037000",
      "longitude": "-97.07726000"
    },
    {
      "id": 73002,
      "name": "Putla Villa de Guerrero",
      "latitude": "17.02630000",
      "longitude": "-97.92854000"
    },
    {
      "id": 73020,
      "name": "Quelové",
      "latitude": "15.98273000",
      "longitude": "-96.67890000"
    },
    {
      "id": 73034,
      "name": "Quinicuena",
      "latitude": "16.53101000",
      "longitude": "-97.52385000"
    },
    {
      "id": 73060,
      "name": "Rancho Grande",
      "latitude": "18.35389000",
      "longitude": "-96.34944000"
    },
    {
      "id": 73072,
      "name": "Rancho Viejo",
      "latitude": "16.33966000",
      "longitude": "-97.96399000"
    },
    {
      "id": 73095,
      "name": "Reforma de Pineda",
      "latitude": "16.40103000",
      "longitude": "-94.45786000"
    },
    {
      "id": 73102,
      "name": "Reyes Etla",
      "latitude": "17.20220000",
      "longitude": "-96.81802000"
    },
    {
      "id": 73103,
      "name": "Reyes Mantecón",
      "latitude": "16.90717000",
      "longitude": "-96.72702000"
    },
    {
      "id": 73119,
      "name": "Rincón Moreno",
      "latitude": "16.23007000",
      "longitude": "-95.31327000"
    },
    {
      "id": 73172,
      "name": "Río Chiquito",
      "latitude": "17.61989000",
      "longitude": "-95.93688000"
    },
    {
      "id": 73175,
      "name": "Río Grande",
      "latitude": "16.01079000",
      "longitude": "-97.43574000"
    },
    {
      "id": 73182,
      "name": "Río Pachiñe",
      "latitude": "16.96870000",
      "longitude": "-95.06533000"
    },
    {
      "id": 73152,
      "name": "Rojas de Cuauhtémoc",
      "latitude": "17.00861000",
      "longitude": "-96.61944000"
    },
    {
      "id": 73213,
      "name": "Salina Cruz",
      "latitude": "16.17535000",
      "longitude": "-95.19424000"
    },
    {
      "id": 73240,
      "name": "San Agustín Amatengo",
      "latitude": "16.51086000",
      "longitude": "-96.78919000"
    },
    {
      "id": 73241,
      "name": "San Agustín Atenango",
      "latitude": "17.61150000",
      "longitude": "-98.01095000"
    },
    {
      "id": 73245,
      "name": "San Agustín Chayuco",
      "latitude": "16.40234000",
      "longitude": "-97.80823000"
    },
    {
      "id": 73237,
      "name": "San Agustin de las Juntas",
      "latitude": "17.00389000",
      "longitude": "-96.70806000"
    },
    {
      "id": 73247,
      "name": "San Agustín Etla",
      "latitude": "17.18654000",
      "longitude": "-96.76661000"
    },
    {
      "id": 73250,
      "name": "San Agustín Loxicha",
      "latitude": "16.01687000",
      "longitude": "-96.61615000"
    },
    {
      "id": 73256,
      "name": "San Agustín Yatareni",
      "latitude": "17.08635000",
      "longitude": "-96.67845000"
    },
    {
      "id": 73273,
      "name": "San Andrés Chicahuaxtla",
      "latitude": "17.15698000",
      "longitude": "-97.83703000"
    },
    {
      "id": 73277,
      "name": "San Andrés Dinicuiti",
      "latitude": "17.68812000",
      "longitude": "-97.72669000"
    },
    {
      "id": 73280,
      "name": "San Andrés Hidalgo",
      "latitude": "18.13734000",
      "longitude": "-96.80604000"
    },
    {
      "id": 73281,
      "name": "San Andrés Huaxpaltepec",
      "latitude": "16.32952000",
      "longitude": "-97.91647000"
    },
    {
      "id": 73282,
      "name": "San Andrés Huayápam",
      "latitude": "17.10264000",
      "longitude": "-96.66556000"
    },
    {
      "id": 73284,
      "name": "San Andrés Ixtlahuaca",
      "latitude": "17.07112000",
      "longitude": "-96.82635000"
    },
    {
      "id": 73290,
      "name": "San Andrés Paxtlán",
      "latitude": "16.21621000",
      "longitude": "-96.50783000"
    },
    {
      "id": 73293,
      "name": "San Andrés Sinaxtla",
      "latitude": "17.46928000",
      "longitude": "-97.28298000"
    },
    {
      "id": 73294,
      "name": "San Andrés Solaga",
      "latitude": "17.27254000",
      "longitude": "-96.23610000"
    },
    {
      "id": 73296,
      "name": "San Andrés Teotilalpam",
      "latitude": "17.95414000",
      "longitude": "-96.65607000"
    },
    {
      "id": 73302,
      "name": "San Andrés Yaá",
      "latitude": "17.29290000",
      "longitude": "-96.15384000"
    },
    {
      "id": 73303,
      "name": "San Andrés Zabache",
      "latitude": "16.59917000",
      "longitude": "-96.85889000"
    },
    {
      "id": 73304,
      "name": "San Andrés Zautla",
      "latitude": "17.18697000",
      "longitude": "-96.86419000"
    },
    {
      "id": 73311,
      "name": "San Antonino Castillo Velasco",
      "latitude": "16.80900000",
      "longitude": "-96.69267000"
    },
    {
      "id": 73313,
      "name": "San Antonino el Alto",
      "latitude": "16.81984000",
      "longitude": "-97.02719000"
    },
    {
      "id": 73312,
      "name": "San Antonino Monte Verde",
      "latitude": "17.51869000",
      "longitude": "-97.72654000"
    },
    {
      "id": 73321,
      "name": "San Antonio Arrazola",
      "latitude": "17.03972000",
      "longitude": "-96.79034000"
    },
    {
      "id": 73368,
      "name": "San Antonio de la Cal",
      "latitude": "17.02921000",
      "longitude": "-96.70094000"
    },
    {
      "id": 73336,
      "name": "San Antonio Huitepec",
      "latitude": "16.92888000",
      "longitude": "-97.14670000"
    },
    {
      "id": 73391,
      "name": "San Antonio las Palmas",
      "latitude": "17.67167000",
      "longitude": "-96.09083000"
    },
    {
      "id": 73343,
      "name": "San Antonio Ocotlán",
      "latitude": "16.64929000",
      "longitude": "-98.16585000"
    },
    {
      "id": 73354,
      "name": "San Antonio Tepetlapa",
      "latitude": "16.54391000",
      "longitude": "-98.06551000"
    },
    {
      "id": 73394,
      "name": "San Baltazar Chichicapam",
      "latitude": "16.76151000",
      "longitude": "-96.48970000"
    },
    {
      "id": 73395,
      "name": "San Baltazar Guelavila",
      "latitude": "16.79638000",
      "longitude": "-96.30542000"
    },
    {
      "id": 73396,
      "name": "San Baltazar Loxicha",
      "latitude": "16.07670000",
      "longitude": "-96.78740000"
    },
    {
      "id": 73397,
      "name": "San Baltazar Yatzachi el Bajo",
      "latitude": "17.22958000",
      "longitude": "-96.22046000"
    },
    {
      "id": 73400,
      "name": "San Bartolo",
      "latitude": "18.09222000",
      "longitude": "-96.10750000"
    },
    {
      "id": 73401,
      "name": "San Bartolo Coyotepec",
      "latitude": "16.94877000",
      "longitude": "-96.70977000"
    },
    {
      "id": 73402,
      "name": "San Bartolo Coyotespec",
      "latitude": "16.95837000",
      "longitude": "-96.70930000"
    },
    {
      "id": 73410,
      "name": "San Bartolo Yautepec",
      "latitude": "16.42935000",
      "longitude": "-95.97438000"
    },
    {
      "id": 73421,
      "name": "San Bartolomé Ayautla",
      "latitude": "18.03239000",
      "longitude": "-96.67078000"
    },
    {
      "id": 73425,
      "name": "San Bartolomé Loxícha",
      "latitude": "15.96981000",
      "longitude": "-96.70957000"
    },
    {
      "id": 73426,
      "name": "San Bartolomé Quialana",
      "latitude": "16.90302000",
      "longitude": "-96.50169000"
    },
    {
      "id": 73430,
      "name": "San Benito Encinal",
      "latitude": "17.98722000",
      "longitude": "-95.91056000"
    },
    {
      "id": 73441,
      "name": "San Bernardo Mixtepec",
      "latitude": "16.82579000",
      "longitude": "-96.89911000"
    },
    {
      "id": 73447,
      "name": "San Blas Atempa",
      "latitude": "16.33103000",
      "longitude": "-95.22559000"
    },
    {
      "id": 73463,
      "name": "San Carlos Yautepec",
      "latitude": "16.49699000",
      "longitude": "-96.10648000"
    },
    {
      "id": 73475,
      "name": "San Cristóbal Amatlán",
      "latitude": "16.31713000",
      "longitude": "-96.40785000"
    },
    {
      "id": 73476,
      "name": "San Cristóbal Amoltepec",
      "latitude": "17.28428000",
      "longitude": "-97.57216000"
    },
    {
      "id": 73479,
      "name": "San Cristóbal Honduras",
      "latitude": "16.32528000",
      "longitude": "-97.04111000"
    },
    {
      "id": 73480,
      "name": "San Cristóbal Lachirioag",
      "latitude": "17.33582000",
      "longitude": "-96.16503000"
    },
    {
      "id": 73504,
      "name": "San Dionisio del Mar",
      "latitude": "16.32371000",
      "longitude": "-94.75830000"
    },
    {
      "id": 73502,
      "name": "San Dionisio Ocotepec",
      "latitude": "16.80457000",
      "longitude": "-96.39334000"
    },
    {
      "id": 73503,
      "name": "San Dionisio Ocotlán",
      "latitude": "16.74704000",
      "longitude": "-96.68002000"
    },
    {
      "id": 73507,
      "name": "San Esteban Atatlahuca",
      "latitude": "17.06716000",
      "longitude": "-97.67836000"
    },
    {
      "id": 73514,
      "name": "San Felipe Cihualtepec",
      "latitude": "17.47763000",
      "longitude": "-95.36767000"
    },
    {
      "id": 73517,
      "name": "San Felipe Jalapa de Díaz",
      "latitude": "18.07120000",
      "longitude": "-96.53562000"
    },
    {
      "id": 73524,
      "name": "San Felipe Tejalápam",
      "latitude": "17.11134000",
      "longitude": "-96.85420000"
    },
    {
      "id": 73528,
      "name": "San Felipe Tílpam",
      "latitude": "18.18889000",
      "longitude": "-96.58639000"
    },
    {
      "id": 73529,
      "name": "San Felipe Usila",
      "latitude": "17.88790000",
      "longitude": "-96.52474000"
    },
    {
      "id": 73552,
      "name": "San Francisco Cajonos",
      "latitude": "17.18086000",
      "longitude": "-96.26465000"
    },
    {
      "id": 73556,
      "name": "San Francisco Chindúa",
      "latitude": "17.42809000",
      "longitude": "-97.31266000"
    },
    {
      "id": 73557,
      "name": "San Francisco Coatlán",
      "latitude": "16.18175000",
      "longitude": "-96.76099000"
    },
    {
      "id": 73558,
      "name": "San Francisco Cozoaltepec",
      "latitude": "15.81476000",
      "longitude": "-96.72396000"
    },
    {
      "id": 73617,
      "name": "San Francisco del Mar",
      "latitude": "16.33987000",
      "longitude": "-94.51529000"
    },
    {
      "id": 73618,
      "name": "San Francisco del Mar Viejo",
      "latitude": "16.23185000",
      "longitude": "-94.63297000"
    },
    {
      "id": 73565,
      "name": "San Francisco Huehuetlán",
      "latitude": "18.19725000",
      "longitude": "-96.94805000"
    },
    {
      "id": 73567,
      "name": "San Francisco Ixhuatan",
      "latitude": "16.35109000",
      "longitude": "-94.48402000"
    },
    {
      "id": 73570,
      "name": "San Francisco Jaltepetongo",
      "latitude": "17.38579000",
      "longitude": "-97.26481000"
    },
    {
      "id": 73572,
      "name": "San Francisco Javier",
      "latitude": "17.02861000",
      "longitude": "-96.77750000"
    },
    {
      "id": 73574,
      "name": "San Francisco Lachigoló",
      "latitude": "17.01624000",
      "longitude": "-96.59947000"
    },
    {
      "id": 73575,
      "name": "San Francisco Logueche",
      "latitude": "16.37576000",
      "longitude": "-96.37907000"
    },
    {
      "id": 73576,
      "name": "San Francisco Loxicha",
      "latitude": "15.90658000",
      "longitude": "-96.61295000"
    },
    {
      "id": 73581,
      "name": "San Francisco Nuxaño",
      "latitude": "17.38173000",
      "longitude": "-97.34262000"
    },
    {
      "id": 73585,
      "name": "San Francisco Ozolotepec",
      "latitude": "16.10079000",
      "longitude": "-96.22181000"
    },
    {
      "id": 73590,
      "name": "San Francisco Sola",
      "latitude": "16.51584000",
      "longitude": "-96.97488000"
    },
    {
      "id": 73593,
      "name": "San Francisco Telixtlahuaca",
      "latitude": "17.29684000",
      "longitude": "-96.90529000"
    },
    {
      "id": 73604,
      "name": "San Francisco Tutla",
      "latitude": "17.07092000",
      "longitude": "-96.66810000"
    },
    {
      "id": 73629,
      "name": "San Gabriel Mixtepec",
      "latitude": "16.09593000",
      "longitude": "-97.08237000"
    },
    {
      "id": 73660,
      "name": "San Ildefonso Amatlán",
      "latitude": "16.33390000",
      "longitude": "-96.49122000"
    },
    {
      "id": 73662,
      "name": "San Ildefonso Villa Alta",
      "latitude": "17.33827000",
      "longitude": "-96.15232000"
    },
    {
      "id": 73674,
      "name": "San Isidro Apango",
      "latitude": "15.80952000",
      "longitude": "-96.35856000"
    },
    {
      "id": 73681,
      "name": "San Isidro Monjas",
      "latitude": "17.00167000",
      "longitude": "-96.74861000"
    },
    {
      "id": 73695,
      "name": "San Jacinto Amilpas",
      "latitude": "17.10188000",
      "longitude": "-96.76228000"
    },
    {
      "id": 73708,
      "name": "San Jerónimo Coatlán",
      "latitude": "16.23211000",
      "longitude": "-96.87047000"
    },
    {
      "id": 73714,
      "name": "San Jerónimo Silacayoapilla",
      "latitude": "17.81021000",
      "longitude": "-97.84488000"
    },
    {
      "id": 73715,
      "name": "San Jerónimo Sosola",
      "latitude": "17.36685000",
      "longitude": "-97.03291000"
    },
    {
      "id": 73716,
      "name": "San Jerónimo Taviche",
      "latitude": "16.71468000",
      "longitude": "-96.59360000"
    },
    {
      "id": 73717,
      "name": "San Jerónimo Tecóatl",
      "latitude": "18.16633000",
      "longitude": "-96.91256000"
    },
    {
      "id": 73718,
      "name": "San Jerónimo Tlacochahuaya",
      "latitude": "17.00843000",
      "longitude": "-96.55522000"
    },
    {
      "id": 73722,
      "name": "San Jerónimo Yahuiche",
      "latitude": "17.10861000",
      "longitude": "-96.76972000"
    },
    {
      "id": 73731,
      "name": "San Jorge Nuchita",
      "latitude": "17.65921000",
      "longitude": "-98.10153000"
    },
    {
      "id": 73744,
      "name": "San José Ayuquila",
      "latitude": "17.94221000",
      "longitude": "-97.96861000"
    },
    {
      "id": 73754,
      "name": "San José Chacalapa",
      "latitude": "15.82957000",
      "longitude": "-96.46390000"
    },
    {
      "id": 73758,
      "name": "San José Chiltepec",
      "latitude": "17.94734000",
      "longitude": "-96.16957000"
    },
    {
      "id": 73832,
      "name": "San José de las Flores",
      "latitude": "17.35076000",
      "longitude": "-95.39837000"
    },
    {
      "id": 73839,
      "name": "San José del Progreso",
      "latitude": "16.69909000",
      "longitude": "-96.68148000"
    },
    {
      "id": 73764,
      "name": "San José Estancia Grande",
      "latitude": "16.36545000",
      "longitude": "-98.25092000"
    },
    {
      "id": 73853,
      "name": "San José la Garzona",
      "latitude": "16.68029000",
      "longitude": "-96.63853000"
    },
    {
      "id": 73772,
      "name": "San José Lachiguirí",
      "latitude": "16.37784000",
      "longitude": "-96.33589000"
    },
    {
      "id": 73780,
      "name": "San José Piedras Negras",
      "latitude": "15.83658000",
      "longitude": "-96.59151000"
    },
    {
      "id": 73782,
      "name": "San José Río Manzo",
      "latitude": "17.67003000",
      "longitude": "-95.88012000"
    },
    {
      "id": 73787,
      "name": "San José Tenango",
      "latitude": "18.15084000",
      "longitude": "-96.71744000"
    },
    {
      "id": 73861,
      "name": "San Juan Achiutla",
      "latitude": "17.35019000",
      "longitude": "-97.50804000"
    },
    {
      "id": 73866,
      "name": "San Juan Atepec",
      "latitude": "17.42819000",
      "longitude": "-96.53968000"
    },
    {
      "id": 73872,
      "name": "San Juan Bautista Jayacatlán",
      "latitude": "17.42458000",
      "longitude": "-96.82639000"
    },
    {
      "id": 73874,
      "name": "San Juan Bautista la Raya",
      "latitude": "16.98617000",
      "longitude": "-96.72472000"
    },
    {
      "id": 73873,
      "name": "San Juan Bautista Lo de Soto",
      "latitude": "16.51197000",
      "longitude": "-98.34772000"
    },
    {
      "id": 73876,
      "name": "San Juan Cabeza del Río",
      "latitude": "16.75285000",
      "longitude": "-97.88240000"
    },
    {
      "id": 73877,
      "name": "San Juan Cacahuatepec",
      "latitude": "16.61532000",
      "longitude": "-98.15501000"
    },
    {
      "id": 73878,
      "name": "San Juan Chilateca",
      "latitude": "16.83042000",
      "longitude": "-96.66915000"
    },
    {
      "id": 73880,
      "name": "San Juan Coatzospam",
      "latitude": "18.04998000",
      "longitude": "-96.76304000"
    },
    {
      "id": 73881,
      "name": "San Juan Colorado",
      "latitude": "16.46066000",
      "longitude": "-97.95431000"
    },
    {
      "id": 73884,
      "name": "San Juan Cotzocón",
      "latitude": "17.16373000",
      "longitude": "-95.78259000"
    },
    {
      "id": 73969,
      "name": "San Juan de los Cues",
      "latitude": "18.04654000",
      "longitude": "-97.06020000"
    },
    {
      "id": 73973,
      "name": "San Juan del Estado",
      "latitude": "17.27430000",
      "longitude": "-96.79912000"
    },
    {
      "id": 73977,
      "name": "San Juan del Río",
      "latitude": "17.49278000",
      "longitude": "-95.76028000"
    },
    {
      "id": 73890,
      "name": "San Juan Diuxi",
      "latitude": "17.28597000",
      "longitude": "-97.37005000"
    },
    {
      "id": 73894,
      "name": "San Juan Guelavía",
      "latitude": "16.95507000",
      "longitude": "-96.54359000"
    },
    {
      "id": 73895,
      "name": "San Juan Guichicovi",
      "latitude": "16.96231000",
      "longitude": "-95.09418000"
    },
    {
      "id": 73898,
      "name": "San Juan Ihualtepec",
      "latitude": "17.75656000",
      "longitude": "-98.28518000"
    },
    {
      "id": 73902,
      "name": "San Juan Jaltepec",
      "latitude": "17.35264000",
      "longitude": "-95.66263000"
    },
    {
      "id": 73904,
      "name": "San Juan Jicayán",
      "latitude": "16.47583000",
      "longitude": "-98.01250000"
    },
    {
      "id": 73905,
      "name": "San Juan Juquila",
      "latitude": "16.93585000",
      "longitude": "-95.91889000"
    },
    {
      "id": 73906,
      "name": "San Juan Juquila Vijanos",
      "latitude": "17.33734000",
      "longitude": "-96.27421000"
    },
    {
      "id": 73907,
      "name": "San Juan Lachao",
      "latitude": "16.15891000",
      "longitude": "-97.12449000"
    },
    {
      "id": 73986,
      "name": "San Juán Lachigalla",
      "latitude": "16.58947000",
      "longitude": "-96.55052000"
    },
    {
      "id": 73908,
      "name": "San Juan Lagunas",
      "latitude": "16.99748000",
      "longitude": "-97.93066000"
    },
    {
      "id": 73909,
      "name": "San Juan Mazatlán",
      "latitude": "17.02988000",
      "longitude": "-95.44606000"
    },
    {
      "id": 73910,
      "name": "San Juan Metaltepec",
      "latitude": "17.17563000",
      "longitude": "-95.91174000"
    },
    {
      "id": 73911,
      "name": "San Juan Mixtepec -Dto. 08 -",
      "latitude": "17.31676000",
      "longitude": "-97.86147000"
    },
    {
      "id": 73912,
      "name": "San Juan Mixtepec -Dto. 26 -",
      "latitude": "16.27667000",
      "longitude": "-96.29917000"
    },
    {
      "id": 73980,
      "name": "San Juan Ñumí",
      "latitude": "17.39734000",
      "longitude": "-97.70624000"
    },
    {
      "id": 73913,
      "name": "San Juan Ozolotepec",
      "latitude": "16.13320000",
      "longitude": "-96.25925000"
    },
    {
      "id": 73916,
      "name": "San Juan Petlapa",
      "latitude": "17.46916000",
      "longitude": "-96.03610000"
    },
    {
      "id": 73919,
      "name": "San Juan Quiahue",
      "latitude": "16.30220000",
      "longitude": "-97.31729000"
    },
    {
      "id": 73920,
      "name": "San Juan Quiotepec",
      "latitude": "17.60156000",
      "longitude": "-96.58731000"
    },
    {
      "id": 73922,
      "name": "San Juan Sautla",
      "latitude": "17.85800000",
      "longitude": "-96.67445000"
    },
    {
      "id": 73923,
      "name": "San Juan Sayultepec",
      "latitude": "17.44736000",
      "longitude": "-97.29375000"
    },
    {
      "id": 73926,
      "name": "San Juan Tabaá",
      "latitude": "17.30495000",
      "longitude": "-96.20718000"
    },
    {
      "id": 73929,
      "name": "San Juan Teitipac",
      "latitude": "16.92630000",
      "longitude": "-96.60954000"
    },
    {
      "id": 73934,
      "name": "San Juan Teposcolula",
      "latitude": "17.58142000",
      "longitude": "-97.41686000"
    },
    {
      "id": 73952,
      "name": "San Juan Yaee",
      "latitude": "17.43000000",
      "longitude": "-96.28355000"
    },
    {
      "id": 73954,
      "name": "San Juan Yatzona",
      "latitude": "17.40184000",
      "longitude": "-96.16878000"
    },
    {
      "id": 73956,
      "name": "San Juan Zapotitlán",
      "latitude": "17.80528000",
      "longitude": "-96.60639000"
    },
    {
      "id": 73988,
      "name": "San Lorenzo",
      "latitude": "16.39483000",
      "longitude": "-97.87403000"
    },
    {
      "id": 73997,
      "name": "San Lorenzo Albarradas",
      "latitude": "16.91129000",
      "longitude": "-96.25826000"
    },
    {
      "id": 73999,
      "name": "San Lorenzo Cacaotepec",
      "latitude": "17.12774000",
      "longitude": "-96.80244000"
    },
    {
      "id": 74002,
      "name": "San Lorenzo Cuaunecuiltitla",
      "latitude": "18.20694000",
      "longitude": "-96.91139000"
    },
    {
      "id": 74018,
      "name": "San Lorenzo Victoria",
      "latitude": "17.63190000",
      "longitude": "-98.12383000"
    },
    {
      "id": 74019,
      "name": "San Lorenzo Vista Hermosa",
      "latitude": "17.95888000",
      "longitude": "-98.06852000"
    },
    {
      "id": 74027,
      "name": "San Lucas Camotlán",
      "latitude": "16.94473000",
      "longitude": "-95.71382000"
    },
    {
      "id": 74031,
      "name": "San Lucas Ojitlán",
      "latitude": "18.05767000",
      "longitude": "-96.39825000"
    },
    {
      "id": 74033,
      "name": "San Lucas Quiavini",
      "latitude": "16.89555000",
      "longitude": "-96.46813000"
    },
    {
      "id": 74038,
      "name": "San Lucas Zoquiápam",
      "latitude": "18.13669000",
      "longitude": "-96.90545000"
    },
    {
      "id": 74045,
      "name": "San Luis Amatlán",
      "latitude": "16.38652000",
      "longitude": "-96.49824000"
    },
    {
      "id": 74062,
      "name": "San Marcial Ozolotepec",
      "latitude": "16.08903000",
      "longitude": "-96.40561000"
    },
    {
      "id": 74067,
      "name": "San Marcos Arteaga",
      "latitude": "17.72238000",
      "longitude": "-97.86034000"
    },
    {
      "id": 74078,
      "name": "San Marcos Zacatepec",
      "latitude": "16.14344000",
      "longitude": "-97.35725000"
    },
    {
      "id": 74114,
      "name": "San Martín de los Canseco",
      "latitude": "16.65655000",
      "longitude": "-96.72777000"
    },
    {
      "id": 74098,
      "name": "San Martín Itunyoso",
      "latitude": "17.22806000",
      "longitude": "-97.88083000"
    },
    {
      "id": 74099,
      "name": "San Martín Lachila",
      "latitude": "16.61186000",
      "longitude": "-96.84882000"
    },
    {
      "id": 74107,
      "name": "San Martín Tilcajete",
      "latitude": "16.86008000",
      "longitude": "-96.69490000"
    },
    {
      "id": 74121,
      "name": "San Mateo Cajonos",
      "latitude": "17.16147000",
      "longitude": "-96.20777000"
    },
    {
      "id": 74142,
      "name": "San Mateo del Mar",
      "latitude": "16.21054000",
      "longitude": "-94.98218000"
    },
    {
      "id": 74125,
      "name": "San Mateo Etlatongo",
      "latitude": "17.41609000",
      "longitude": "-97.27389000"
    },
    {
      "id": 74130,
      "name": "San Mateo Nejápam",
      "latitude": "17.65604000",
      "longitude": "-98.41662000"
    },
    {
      "id": 74134,
      "name": "San Mateo Piñas",
      "latitude": "16.00049000",
      "longitude": "-96.33449000"
    },
    {
      "id": 74135,
      "name": "San Mateo Sindihui",
      "latitude": "17.00456000",
      "longitude": "-97.35066000"
    },
    {
      "id": 74141,
      "name": "San Mateo Yoloxochitlán",
      "latitude": "18.14157000",
      "longitude": "-96.86417000"
    },
    {
      "id": 74148,
      "name": "San Melchor Betaza",
      "latitude": "17.25267000",
      "longitude": "-96.15284000"
    },
    {
      "id": 74153,
      "name": "San Miguel Abejones",
      "latitude": "17.43684000",
      "longitude": "-96.60866000"
    },
    {
      "id": 74154,
      "name": "San Miguel Achiutla",
      "latitude": "17.30900000",
      "longitude": "-97.48392000"
    },
    {
      "id": 74160,
      "name": "San Miguel Aloápam",
      "latitude": "17.41136000",
      "longitude": "-96.69154000"
    },
    {
      "id": 74171,
      "name": "San Miguel Chimalapa",
      "latitude": "16.71424000",
      "longitude": "-94.74811000"
    },
    {
      "id": 74173,
      "name": "San Miguel Coatlán",
      "latitude": "16.19701000",
      "longitude": "-96.69458000"
    },
    {
      "id": 74237,
      "name": "San Miguel del Puerto",
      "latitude": "15.92169000",
      "longitude": "-96.17499000"
    },
    {
      "id": 74238,
      "name": "San Miguel del Valle",
      "latitude": "17.02083000",
      "longitude": "-96.41727000"
    },
    {
      "id": 74175,
      "name": "San Miguel Ejutla",
      "latitude": "16.58053000",
      "longitude": "-96.73897000"
    },
    {
      "id": 74240,
      "name": "San Miguel el Grande",
      "latitude": "17.06466000",
      "longitude": "-97.61547000"
    },
    {
      "id": 74241,
      "name": "San Miguel el Grande Villa Juárez",
      "latitude": "17.04669000",
      "longitude": "-97.62160000"
    },
    {
      "id": 74180,
      "name": "San Miguel Figueroa",
      "latitude": "15.78639000",
      "longitude": "-96.40417000"
    },
    {
      "id": 74188,
      "name": "San Miguel Mixtepec",
      "latitude": "16.77719000",
      "longitude": "-96.95726000"
    },
    {
      "id": 74189,
      "name": "San Miguel Monteverde",
      "latitude": "17.53111000",
      "longitude": "-97.79250000"
    },
    {
      "id": 74193,
      "name": "San Miguel Panixtlahuaca",
      "latitude": "16.26012000",
      "longitude": "-97.37710000"
    },
    {
      "id": 74195,
      "name": "San Miguel Peras",
      "latitude": "16.93903000",
      "longitude": "-97.01119000"
    },
    {
      "id": 74196,
      "name": "San Miguel Quetzaltepec",
      "latitude": "16.97380000",
      "longitude": "-95.76045000"
    },
    {
      "id": 74197,
      "name": "San Miguel Suchixtepec",
      "latitude": "16.07765000",
      "longitude": "-96.46299000"
    },
    {
      "id": 74198,
      "name": "San Miguel Tecomatlán",
      "latitude": "17.39454000",
      "longitude": "-97.26845000"
    },
    {
      "id": 74203,
      "name": "San Miguel Tenango",
      "latitude": "16.26659000",
      "longitude": "-95.59532000"
    },
    {
      "id": 74207,
      "name": "San Miguel Tetepelcingo",
      "latitude": "16.39789000",
      "longitude": "-97.90127000"
    },
    {
      "id": 74210,
      "name": "San Miguel Tilquiapam",
      "latitude": "16.78218000",
      "longitude": "-96.58165000"
    },
    {
      "id": 74211,
      "name": "San Miguel Tlacamama",
      "latitude": "16.41547000",
      "longitude": "-98.06301000"
    },
    {
      "id": 74212,
      "name": "San Miguel Tlacotepec",
      "latitude": "17.45621000",
      "longitude": "-98.00547000"
    },
    {
      "id": 74251,
      "name": "San Nicolás",
      "latitude": "16.42010000",
      "longitude": "-96.74133000"
    },
    {
      "id": 74260,
      "name": "San Nicolás Quialana",
      "latitude": "16.84335000",
      "longitude": "-96.77892000"
    },
    {
      "id": 74286,
      "name": "San Pablo Coatlán",
      "latitude": "16.22429000",
      "longitude": "-96.78379000"
    },
    {
      "id": 74287,
      "name": "San Pablo Cuatro Venados",
      "latitude": "16.98120000",
      "longitude": "-96.89103000"
    },
    {
      "id": 74288,
      "name": "San Pablo Etla",
      "latitude": "17.14397000",
      "longitude": "-96.74812000"
    },
    {
      "id": 74289,
      "name": "San Pablo Güilá",
      "latitude": "16.80324000",
      "longitude": "-96.44025000"
    },
    {
      "id": 74292,
      "name": "San Pablo Huitzo",
      "latitude": "17.27708000",
      "longitude": "-96.88661000"
    },
    {
      "id": 74293,
      "name": "San Pablo Huixtepec",
      "latitude": "16.81948000",
      "longitude": "-96.78128000"
    },
    {
      "id": 74296,
      "name": "San Pablo Macuiltianguis",
      "latitude": "17.53348000",
      "longitude": "-96.55212000"
    },
    {
      "id": 74303,
      "name": "San Pablo Villa de Mitla",
      "latitude": "16.92283000",
      "longitude": "-96.35990000"
    },
    {
      "id": 74311,
      "name": "San Pedro Amuzgos",
      "latitude": "16.65388000",
      "longitude": "-98.09175000"
    },
    {
      "id": 74313,
      "name": "San Pedro Apóstol",
      "latitude": "16.73657000",
      "longitude": "-96.72509000"
    },
    {
      "id": 74319,
      "name": "San Pedro Atoyac",
      "latitude": "16.49005000",
      "longitude": "-97.98585000"
    },
    {
      "id": 74328,
      "name": "San Pedro Comitancillo",
      "latitude": "16.49134000",
      "longitude": "-95.15649000"
    },
    {
      "id": 74329,
      "name": "San Pedro Coxcaltepec Cántaros",
      "latitude": "17.49933000",
      "longitude": "-97.13802000"
    },
    {
      "id": 74415,
      "name": "San Pedro el Alto",
      "latitude": "16.01077000",
      "longitude": "-96.47591000"
    },
    {
      "id": 74338,
      "name": "San Pedro Huamelula",
      "latitude": "16.02697000",
      "longitude": "-95.66735000"
    },
    {
      "id": 74340,
      "name": "San Pedro Huilotepec",
      "latitude": "16.24607000",
      "longitude": "-95.15094000"
    },
    {
      "id": 74344,
      "name": "San Pedro Ixcatlán",
      "latitude": "18.14575000",
      "longitude": "-96.50953000"
    },
    {
      "id": 74345,
      "name": "San Pedro Ixtlahuaca",
      "latitude": "17.06360000",
      "longitude": "-96.81841000"
    },
    {
      "id": 74346,
      "name": "San Pedro Jicayán",
      "latitude": "16.45179000",
      "longitude": "-98.01425000"
    },
    {
      "id": 74347,
      "name": "San Pedro Juchaltengo",
      "latitude": "16.34530000",
      "longitude": "-97.08954000"
    },
    {
      "id": 74352,
      "name": "San Pedro Martir",
      "latitude": "16.74317000",
      "longitude": "-96.71118000"
    },
    {
      "id": 74359,
      "name": "San Pedro Mártir Quiechapa",
      "latitude": "16.41516000",
      "longitude": "-96.24451000"
    },
    {
      "id": 74360,
      "name": "San Pedro Mártir Yucuxaco",
      "latitude": "17.43245000",
      "longitude": "-97.61100000"
    },
    {
      "id": 74354,
      "name": "San Pedro Mixtepec",
      "latitude": "16.27060000",
      "longitude": "-96.28406000"
    },
    {
      "id": 74363,
      "name": "San Pedro Ocopetatillo",
      "latitude": "18.18638000",
      "longitude": "-96.91166000"
    },
    {
      "id": 74364,
      "name": "San Pedro Ocotepec",
      "latitude": "16.95501000",
      "longitude": "-95.84563000"
    },
    {
      "id": 74365,
      "name": "San Pedro Ozumacín",
      "latitude": "17.67861000",
      "longitude": "-96.22556000"
    },
    {
      "id": 74368,
      "name": "San Pedro Pochutla",
      "latitude": "15.74587000",
      "longitude": "-96.46601000"
    },
    {
      "id": 74369,
      "name": "San Pedro Quiatoni",
      "latitude": "16.78295000",
      "longitude": "-96.03085000"
    },
    {
      "id": 74371,
      "name": "San Pedro Sochiápam",
      "latitude": "17.82803000",
      "longitude": "-96.66274000"
    },
    {
      "id": 74372,
      "name": "San Pedro Tapanatepec",
      "latitude": "16.37107000",
      "longitude": "-94.19313000"
    },
    {
      "id": 74374,
      "name": "San Pedro Taviche",
      "latitude": "16.63858000",
      "longitude": "-96.53687000"
    },
    {
      "id": 74382,
      "name": "San Pedro Teutila",
      "latitude": "17.97773000",
      "longitude": "-96.70599000"
    },
    {
      "id": 74383,
      "name": "San Pedro Tidaá",
      "latitude": "17.34122000",
      "longitude": "-97.37239000"
    },
    {
      "id": 74391,
      "name": "San Pedro Topiltepec",
      "latitude": "17.43633000",
      "longitude": "-97.34403000"
    },
    {
      "id": 74393,
      "name": "San Pedro Totolápam",
      "latitude": "16.66915000",
      "longitude": "-96.30755000"
    },
    {
      "id": 74394,
      "name": "San Pedro Tulixtlahuaca",
      "latitude": "16.53972000",
      "longitude": "-98.03472000"
    },
    {
      "id": 74418,
      "name": "San Pedro y San Pablo Teposcolula",
      "latitude": "17.50179000",
      "longitude": "-97.48836000"
    },
    {
      "id": 74419,
      "name": "San Pedro y San Pablo Tequistepec",
      "latitude": "18.06106000",
      "longitude": "-97.71816000"
    },
    {
      "id": 74401,
      "name": "San Pedro Yólox",
      "latitude": "17.58907000",
      "longitude": "-96.55235000"
    },
    {
      "id": 74438,
      "name": "San Raymundo Jalpam",
      "latitude": "16.97164000",
      "longitude": "-96.75699000"
    },
    {
      "id": 74439,
      "name": "San Roque",
      "latitude": "15.78682000",
      "longitude": "-96.46342000"
    },
    {
      "id": 74458,
      "name": "San Sebastián Abasolo",
      "latitude": "16.99432000",
      "longitude": "-96.58701000"
    },
    {
      "id": 74462,
      "name": "San Sebastián Coatlán",
      "latitude": "16.20212000",
      "longitude": "-96.82645000"
    },
    {
      "id": 74479,
      "name": "San Sebastián del Monte",
      "latitude": "17.67778000",
      "longitude": "-98.02194000"
    },
    {
      "id": 74463,
      "name": "San Sebastián Etla",
      "latitude": "17.16437000",
      "longitude": "-96.78343000"
    },
    {
      "id": 74464,
      "name": "San Sebastián Ixcapa",
      "latitude": "16.54548000",
      "longitude": "-98.14478000"
    },
    {
      "id": 74465,
      "name": "San Sebastián Nicananduta",
      "latitude": "17.51657000",
      "longitude": "-97.68370000"
    },
    {
      "id": 74466,
      "name": "San Sebastián Nopalera",
      "latitude": "16.94310000",
      "longitude": "-97.77793000"
    },
    {
      "id": 74467,
      "name": "San Sebastián Río Hondo",
      "latitude": "16.18380000",
      "longitude": "-96.46535000"
    },
    {
      "id": 74468,
      "name": "San Sebastián Tecomaxtlahuaca",
      "latitude": "17.34721000",
      "longitude": "-98.03167000"
    },
    {
      "id": 74452,
      "name": "San Sebastian Teitipac",
      "latitude": "16.95192000",
      "longitude": "-96.61427000"
    },
    {
      "id": 74472,
      "name": "San Sebastián Tutla",
      "latitude": "17.04755000",
      "longitude": "-96.68158000"
    },
    {
      "id": 74484,
      "name": "San Simón Almolongas",
      "latitude": "16.40659000",
      "longitude": "-96.71927000"
    },
    {
      "id": 74498,
      "name": "San Vicente Coatlán",
      "latitude": "16.38852000",
      "longitude": "-96.84390000"
    },
    {
      "id": 74501,
      "name": "San Vicente Lachixío",
      "latitude": "16.70502000",
      "longitude": "-97.01864000"
    },
    {
      "id": 74502,
      "name": "San Vicente Nuñu",
      "latitude": "17.45648000",
      "longitude": "-97.44319000"
    },
    {
      "id": 74504,
      "name": "San Vicente Piñas",
      "latitude": "16.78527000",
      "longitude": "-98.06041000"
    },
    {
      "id": 74519,
      "name": "Santa Ana",
      "latitude": "17.05455000",
      "longitude": "-95.08509000"
    },
    {
      "id": 74556,
      "name": "Santa Ana del Valle",
      "latitude": "16.99488000",
      "longitude": "-96.47112000"
    },
    {
      "id": 74547,
      "name": "Santa Ana Tlapacoyan",
      "latitude": "16.74340000",
      "longitude": "-96.83688000"
    },
    {
      "id": 74550,
      "name": "Santa Ana Zegache",
      "latitude": "16.83706000",
      "longitude": "-96.72948000"
    },
    {
      "id": 74571,
      "name": "Santa Catalina Quierí",
      "latitude": "16.31972000",
      "longitude": "-96.26694000"
    },
    {
      "id": 74582,
      "name": "Santa Catarina Cuixtla",
      "latitude": "16.30616000",
      "longitude": "-96.64236000"
    },
    {
      "id": 74583,
      "name": "Santa Catarina Juquila",
      "latitude": "16.23819000",
      "longitude": "-97.29161000"
    },
    {
      "id": 74584,
      "name": "Santa Catarina Loxicha",
      "latitude": "16.06327000",
      "longitude": "-96.71942000"
    },
    {
      "id": 74585,
      "name": "Santa Catarina Mechoacán",
      "latitude": "16.33591000",
      "longitude": "-97.83707000"
    },
    {
      "id": 74586,
      "name": "Santa Catarina Minas",
      "latitude": "16.77969000",
      "longitude": "-96.61536000"
    },
    {
      "id": 74587,
      "name": "Santa Catarina Quiané",
      "latitude": "16.88255000",
      "longitude": "-96.74067000"
    },
    {
      "id": 74588,
      "name": "Santa Catarina Roatina",
      "latitude": "16.27917000",
      "longitude": "-96.51778000"
    },
    {
      "id": 74589,
      "name": "Santa Catarina Tayata",
      "latitude": "17.34715000",
      "longitude": "-97.55822000"
    },
    {
      "id": 74595,
      "name": "Santa Cecilia Jalieza",
      "latitude": "16.88383000",
      "longitude": "-96.61558000"
    },
    {
      "id": 74614,
      "name": "Santa Cruz Acatepec",
      "latitude": "18.16369000",
      "longitude": "-96.87503000"
    },
    {
      "id": 74616,
      "name": "Santa Cruz Amilpas",
      "latitude": "17.05833000",
      "longitude": "-96.68333000"
    },
    {
      "id": 74647,
      "name": "Santa Cruz de Bravo",
      "latitude": "17.58096000",
      "longitude": "-98.22378000"
    },
    {
      "id": 74649,
      "name": "Santa Cruz de Juárez",
      "latitude": "18.15045000",
      "longitude": "-96.83541000"
    },
    {
      "id": 74627,
      "name": "Santa Cruz Lachixolana",
      "latitude": "17.22784000",
      "longitude": "-96.85561000"
    },
    {
      "id": 74630,
      "name": "Santa Cruz Mixtepec",
      "latitude": "16.79283000",
      "longitude": "-96.88072000"
    },
    {
      "id": 74631,
      "name": "Santa Cruz Nundaco",
      "latitude": "17.17109000",
      "longitude": "-97.72382000"
    },
    {
      "id": 74633,
      "name": "Santa Cruz Ozolotepec",
      "latitude": "16.07041000",
      "longitude": "-96.30246000"
    },
    {
      "id": 74634,
      "name": "Santa Cruz Papalutla",
      "latitude": "16.95667000",
      "longitude": "-96.58444000"
    },
    {
      "id": 74639,
      "name": "Santa Cruz Tacache de Mina",
      "latitude": "17.82898000",
      "longitude": "-98.15297000"
    },
    {
      "id": 74640,
      "name": "Santa Cruz Tayata",
      "latitude": "17.35718000",
      "longitude": "-97.56843000"
    },
    {
      "id": 74644,
      "name": "Santa Cruz Xitla",
      "latitude": "16.32321000",
      "longitude": "-96.67369000"
    },
    {
      "id": 74645,
      "name": "Santa Cruz Xoxocotlán",
      "latitude": "17.02958000",
      "longitude": "-96.73518000"
    },
    {
      "id": 74661,
      "name": "Santa Fe y la Mar",
      "latitude": "17.76611000",
      "longitude": "-96.31611000"
    },
    {
      "id": 74666,
      "name": "Santa Gertrudis",
      "latitude": "16.78580000",
      "longitude": "-96.80024000"
    },
    {
      "id": 74670,
      "name": "Santa Inés de Zaragoza",
      "latitude": "17.26946000",
      "longitude": "-97.15120000"
    },
    {
      "id": 74671,
      "name": "Santa Inés del Monte",
      "latitude": "16.92387000",
      "longitude": "-96.86238000"
    },
    {
      "id": 74669,
      "name": "Santa Inés Yatzeche",
      "latitude": "16.80444000",
      "longitude": "-96.75486000"
    },
    {
      "id": 74685,
      "name": "Santa Lucía",
      "latitude": "16.18860000",
      "longitude": "-96.61404000"
    },
    {
      "id": 74691,
      "name": "Santa Lucía del Camino",
      "latitude": "17.06667000",
      "longitude": "-96.68069000"
    },
    {
      "id": 74688,
      "name": "Santa Lucía Ocotlán",
      "latitude": "16.72986000",
      "longitude": "-96.66514000"
    },
    {
      "id": 74690,
      "name": "Santa Lucía Teotepec",
      "latitude": "16.14256000",
      "longitude": "-97.20872000"
    },
    {
      "id": 74692,
      "name": "Santa Magdalena Jicotlán",
      "latitude": "17.80819000",
      "longitude": "-97.47389000"
    },
    {
      "id": 74693,
      "name": "Santa Margarita Huitepec",
      "latitude": "16.93817000",
      "longitude": "-95.66944000"
    },
    {
      "id": 74705,
      "name": "Santa María Acatepec",
      "latitude": "16.14841000",
      "longitude": "-97.51261000"
    },
    {
      "id": 74710,
      "name": "Santa María Alotepec",
      "latitude": "17.09259000",
      "longitude": "-95.85423000"
    },
    {
      "id": 74713,
      "name": "Santa María Apazco",
      "latitude": "17.62226000",
      "longitude": "-97.08524000"
    },
    {
      "id": 74719,
      "name": "Santa María Atzompa",
      "latitude": "17.09835000",
      "longitude": "-96.78495000"
    },
    {
      "id": 74722,
      "name": "Santa María Camotlán",
      "latitude": "17.89688000",
      "longitude": "-97.69200000"
    },
    {
      "id": 74724,
      "name": "Santa María Chachoápam",
      "latitude": "17.52570000",
      "longitude": "-97.28422000"
    },
    {
      "id": 74725,
      "name": "Santa María Chico Ometepec",
      "latitude": "16.17500000",
      "longitude": "-97.96670000"
    },
    {
      "id": 74726,
      "name": "Santa María Chilapa de Díaz",
      "latitude": "17.51667000",
      "longitude": "-97.68333000"
    },
    {
      "id": 74727,
      "name": "Santa María Chimalapa",
      "latitude": "16.90639000",
      "longitude": "-94.68333000"
    },
    {
      "id": 74730,
      "name": "Santa María Colotepec",
      "latitude": "15.89737000",
      "longitude": "-96.93951000"
    },
    {
      "id": 74731,
      "name": "Santa María Cortijo",
      "latitude": "16.45151000",
      "longitude": "-98.28549000"
    },
    {
      "id": 74732,
      "name": "Santa María Coyotepec",
      "latitude": "16.96663000",
      "longitude": "-96.70513000"
    },
    {
      "id": 74817,
      "name": "Santa María del Rosario",
      "latitude": "17.34848000",
      "longitude": "-97.60247000"
    },
    {
      "id": 74819,
      "name": "Santa María del Tule",
      "latitude": "17.04712000",
      "longitude": "-96.63573000"
    },
    {
      "id": 74734,
      "name": "Santa María Ecatepec",
      "latitude": "16.28498000",
      "longitude": "-95.87997000"
    },
    {
      "id": 74737,
      "name": "Santa María Guelacé",
      "latitude": "17.00151000",
      "longitude": "-96.60946000"
    },
    {
      "id": 74738,
      "name": "Santa María Guenagati",
      "latitude": "16.73862000",
      "longitude": "-95.35440000"
    },
    {
      "id": 74739,
      "name": "Santa María Huamelula",
      "latitude": "15.99245000",
      "longitude": "-95.70382000"
    },
    {
      "id": 74740,
      "name": "Santa María Huatulco",
      "latitude": "15.83267000",
      "longitude": "-96.32063000"
    },
    {
      "id": 74741,
      "name": "Santa María Huazolotitlán",
      "latitude": "16.30359000",
      "longitude": "-97.91293000"
    },
    {
      "id": 74746,
      "name": "Santa María Ipalapa",
      "latitude": "16.63944000",
      "longitude": "-98.03154000"
    },
    {
      "id": 74749,
      "name": "Santa María Jacatepec",
      "latitude": "17.86068000",
      "longitude": "-96.21174000"
    },
    {
      "id": 74751,
      "name": "Santa María Jalapa del Marqués",
      "latitude": "16.44027000",
      "longitude": "-95.44454000"
    },
    {
      "id": 74752,
      "name": "Santa María Jicaltepec",
      "latitude": "16.37917000",
      "longitude": "-98.04333000"
    },
    {
      "id": 74821,
      "name": "Santa María la Asunción",
      "latitude": "18.10722000",
      "longitude": "-96.81917000"
    },
    {
      "id": 74753,
      "name": "Santa María Lachixío",
      "latitude": "16.72694000",
      "longitude": "-97.01889000"
    },
    {
      "id": 74760,
      "name": "Santa María Mixtequilla",
      "latitude": "16.39111000",
      "longitude": "-95.27798000"
    },
    {
      "id": 74763,
      "name": "Santa María Nativitas",
      "latitude": "17.64714000",
      "longitude": "-97.32925000"
    },
    {
      "id": 74764,
      "name": "Santa María Nduayaco",
      "latitude": "17.40832000",
      "longitude": "-97.50586000"
    },
    {
      "id": 74771,
      "name": "Santa María Pápalo",
      "latitude": "17.78452000",
      "longitude": "-96.79727000"
    },
    {
      "id": 74768,
      "name": "Santa María Petapa",
      "latitude": "16.82060000",
      "longitude": "-95.11913000"
    },
    {
      "id": 74770,
      "name": "Santa María Puxmetacán",
      "latitude": "17.26861000",
      "longitude": "-95.62333000"
    },
    {
      "id": 74773,
      "name": "Santa María Quiegolani",
      "latitude": "16.28978000",
      "longitude": "-96.04156000"
    },
    {
      "id": 74775,
      "name": "Santa María Sola",
      "latitude": "16.56615000",
      "longitude": "-97.01297000"
    },
    {
      "id": 74779,
      "name": "Santa María Temaxcalapa",
      "latitude": "17.38036000",
      "longitude": "-96.16137000"
    },
    {
      "id": 74780,
      "name": "Santa María Temaxcaltepec",
      "latitude": "16.16552000",
      "longitude": "-97.19710000"
    },
    {
      "id": 74781,
      "name": "Santa María Teopoxco",
      "latitude": "18.16655000",
      "longitude": "-96.95488000"
    },
    {
      "id": 74782,
      "name": "Santa María Tepantlali",
      "latitude": "16.99663000",
      "longitude": "-96.00883000"
    },
    {
      "id": 74785,
      "name": "Santa María Tiltepec",
      "latitude": "16.06270000",
      "longitude": "-97.17036000"
    },
    {
      "id": 74786,
      "name": "Santa María Tlalixtac",
      "latitude": "17.93618000",
      "longitude": "-96.73402000"
    },
    {
      "id": 74788,
      "name": "Santa María Tonameca",
      "latitude": "15.74805000",
      "longitude": "-96.54704000"
    },
    {
      "id": 74791,
      "name": "Santa María Velato",
      "latitude": "16.50421000",
      "longitude": "-96.64514000"
    },
    {
      "id": 74792,
      "name": "Santa María Xadani",
      "latitude": "15.94825000",
      "longitude": "-96.07364000"
    },
    {
      "id": 74795,
      "name": "Santa María Yavesía",
      "latitude": "17.23531000",
      "longitude": "-96.43062000"
    },
    {
      "id": 74796,
      "name": "Santa María Yolotepec",
      "latitude": "16.88134000",
      "longitude": "-97.48014000"
    },
    {
      "id": 74797,
      "name": "Santa María Yucuhiti",
      "latitude": "17.01873000",
      "longitude": "-97.76951000"
    },
    {
      "id": 74798,
      "name": "Santa María Yucunicoco",
      "latitude": "17.23754000",
      "longitude": "-97.91698000"
    },
    {
      "id": 74799,
      "name": "Santa María Zacatepec",
      "latitude": "16.76369000",
      "longitude": "-97.99028000"
    },
    {
      "id": 74801,
      "name": "Santa María Zaniza",
      "latitude": "16.65531000",
      "longitude": "-97.33785000"
    },
    {
      "id": 74802,
      "name": "Santa María Zapotitlán",
      "latitude": "16.12781000",
      "longitude": "-95.85239000"
    },
    {
      "id": 74804,
      "name": "Santa María Zoquitlán",
      "latitude": "16.55886000",
      "longitude": "-96.35325000"
    },
    {
      "id": 74700,
      "name": "Santa Martha Chichihualtepec",
      "latitude": "16.64948000",
      "longitude": "-96.77451000"
    },
    {
      "id": 74835,
      "name": "Santa Rosa",
      "latitude": "16.31655000",
      "longitude": "-95.09944000"
    },
    {
      "id": 74842,
      "name": "Santa Rosa Caxtlahuaca",
      "latitude": "17.30306000",
      "longitude": "-98.01694000"
    },
    {
      "id": 74851,
      "name": "Santa Rosa de Lima",
      "latitude": "16.07111000",
      "longitude": "-97.62333000"
    },
    {
      "id": 74876,
      "name": "Santiago Amoltepec",
      "latitude": "16.64263000",
      "longitude": "-97.49674000"
    },
    {
      "id": 74878,
      "name": "Santiago Apostol",
      "latitude": "16.80381000",
      "longitude": "-96.72046000"
    },
    {
      "id": 74879,
      "name": "Santiago Astata",
      "latitude": "15.98775000",
      "longitude": "-95.67571000"
    },
    {
      "id": 74881,
      "name": "Santiago Ayuquililla",
      "latitude": "17.93310000",
      "longitude": "-97.95769000"
    },
    {
      "id": 74884,
      "name": "Santiago Cacaloxtepec",
      "latitude": "17.73444000",
      "longitude": "-97.74139000"
    },
    {
      "id": 74888,
      "name": "Santiago Chazumba",
      "latitude": "18.19012000",
      "longitude": "-97.67983000"
    },
    {
      "id": 74889,
      "name": "Santiago Chilixtlahuaca",
      "latitude": "17.90611000",
      "longitude": "-97.89528000"
    },
    {
      "id": 74891,
      "name": "Santiago Choápam",
      "latitude": "17.36084000",
      "longitude": "-95.92219000"
    },
    {
      "id": 74895,
      "name": "Santiago Comaltepec",
      "latitude": "17.56547000",
      "longitude": "-96.54873000"
    },
    {
      "id": 74899,
      "name": "Santiago Cuixtla",
      "latitude": "16.06196000",
      "longitude": "-97.18586000"
    },
    {
      "id": 74988,
      "name": "Santiago del Río",
      "latitude": "17.44838000",
      "longitude": "-98.09111000"
    },
    {
      "id": 74900,
      "name": "Santiago Etla",
      "latitude": "17.15250000",
      "longitude": "-96.78972000"
    },
    {
      "id": 74901,
      "name": "Santiago Huajolotitlán",
      "latitude": "17.82783000",
      "longitude": "-97.73266000"
    },
    {
      "id": 74902,
      "name": "Santiago Huauclilla",
      "latitude": "17.45179000",
      "longitude": "-97.07277000"
    },
    {
      "id": 74903,
      "name": "Santiago Huaxolotipac",
      "latitude": "16.97383000",
      "longitude": "-97.08610000"
    },
    {
      "id": 74905,
      "name": "Santiago Ihuitlán Plumas",
      "latitude": "17.88057000",
      "longitude": "-97.43215000"
    },
    {
      "id": 74906,
      "name": "Santiago Ixcuintepec",
      "latitude": "16.93540000",
      "longitude": "-95.62282000"
    },
    {
      "id": 74908,
      "name": "Santiago Ixtaltepec",
      "latitude": "16.68833000",
      "longitude": "-94.90583000"
    },
    {
      "id": 74909,
      "name": "Santiago Ixtayutla",
      "latitude": "16.56649000",
      "longitude": "-97.65285000"
    },
    {
      "id": 74911,
      "name": "Santiago Jicayán",
      "latitude": "16.47884000",
      "longitude": "-98.01018000"
    },
    {
      "id": 74912,
      "name": "Santiago Jocotepec",
      "latitude": "16.12837000",
      "longitude": "-97.43760000"
    },
    {
      "id": 74913,
      "name": "Santiago Juxtlahuaca",
      "latitude": "17.33462000",
      "longitude": "-98.01147000"
    },
    {
      "id": 74914,
      "name": "Santiago Lachiguiri",
      "latitude": "16.68706000",
      "longitude": "-95.53067000"
    },
    {
      "id": 74915,
      "name": "Santiago Lalopa",
      "latitude": "17.41786000",
      "longitude": "-96.24893000"
    },
    {
      "id": 74916,
      "name": "Santiago Laollaga",
      "latitude": "16.58418000",
      "longitude": "-95.20707000"
    },
    {
      "id": 74917,
      "name": "Santiago Laxopa",
      "latitude": "17.21842000",
      "longitude": "-96.31099000"
    },
    {
      "id": 74918,
      "name": "Santiago Llano Grande",
      "latitude": "16.48833000",
      "longitude": "-98.28972000"
    },
    {
      "id": 74919,
      "name": "Santiago Malacatepec",
      "latitude": "17.01639000",
      "longitude": "-95.60750000"
    },
    {
      "id": 74922,
      "name": "Santiago Matatlán",
      "latitude": "16.86470000",
      "longitude": "-96.38261000"
    },
    {
      "id": 74925,
      "name": "Santiago Miltepec",
      "latitude": "17.98461000",
      "longitude": "-97.69006000"
    },
    {
      "id": 74927,
      "name": "Santiago Nejapilla",
      "latitude": "17.41983000",
      "longitude": "-97.37411000"
    },
    {
      "id": 74928,
      "name": "Santiago Niltepec",
      "latitude": "16.52438000",
      "longitude": "-94.59337000"
    },
    {
      "id": 74929,
      "name": "Santiago Nundiche",
      "latitude": "17.34392000",
      "longitude": "-97.66988000"
    },
    {
      "id": 74931,
      "name": "Santiago Nuyoó",
      "latitude": "17.00937000",
      "longitude": "-97.75000000"
    },
    {
      "id": 74938,
      "name": "Santiago Quiavicuzas",
      "latitude": "16.86297000",
      "longitude": "-95.71616000"
    },
    {
      "id": 74940,
      "name": "Santiago Suchilquitongo",
      "latitude": "17.25316000",
      "longitude": "-96.87825000"
    },
    {
      "id": 74944,
      "name": "Santiago Tenango",
      "latitude": "17.32489000",
      "longitude": "-97.00467000"
    },
    {
      "id": 74948,
      "name": "Santiago Tepextla",
      "latitude": "16.34065000",
      "longitude": "-98.44684000"
    },
    {
      "id": 74951,
      "name": "Santiago Tetepec",
      "latitude": "16.32172000",
      "longitude": "-97.74794000"
    },
    {
      "id": 74952,
      "name": "Santiago Texcalcingo",
      "latitude": "18.21438000",
      "longitude": "-96.97358000"
    },
    {
      "id": 74953,
      "name": "Santiago Textitlán",
      "latitude": "16.69264000",
      "longitude": "-97.25884000"
    },
    {
      "id": 74957,
      "name": "Santiago Tilantongo",
      "latitude": "17.28464000",
      "longitude": "-97.33879000"
    },
    {
      "id": 74959,
      "name": "Santiago Tillo",
      "latitude": "17.46497000",
      "longitude": "-97.32040000"
    },
    {
      "id": 74971,
      "name": "Santiago Xanica",
      "latitude": "16.01009000",
      "longitude": "-96.22462000"
    },
    {
      "id": 74972,
      "name": "Santiago Yaitepec",
      "latitude": "16.22628000",
      "longitude": "-97.26953000"
    },
    {
      "id": 74976,
      "name": "Santiago Yogana",
      "latitude": "16.46130000",
      "longitude": "-96.78786000"
    },
    {
      "id": 74977,
      "name": "Santiago Yolomécatl",
      "latitude": "17.47237000",
      "longitude": "-97.56981000"
    },
    {
      "id": 74978,
      "name": "Santiago Yosondúa",
      "latitude": "16.87601000",
      "longitude": "-97.57607000"
    },
    {
      "id": 74979,
      "name": "Santiago Zacatepec",
      "latitude": "17.16005000",
      "longitude": "-95.91455000"
    },
    {
      "id": 74981,
      "name": "Santiago Zoochila",
      "latitude": "17.22000000",
      "longitude": "-96.24167000"
    },
    {
      "id": 74996,
      "name": "Santo Domingo Albarradas",
      "latitude": "17.07257000",
      "longitude": "-96.19076000"
    },
    {
      "id": 74997,
      "name": "Santo Domingo Armenta",
      "latitude": "16.33194000",
      "longitude": "-98.37778000"
    },
    {
      "id": 75000,
      "name": "Santo Domingo Chihuitán",
      "latitude": "16.59135000",
      "longitude": "-95.16331000"
    },
    {
      "id": 75018,
      "name": "Santo Domingo de Morelos",
      "latitude": "15.83397000",
      "longitude": "-96.66695000"
    },
    {
      "id": 75002,
      "name": "Santo Domingo Jalieza",
      "latitude": "16.86848000",
      "longitude": "-96.62919000"
    },
    {
      "id": 75005,
      "name": "Santo Domingo Ozolotepec",
      "latitude": "16.17103000",
      "longitude": "-96.32044000"
    },
    {
      "id": 75006,
      "name": "Santo Domingo Petapa",
      "latitude": "16.81869000",
      "longitude": "-95.14072000"
    },
    {
      "id": 75007,
      "name": "Santo Domingo Roayaga",
      "latitude": "17.33782000",
      "longitude": "-96.11506000"
    },
    {
      "id": 75009,
      "name": "Santo Domingo Tehuantepec",
      "latitude": "16.32463000",
      "longitude": "-95.24104000"
    },
    {
      "id": 75010,
      "name": "Santo Domingo Tepuxtepec",
      "latitude": "16.95584000",
      "longitude": "-96.05823000"
    },
    {
      "id": 75011,
      "name": "Santo Domingo Tlatayapam",
      "latitude": "17.40778000",
      "longitude": "-97.34581000"
    },
    {
      "id": 75012,
      "name": "Santo Domingo Tomaltepec",
      "latitude": "17.06117000",
      "longitude": "-96.62280000"
    },
    {
      "id": 75013,
      "name": "Santo Domingo Tonalá",
      "latitude": "17.67352000",
      "longitude": "-97.96556000"
    },
    {
      "id": 75014,
      "name": "Santo Domingo Yanhuitlán",
      "latitude": "17.53283000",
      "longitude": "-97.35332000"
    },
    {
      "id": 75015,
      "name": "Santo Domingo Yodohino",
      "latitude": "17.61694000",
      "longitude": "-97.68289000"
    },
    {
      "id": 75016,
      "name": "Santo Domingo Zanatepec",
      "latitude": "16.48307000",
      "longitude": "-94.34754000"
    },
    {
      "id": 75024,
      "name": "Santo Tomás",
      "latitude": "18.04194000",
      "longitude": "-96.51389000"
    },
    {
      "id": 75029,
      "name": "Santo Tomás Jalieza",
      "latitude": "16.84469000",
      "longitude": "-96.67063000"
    },
    {
      "id": 75030,
      "name": "Santo Tomás Mazaltepec",
      "latitude": "17.17222000",
      "longitude": "-96.87083000"
    },
    {
      "id": 75031,
      "name": "Santo Tomás Ocotepec",
      "latitude": "17.12204000",
      "longitude": "-97.77344000"
    },
    {
      "id": 75032,
      "name": "Santo Tomás Tamazulapam",
      "latitude": "16.27064000",
      "longitude": "-96.58193000"
    },
    {
      "id": 75035,
      "name": "Santos Reyes Nopala",
      "latitude": "16.10694000",
      "longitude": "-97.14435000"
    },
    {
      "id": 75036,
      "name": "Santos Reyes Pápalo",
      "latitude": "17.80532000",
      "longitude": "-96.86157000"
    },
    {
      "id": 75037,
      "name": "Santos Reyes Tepejillo",
      "latitude": "17.43782000",
      "longitude": "-97.93845000"
    },
    {
      "id": 75038,
      "name": "Santos Reyes Yucuná",
      "latitude": "17.77400000",
      "longitude": "-98.00172000"
    },
    {
      "id": 75054,
      "name": "Sector H Tres",
      "latitude": "15.76611000",
      "longitude": "-96.14694000"
    },
    {
      "id": 75078,
      "name": "Silacayoápam",
      "latitude": "17.50297000",
      "longitude": "-98.13966000"
    },
    {
      "id": 75102,
      "name": "Sitio de Xitlapehua",
      "latitude": "16.35139000",
      "longitude": "-96.53215000"
    },
    {
      "id": 75112,
      "name": "Soledad Etla",
      "latitude": "17.16556000",
      "longitude": "-96.82212000"
    },
    {
      "id": 75115,
      "name": "Soledad Salinas",
      "latitude": "16.66229000",
      "longitude": "-96.00266000"
    },
    {
      "id": 75177,
      "name": "Tamazola",
      "latitude": "17.67020000",
      "longitude": "-98.22084000"
    },
    {
      "id": 75183,
      "name": "Tamazulápam del Espíritu Santo",
      "latitude": "17.05500000",
      "longitude": "-96.06528000"
    },
    {
      "id": 75182,
      "name": "Tamazulapam Villa del Progreso",
      "latitude": "17.67710000",
      "longitude": "-97.57315000"
    },
    {
      "id": 75207,
      "name": "Tanetze de Zaragoza",
      "latitude": "17.37616000",
      "longitude": "-96.30111000"
    },
    {
      "id": 75213,
      "name": "Taniche",
      "latitude": "16.56860000",
      "longitude": "-96.75514000"
    },
    {
      "id": 75224,
      "name": "Tapanalá",
      "latitude": "15.96659000",
      "longitude": "-95.72476000"
    },
    {
      "id": 75238,
      "name": "Tatahuicapá",
      "latitude": "17.55113000",
      "longitude": "-95.64088000"
    },
    {
      "id": 75239,
      "name": "Tataltepec de Valdés",
      "latitude": "16.30549000",
      "longitude": "-97.54615000"
    },
    {
      "id": 75283,
      "name": "Tecomavaca",
      "latitude": "17.95577000",
      "longitude": "-97.02263000"
    },
    {
      "id": 75329,
      "name": "Temascal",
      "latitude": "18.24285000",
      "longitude": "-96.40165000"
    },
    {
      "id": 75374,
      "name": "Teococuilco de Marcos Pérez",
      "latitude": "17.35270000",
      "longitude": "-96.61528000"
    },
    {
      "id": 75376,
      "name": "Teojomulco",
      "latitude": "16.59032000",
      "longitude": "-97.22493000"
    },
    {
      "id": 75384,
      "name": "Teotitlán",
      "latitude": "18.13179000",
      "longitude": "-97.07056000"
    },
    {
      "id": 75385,
      "name": "Teotitlán del Valle",
      "latitude": "17.02975000",
      "longitude": "-96.51926000"
    },
    {
      "id": 75412,
      "name": "Tepenixtlahuaca",
      "latitude": "16.29236000",
      "longitude": "-97.49184000"
    },
    {
      "id": 75427,
      "name": "Tepetlapa",
      "latitude": "17.66601000",
      "longitude": "-98.39188000"
    },
    {
      "id": 75477,
      "name": "Tetela",
      "latitude": "18.50887000",
      "longitude": "-96.45880000"
    },
    {
      "id": 75514,
      "name": "Texcatitlán",
      "latitude": "17.71259000",
      "longitude": "-97.06625000"
    },
    {
      "id": 75519,
      "name": "Texmelucan",
      "latitude": "16.58510000",
      "longitude": "-97.19907000"
    },
    {
      "id": 75526,
      "name": "Tezoatlán de Segura y Luna",
      "latitude": "17.65388000",
      "longitude": "-97.81068000"
    },
    {
      "id": 75601,
      "name": "Tlachichilco",
      "latitude": "17.62220000",
      "longitude": "-98.34312000"
    },
    {
      "id": 75605,
      "name": "Tlacoatzintepec",
      "latitude": "17.85985000",
      "longitude": "-96.58647000"
    },
    {
      "id": 75609,
      "name": "Tlacolula de Matamoros",
      "latitude": "16.95471000",
      "longitude": "-96.47590000"
    },
    {
      "id": 75633,
      "name": "Tlahuitoltepec",
      "latitude": "17.09746000",
      "longitude": "-96.06279000"
    },
    {
      "id": 75640,
      "name": "Tlalixtac de Cabrera",
      "latitude": "17.07112000",
      "longitude": "-96.64710000"
    },
    {
      "id": 75757,
      "name": "Totontepec Villa de Morelos",
      "latitude": "17.25679000",
      "longitude": "-96.02786000"
    },
    {
      "id": 75760,
      "name": "Toxpalan",
      "latitude": "18.10125000",
      "longitude": "-97.05869000"
    },
    {
      "id": 75783,
      "name": "Trinidad de Viguera",
      "latitude": "17.13059000",
      "longitude": "-96.75025000"
    },
    {
      "id": 75782,
      "name": "Trinidad Zaachila",
      "latitude": "16.92135000",
      "longitude": "-96.76384000"
    },
    {
      "id": 75823,
      "name": "Tuxtepec",
      "latitude": "18.08830000",
      "longitude": "-96.12535000"
    },
    {
      "id": 75884,
      "name": "Unión Hidalgo",
      "latitude": "16.47230000",
      "longitude": "-94.82952000"
    },
    {
      "id": 75906,
      "name": "Valdeflores",
      "latitude": "16.76588000",
      "longitude": "-96.82435000"
    },
    {
      "id": 75911,
      "name": "Valerio Trujano",
      "latitude": "17.78130000",
      "longitude": "-96.97852000"
    },
    {
      "id": 75917,
      "name": "Valle Nacional",
      "latitude": "17.77579000",
      "longitude": "-96.30174000"
    },
    {
      "id": 75941,
      "name": "Vega del Sol",
      "latitude": "17.80972000",
      "longitude": "-96.21694000"
    },
    {
      "id": 75970,
      "name": "Vicente Camalote",
      "latitude": "18.51443000",
      "longitude": "-96.52915000"
    },
    {
      "id": 75978,
      "name": "Vicente Guerrero",
      "latitude": "16.93306000",
      "longitude": "-96.70139000"
    },
    {
      "id": 75994,
      "name": "Villa Chalcatongo de Hidalgo",
      "latitude": "17.03247000",
      "longitude": "-97.57057000"
    },
    {
      "id": 76064,
      "name": "Villa de Etla",
      "latitude": "17.20615000",
      "longitude": "-96.79890000"
    },
    {
      "id": 76068,
      "name": "Villa de Tamazulápam del Progreso",
      "latitude": "17.69300000",
      "longitude": "-97.57366000"
    },
    {
      "id": 76069,
      "name": "Villa de Tututepec de Melchor Ocampo",
      "latitude": "16.04794000",
      "longitude": "-97.53109000"
    },
    {
      "id": 76070,
      "name": "Villa de Zaachila",
      "latitude": "16.95098000",
      "longitude": "-96.74938000"
    },
    {
      "id": 75999,
      "name": "Villa Díaz Ordaz",
      "latitude": "16.99578000",
      "longitude": "-96.43231000"
    },
    {
      "id": 76009,
      "name": "Villa Hidalgo",
      "latitude": "17.18409000",
      "longitude": "-96.17831000"
    },
    {
      "id": 76044,
      "name": "Villa Sola de Vega",
      "latitude": "16.51844000",
      "longitude": "-96.97810000"
    },
    {
      "id": 76045,
      "name": "Villa Talea de Castro",
      "latitude": "17.36489000",
      "longitude": "-96.24722000"
    },
    {
      "id": 76047,
      "name": "Villa Tejúpam de la Unión",
      "latitude": "17.66250000",
      "longitude": "-97.47083000"
    },
    {
      "id": 76095,
      "name": "Vista Hermosa",
      "latitude": "17.79639000",
      "longitude": "-97.75694000"
    },
    {
      "id": 76109,
      "name": "Xaaga",
      "latitude": "16.90420000",
      "longitude": "-96.32779000"
    },
    {
      "id": 76111,
      "name": "Xagacía",
      "latitude": "17.15436000",
      "longitude": "-96.26753000"
    },
    {
      "id": 76181,
      "name": "Xochitonalco",
      "latitude": "18.09443000",
      "longitude": "-96.84848000"
    },
    {
      "id": 76208,
      "name": "Yaganiza",
      "latitude": "17.14495000",
      "longitude": "-96.22960000"
    },
    {
      "id": 76212,
      "name": "Yalina",
      "latitude": "17.23969000",
      "longitude": "-96.26233000"
    },
    {
      "id": 76219,
      "name": "Yatzachi",
      "latitude": "17.22588000",
      "longitude": "-96.22137000"
    },
    {
      "id": 76225,
      "name": "Yaxe",
      "latitude": "16.72595000",
      "longitude": "-96.47191000"
    },
    {
      "id": 76235,
      "name": "Yetla de Juárez",
      "latitude": "17.66559000",
      "longitude": "-97.99124000"
    },
    {
      "id": 76247,
      "name": "Yucuita",
      "latitude": "17.51073000",
      "longitude": "-97.26965000"
    },
    {
      "id": 76251,
      "name": "Yutanduchi de Guerrero",
      "latitude": "17.04020000",
      "longitude": "-97.29795000"
    },
    {
      "id": 76269,
      "name": "Zacatal",
      "latitude": "16.93982000",
      "longitude": "-95.20312000"
    },
    {
      "id": 76308,
      "name": "Zapotitlán Lagunas",
      "latitude": "17.75621000",
      "longitude": "-98.38958000"
    },
    {
      "id": 76309,
      "name": "Zapotitlán Palmas",
      "latitude": "17.88965000",
      "longitude": "-97.81849000"
    },
    {
      "id": 76316,
      "name": "Zaragoza",
      "latitude": "16.66923000",
      "longitude": "-97.79322000"
    },
    {
      "id": 76324,
      "name": "Zarzal",
      "latitude": "17.01419000",
      "longitude": "-95.03738000"
    },
    {
      "id": 76338,
      "name": "Zimatlán de Álvarez",
      "latitude": "16.86939000",
      "longitude": "-96.78435000"
    },
    {
      "id": 76357,
      "name": "Zocoteaca de León",
      "latitude": "16.63818000",
      "longitude": "-98.00276000"
    },
    {
      "id": 76360,
      "name": "Zona Urbana Ejidal",
      "latitude": "18.53250000",
      "longitude": "-96.58917000"
    }
  ],
  "country": {
    "id": 142,
    "name": "Mexico",
    "iso3": "MEX",
    "iso2": "MX",
    "numeric_code": "484",
    "phone_code": "52",
    "capital": "Ciudad de México",
    "currency": "MXN",
    "currency_name": "Mexican peso",
    "currency_symbol": "$",
    "tld": ".mx",
    "native": "México",
    "region": "Americas",
    "subregion": "Central America",
    "timezones": [
      {
        "zoneName": "America/Bahia_Banderas",
        "gmtOffset": -21600,
        "gmtOffsetName": "UTC-06:00",
        "abbreviation": "CST",
        "tzName": "Central Standard Time (North America"
      },
      {
        "zoneName": "America/Cancun",
        "gmtOffset": -18000,
        "gmtOffsetName": "UTC-05:00",
        "abbreviation": "EST",
        "tzName": "Eastern Standard Time (North America"
      },
      {
        "zoneName": "America/Chihuahua",
        "gmtOffset": -25200,
        "gmtOffsetName": "UTC-07:00",
        "abbreviation": "MST",
        "tzName": "Mountain Standard Time (North America"
      },
      {
        "zoneName": "America/Hermosillo",
        "gmtOffset": -25200,
        "gmtOffsetName": "UTC-07:00",
        "abbreviation": "MST",
        "tzName": "Mountain Standard Time (North America"
      },
      {
        "zoneName": "America/Matamoros",
        "gmtOffset": -21600,
        "gmtOffsetName": "UTC-06:00",
        "abbreviation": "CST",
        "tzName": "Central Standard Time (North America"
      },
      {
        "zoneName": "America/Mazatlan",
        "gmtOffset": -25200,
        "gmtOffsetName": "UTC-07:00",
        "abbreviation": "MST",
        "tzName": "Mountain Standard Time (North America"
      },
      {
        "zoneName": "America/Merida",
        "gmtOffset": -21600,
        "gmtOffsetName": "UTC-06:00",
        "abbreviation": "CST",
        "tzName": "Central Standard Time (North America"
      },
      {
        "zoneName": "America/Mexico_City",
        "gmtOffset": -21600,
        "gmtOffsetName": "UTC-06:00",
        "abbreviation": "CST",
        "tzName": "Central Standard Time (North America"
      },
      {
        "zoneName": "America/Monterrey",
        "gmtOffset": -21600,
        "gmtOffsetName": "UTC-06:00",
        "abbreviation": "CST",
        "tzName": "Central Standard Time (North America"
      },
      {
        "zoneName": "America/Ojinaga",
        "gmtOffset": -25200,
        "gmtOffsetName": "UTC-07:00",
        "abbreviation": "MST",
        "tzName": "Mountain Standard Time (North America"
      },
      {
        "zoneName": "America/Tijuana",
        "gmtOffset": -28800,
        "gmtOffsetName": "UTC-08:00",
        "abbreviation": "PST",
        "tzName": "Pacific Standard Time (North America"
      }
    ],
    "translations": {
      "kr": "멕시코",
      "pt-BR": "México",
      "pt": "México",
      "nl": "Mexico",
      "hr": "Meksiko",
      "fa": "مکزیک",
      "de": "Mexiko",
      "es": "México",
      "fr": "Mexique",
      "ja": "メキシコ",
      "it": "Messico",
      "cn": "墨西哥",
      "tr": "Meksika"
    },
    "latitude": "23.00000000",
    "longitude": "-102.00000000",
    "emoji": "🇲🇽",
    "emojiU": "U+1F1F2 U+1F1FD"
  }
}