{
  "id": 4820,
  "name": "Grand-Est",
  "state_code": "GES",
  "latitude": "48.69980300",
  "longitude": "6.18780740",
  "type": "metropolitan region",
  "cities": [
    {
      "id": 39245,
      "name": "Abreschviller",
      "latitude": "48.63698000",
      "longitude": "7.09607000"
    },
    {
      "id": 39249,
      "name": "Achenheim",
      "latitude": "48.58070000",
      "longitude": "7.62803000"
    },
    {
      "id": 39269,
      "name": "Aiglemont",
      "latitude": "49.78031000",
      "longitude": "4.76483000"
    },
    {
      "id": 39293,
      "name": "Aix-en-Othe",
      "latitude": "48.22391000",
      "longitude": "3.73425000"
    },
    {
      "id": 39312,
      "name": "Algolsheim",
      "latitude": "48.00629000",
      "longitude": "7.55945000"
    },
    {
      "id": 39313,
      "name": "Algrange",
      "latitude": "49.36276000",
      "longitude": "6.05094000"
    },
    {
      "id": 39336,
      "name": "Alsting",
      "latitude": "49.18175000",
      "longitude": "6.99255000"
    },
    {
      "id": 39338,
      "name": "Altkirch",
      "latitude": "47.62417000",
      "longitude": "7.23954000"
    },
    {
      "id": 39339,
      "name": "Altorf",
      "latitude": "48.52166000",
      "longitude": "7.52787000"
    },
    {
      "id": 39346,
      "name": "Amanvillers",
      "latitude": "49.16784000",
      "longitude": "6.04367000"
    },
    {
      "id": 39366,
      "name": "Ammerschwihr",
      "latitude": "48.12548000",
      "longitude": "7.28282000"
    },
    {
      "id": 39367,
      "name": "Amnéville",
      "latitude": "49.25671000",
      "longitude": "6.13414000"
    },
    {
      "id": 39372,
      "name": "Ancerville",
      "latitude": "48.63574000",
      "longitude": "5.02091000"
    },
    {
      "id": 39374,
      "name": "Ancy-sur-Moselle",
      "latitude": "49.05689000",
      "longitude": "6.05775000"
    },
    {
      "id": 39384,
      "name": "Andlau",
      "latitude": "48.38607000",
      "longitude": "7.41697000"
    },
    {
      "id": 39385,
      "name": "Andolsheim",
      "latitude": "48.06179000",
      "longitude": "7.41637000"
    },
    {
      "id": 39400,
      "name": "Angevillers",
      "latitude": "49.38815000",
      "longitude": "6.04430000"
    },
    {
      "id": 39426,
      "name": "Anould",
      "latitude": "48.18526000",
      "longitude": "6.94597000"
    },
    {
      "id": 39461,
      "name": "Arches",
      "latitude": "48.11856000",
      "longitude": "6.52806000"
    },
    {
      "id": 39462,
      "name": "Archettes",
      "latitude": "48.12320000",
      "longitude": "6.53723000"
    },
    {
      "id": 39464,
      "name": "Arcis-sur-Aube",
      "latitude": "48.53387000",
      "longitude": "4.14085000"
    },
    {
      "id": 39466,
      "name": "Ardennes",
      "latitude": "49.63202000",
      "longitude": "4.65369000"
    },
    {
      "id": 39473,
      "name": "Argancy",
      "latitude": "49.19543000",
      "longitude": "6.20157000"
    },
    {
      "id": 39515,
      "name": "Ars-sur-Moselle",
      "latitude": "49.07791000",
      "longitude": "6.07420000"
    },
    {
      "id": 39517,
      "name": "Art-sur-Meurthe",
      "latitude": "48.65750000",
      "longitude": "6.26708000"
    },
    {
      "id": 39545,
      "name": "Aspach",
      "latitude": "47.64234000",
      "longitude": "7.23353000"
    },
    {
      "id": 39546,
      "name": "Aspach-le-Bas",
      "latitude": "47.76135000",
      "longitude": "7.15104000"
    },
    {
      "id": 39547,
      "name": "Aspach-le-Haut",
      "latitude": "47.77653000",
      "longitude": "7.13145000"
    },
    {
      "id": 39564,
      "name": "Attigny",
      "latitude": "49.47846000",
      "longitude": "4.57803000"
    },
    {
      "id": 39587,
      "name": "Auboué",
      "latitude": "49.21198000",
      "longitude": "5.97663000"
    },
    {
      "id": 39600,
      "name": "Audun-le-Roman",
      "latitude": "49.36977000",
      "longitude": "5.89545000"
    },
    {
      "id": 39601,
      "name": "Audun-le-Tiche",
      "latitude": "49.47217000",
      "longitude": "5.95550000"
    },
    {
      "id": 39605,
      "name": "Augny",
      "latitude": "49.06110000",
      "longitude": "6.11820000"
    },
    {
      "id": 39616,
      "name": "Aumetz",
      "latitude": "49.41787000",
      "longitude": "5.94418000"
    },
    {
      "id": 39674,
      "name": "Avize",
      "latitude": "48.97352000",
      "longitude": "4.01438000"
    },
    {
      "id": 39683,
      "name": "Ay",
      "latitude": "49.05457000",
      "longitude": "4.00343000"
    },
    {
      "id": 39684,
      "name": "Ay-sur-Moselle",
      "latitude": "49.24326000",
      "longitude": "6.20627000"
    },
    {
      "id": 39686,
      "name": "Aydoilles",
      "latitude": "48.21026000",
      "longitude": "6.57389000"
    },
    {
      "id": 39699,
      "name": "Baccarat",
      "latitude": "48.44984000",
      "longitude": "6.73946000"
    },
    {
      "id": 39704,
      "name": "Badonviller",
      "latitude": "48.50116000",
      "longitude": "6.89218000"
    },
    {
      "id": 39735,
      "name": "Bains-les-Bains",
      "latitude": "48.00113000",
      "longitude": "6.26492000"
    },
    {
      "id": 39737,
      "name": "Bainville-sur-Madon",
      "latitude": "48.58725000",
      "longitude": "6.09580000"
    },
    {
      "id": 39743,
      "name": "Balan",
      "latitude": "49.68881000",
      "longitude": "4.96478000"
    },
    {
      "id": 39749,
      "name": "Baldersheim",
      "latitude": "47.80136000",
      "longitude": "7.38078000"
    },
    {
      "id": 39758,
      "name": "Ban-de-Laveline",
      "latitude": "48.24498000",
      "longitude": "7.06593000"
    },
    {
      "id": 39761,
      "name": "Bantzenheim",
      "latitude": "47.82452000",
      "longitude": "7.51445000"
    },
    {
      "id": 39765,
      "name": "Bar-le-Duc",
      "latitude": "48.77275000",
      "longitude": "5.16108000"
    },
    {
      "id": 39766,
      "name": "Bar-sur-Aube",
      "latitude": "48.23315000",
      "longitude": "4.70640000"
    },
    {
      "id": 39767,
      "name": "Bar-sur-Seine",
      "latitude": "48.11295000",
      "longitude": "4.37656000"
    },
    {
      "id": 39790,
      "name": "Barr",
      "latitude": "48.40755000",
      "longitude": "7.44873000"
    },
    {
      "id": 39794,
      "name": "Bartenheim",
      "latitude": "47.63364000",
      "longitude": "7.47951000"
    },
    {
      "id": 39795,
      "name": "Bas-Rhin",
      "latitude": "48.65693000",
      "longitude": "7.56346000"
    },
    {
      "id": 39799,
      "name": "Basse-Ham",
      "latitude": "49.38626000",
      "longitude": "6.24180000"
    },
    {
      "id": 39805,
      "name": "Batilly",
      "latitude": "49.17372000",
      "longitude": "5.96869000"
    },
    {
      "id": 39806,
      "name": "Battenheim",
      "latitude": "47.81999000",
      "longitude": "7.38170000"
    },
    {
      "id": 39821,
      "name": "Bayard-sur-Marne",
      "latitude": "48.55410000",
      "longitude": "5.07680000"
    },
    {
      "id": 39823,
      "name": "Bayon",
      "latitude": "48.47425000",
      "longitude": "6.31631000"
    },
    {
      "id": 39826,
      "name": "Bazancourt",
      "latitude": "49.36562000",
      "longitude": "4.17051000"
    },
    {
      "id": 39828,
      "name": "Bazeilles",
      "latitude": "49.67650000",
      "longitude": "4.97752000"
    },
    {
      "id": 39899,
      "name": "Behren-lès-Forbach",
      "latitude": "49.16949000",
      "longitude": "6.93933000"
    },
    {
      "id": 39923,
      "name": "Belleville",
      "latitude": "48.81817000",
      "longitude": "6.10294000"
    },
    {
      "id": 39925,
      "name": "Belleville-sur-Meuse",
      "latitude": "49.17863000",
      "longitude": "5.37190000"
    },
    {
      "id": 39939,
      "name": "Benfeld",
      "latitude": "48.37062000",
      "longitude": "7.59370000"
    },
    {
      "id": 40424,
      "name": "Béning-lès-Saint-Avold",
      "latitude": "49.13504000",
      "longitude": "6.83902000"
    },
    {
      "id": 39941,
      "name": "Bennwihr",
      "latitude": "48.14456000",
      "longitude": "7.32445000"
    },
    {
      "id": 39946,
      "name": "Bergheim",
      "latitude": "48.20540000",
      "longitude": "7.36299000"
    },
    {
      "id": 39947,
      "name": "Bergholtz",
      "latitude": "47.91670000",
      "longitude": "7.24651000"
    },
    {
      "id": 39950,
      "name": "Bernardswiller",
      "latitude": "48.45035000",
      "longitude": "7.46238000"
    },
    {
      "id": 39963,
      "name": "Berrwiller",
      "latitude": "47.84984000",
      "longitude": "7.21922000"
    },
    {
      "id": 39965,
      "name": "Berstett",
      "latitude": "48.67900000",
      "longitude": "7.65721000"
    },
    {
      "id": 39969,
      "name": "Bertrange",
      "latitude": "49.31368000",
      "longitude": "6.19208000"
    },
    {
      "id": 40431,
      "name": "Bétheny",
      "latitude": "49.28498000",
      "longitude": "4.05495000"
    },
    {
      "id": 39985,
      "name": "Betschdorf",
      "latitude": "48.89825000",
      "longitude": "7.90196000"
    },
    {
      "id": 39986,
      "name": "Bettancourt-la-Ferrée",
      "latitude": "48.64898000",
      "longitude": "4.96971000"
    },
    {
      "id": 40001,
      "name": "Bezannes",
      "latitude": "49.22339000",
      "longitude": "3.98892000"
    },
    {
      "id": 40011,
      "name": "Bienville",
      "latitude": "48.57582000",
      "longitude": "5.04579000"
    },
    {
      "id": 40013,
      "name": "Biesheim",
      "latitude": "48.04118000",
      "longitude": "7.54474000"
    },
    {
      "id": 40014,
      "name": "Biesles",
      "latitude": "48.08597000",
      "longitude": "5.29409000"
    },
    {
      "id": 40027,
      "name": "Bining",
      "latitude": "49.03729000",
      "longitude": "7.25273000"
    },
    {
      "id": 40031,
      "name": "Bischheim",
      "latitude": "48.61612000",
      "longitude": "7.75343000"
    },
    {
      "id": 40032,
      "name": "Bischoffsheim",
      "latitude": "48.48703000",
      "longitude": "7.48967000"
    },
    {
      "id": 40033,
      "name": "Bischwiller",
      "latitude": "48.76826000",
      "longitude": "7.85406000"
    },
    {
      "id": 40034,
      "name": "Bitche",
      "latitude": "49.05232000",
      "longitude": "7.42992000"
    },
    {
      "id": 40035,
      "name": "Bitschwiller-lès-Thann",
      "latitude": "47.82969000",
      "longitude": "7.07911000"
    },
    {
      "id": 40043,
      "name": "Blaesheim",
      "latitude": "48.50648000",
      "longitude": "7.60923000"
    },
    {
      "id": 40045,
      "name": "Blagny",
      "latitude": "49.62167000",
      "longitude": "5.19194000"
    },
    {
      "id": 40073,
      "name": "Blénod-lès-Pont-à-Mousson",
      "latitude": "48.88487000",
      "longitude": "6.04844000"
    },
    {
      "id": 40074,
      "name": "Blénod-lès-Toul",
      "latitude": "48.59882000",
      "longitude": "5.83685000"
    },
    {
      "id": 40066,
      "name": "Bliesbruck",
      "latitude": "49.11543000",
      "longitude": "7.18112000"
    },
    {
      "id": 40068,
      "name": "Blodelsheim",
      "latitude": "47.88538000",
      "longitude": "7.53635000"
    },
    {
      "id": 40071,
      "name": "Blotzheim",
      "latitude": "47.60260000",
      "longitude": "7.49654000"
    },
    {
      "id": 40439,
      "name": "Bœrsch",
      "latitude": "48.47656000",
      "longitude": "7.43998000"
    },
    {
      "id": 40104,
      "name": "Bollwiller",
      "latitude": "47.85832000",
      "longitude": "7.26179000"
    },
    {
      "id": 40106,
      "name": "Bologne",
      "latitude": "48.20005000",
      "longitude": "5.14209000"
    },
    {
      "id": 40133,
      "name": "Boofzheim",
      "latitude": "48.33186000",
      "longitude": "7.68071000"
    },
    {
      "id": 40158,
      "name": "Bouilly",
      "latitude": "48.19674000",
      "longitude": "4.00011000"
    },
    {
      "id": 40162,
      "name": "Boulange",
      "latitude": "49.38229000",
      "longitude": "5.95000000"
    },
    {
      "id": 40163,
      "name": "Boulay-Moselle",
      "latitude": "49.18333000",
      "longitude": "6.50000000"
    },
    {
      "id": 40169,
      "name": "Bouligny",
      "latitude": "49.29189000",
      "longitude": "5.74248000"
    },
    {
      "id": 40176,
      "name": "Boult-sur-Suippe",
      "latitude": "49.37149000",
      "longitude": "4.14632000"
    },
    {
      "id": 40180,
      "name": "Bourbonne-les-Bains",
      "latitude": "47.95305000",
      "longitude": "5.74801000"
    },
    {
      "id": 40203,
      "name": "Bourgogne",
      "latitude": "49.34962000",
      "longitude": "4.07111000"
    },
    {
      "id": 40218,
      "name": "Bousse",
      "latitude": "49.27786000",
      "longitude": "6.19672000"
    },
    {
      "id": 40231,
      "name": "Bouxières-aux-Chênes",
      "latitude": "48.77215000",
      "longitude": "6.26152000"
    },
    {
      "id": 40232,
      "name": "Bouxières-aux-Dames",
      "latitude": "48.75441000",
      "longitude": "6.16294000"
    },
    {
      "id": 40233,
      "name": "Bouxwiller",
      "latitude": "48.82495000",
      "longitude": "7.48117000"
    },
    {
      "id": 40236,
      "name": "Bouzonville",
      "latitude": "49.29188000",
      "longitude": "6.53386000"
    },
    {
      "id": 40298,
      "name": "Breuschwickersheim",
      "latitude": "48.58007000",
      "longitude": "7.60159000"
    },
    {
      "id": 40362,
      "name": "Bréviandes",
      "latitude": "48.25693000",
      "longitude": "4.09531000"
    },
    {
      "id": 40308,
      "name": "Brienne-le-Château",
      "latitude": "48.39319000",
      "longitude": "4.52637000"
    },
    {
      "id": 40311,
      "name": "Briey",
      "latitude": "49.24920000",
      "longitude": "5.93975000"
    },
    {
      "id": 40345,
      "name": "Brumath",
      "latitude": "48.73398000",
      "longitude": "7.71095000"
    },
    {
      "id": 40347,
      "name": "Brunstatt",
      "latitude": "47.72131000",
      "longitude": "7.32009000"
    },
    {
      "id": 40348,
      "name": "Bruyères",
      "latitude": "48.20709000",
      "longitude": "6.71845000"
    },
    {
      "id": 40371,
      "name": "Buchères",
      "latitude": "48.23508000",
      "longitude": "4.11310000"
    },
    {
      "id": 40377,
      "name": "Buhl",
      "latitude": "47.92806000",
      "longitude": "7.18719000"
    },
    {
      "id": 40380,
      "name": "Bulgnéville",
      "latitude": "48.20694000",
      "longitude": "5.83430000"
    },
    {
      "id": 40389,
      "name": "Burnhaupt-le-Bas",
      "latitude": "47.71764000",
      "longitude": "7.16148000"
    },
    {
      "id": 40390,
      "name": "Burnhaupt-le-Haut",
      "latitude": "47.73162000",
      "longitude": "7.14437000"
    },
    {
      "id": 40396,
      "name": "Bussang",
      "latitude": "47.88449000",
      "longitude": "6.85272000"
    },
    {
      "id": 40545,
      "name": "Carignan",
      "latitude": "49.63159000",
      "longitude": "5.16796000"
    },
    {
      "id": 40548,
      "name": "Carling",
      "latitude": "49.16635000",
      "longitude": "6.71563000"
    },
    {
      "id": 40565,
      "name": "Carspach",
      "latitude": "47.61608000",
      "longitude": "7.21018000"
    },
    {
      "id": 40599,
      "name": "Cattenom",
      "latitude": "49.40627000",
      "longitude": "6.24297000"
    },
    {
      "id": 40650,
      "name": "Cernay",
      "latitude": "47.80970000",
      "longitude": "7.17699000"
    },
    {
      "id": 40652,
      "name": "Cernay-lès-Reims",
      "latitude": "49.26375000",
      "longitude": "4.10216000"
    },
    {
      "id": 40687,
      "name": "Chalampé",
      "latitude": "47.82019000",
      "longitude": "7.54113000"
    },
    {
      "id": 40690,
      "name": "Chaligny",
      "latitude": "48.62422000",
      "longitude": "6.08262000"
    },
    {
      "id": 40691,
      "name": "Chalindrey",
      "latitude": "47.80308000",
      "longitude": "5.42797000"
    },
    {
      "id": 40933,
      "name": "Châlons-en-Champagne",
      "latitude": "48.95393000",
      "longitude": "4.36724000"
    },
    {
      "id": 40704,
      "name": "Chamarandes-Choignes",
      "latitude": "48.08333000",
      "longitude": "5.15000000"
    },
    {
      "id": 40734,
      "name": "Champenoux",
      "latitude": "48.74257000",
      "longitude": "6.34830000"
    },
    {
      "id": 40740,
      "name": "Champigneulles",
      "latitude": "48.73404000",
      "longitude": "6.16181000"
    },
    {
      "id": 40759,
      "name": "Chancenay",
      "latitude": "48.67001000",
      "longitude": "4.98715000"
    },
    {
      "id": 40768,
      "name": "Chanteheux",
      "latitude": "48.59722000",
      "longitude": "6.52783000"
    },
    {
      "id": 40777,
      "name": "Chantraine",
      "latitude": "48.17157000",
      "longitude": "6.43538000"
    },
    {
      "id": 40780,
      "name": "Chaource",
      "latitude": "48.05915000",
      "longitude": "4.13738000"
    },
    {
      "id": 40802,
      "name": "Charleville-Mézières",
      "latitude": "49.76850000",
      "longitude": "4.72487000"
    },
    {
      "id": 40806,
      "name": "Charmes",
      "latitude": "48.37220000",
      "longitude": "6.29117000"
    },
    {
      "id": 40942,
      "name": "Château-Porcien",
      "latitude": "49.52740000",
      "longitude": "4.24533000"
    },
    {
      "id": 40945,
      "name": "Château-Salins",
      "latitude": "48.81885000",
      "longitude": "6.51455000"
    },
    {
      "id": 40979,
      "name": "Châteauvillain",
      "latitude": "48.03655000",
      "longitude": "4.91823000"
    },
    {
      "id": 40982,
      "name": "Châtel-Saint-Germain",
      "latitude": "49.12255000",
      "longitude": "6.08006000"
    },
    {
      "id": 40983,
      "name": "Châtel-sur-Moselle",
      "latitude": "48.31430000",
      "longitude": "6.39403000"
    },
    {
      "id": 40988,
      "name": "Châtenois",
      "latitude": "48.27201000",
      "longitude": "7.40109000"
    },
    {
      "id": 41003,
      "name": "Châtillon-sur-Marne",
      "latitude": "49.10048000",
      "longitude": "3.76023000"
    },
    {
      "id": 40843,
      "name": "Chaumont",
      "latitude": "48.11121000",
      "longitude": "5.14134000"
    },
    {
      "id": 40860,
      "name": "Chavelot",
      "latitude": "48.23459000",
      "longitude": "6.43809000"
    },
    {
      "id": 40862,
      "name": "Chavigny",
      "latitude": "48.62899000",
      "longitude": "6.12317000"
    },
    {
      "id": 40873,
      "name": "Cheniménil",
      "latitude": "48.13880000",
      "longitude": "6.60346000"
    },
    {
      "id": 40897,
      "name": "Chevillon",
      "latitude": "48.52869000",
      "longitude": "5.13086000"
    },
    {
      "id": 41026,
      "name": "Cirey-sur-Vezouze",
      "latitude": "48.58093000",
      "longitude": "6.94573000"
    },
    {
      "id": 41050,
      "name": "Clermont-en-Argonne",
      "latitude": "49.10711000",
      "longitude": "5.07002000"
    },
    {
      "id": 41060,
      "name": "Clouange",
      "latitude": "49.26240000",
      "longitude": "6.09723000"
    },
    {
      "id": 41077,
      "name": "Cocheren",
      "latitude": "49.14384000",
      "longitude": "6.85649000"
    },
    {
      "id": 41096,
      "name": "Colmar",
      "latitude": "48.08078000",
      "longitude": "7.35584000"
    },
    {
      "id": 41101,
      "name": "Colombey-les-Belles",
      "latitude": "48.52920000",
      "longitude": "5.89451000"
    },
    {
      "id": 41121,
      "name": "Commercy",
      "latitude": "48.76128000",
      "longitude": "5.59067000"
    },
    {
      "id": 41123,
      "name": "Compertrix",
      "latitude": "48.94179000",
      "longitude": "4.34631000"
    },
    {
      "id": 41143,
      "name": "Conflans-en-Jarnisy",
      "latitude": "49.16725000",
      "longitude": "5.85515000"
    },
    {
      "id": 41149,
      "name": "Connantre",
      "latitude": "48.72657000",
      "longitude": "3.92403000"
    },
    {
      "id": 41157,
      "name": "Contrexéville",
      "latitude": "48.18424000",
      "longitude": "5.89572000"
    },
    {
      "id": 41171,
      "name": "Corcieux",
      "latitude": "48.17236000",
      "longitude": "6.88148000"
    },
    {
      "id": 41184,
      "name": "Cormicy",
      "latitude": "49.37071000",
      "longitude": "3.89595000"
    },
    {
      "id": 41185,
      "name": "Cormontreuil",
      "latitude": "49.21667000",
      "longitude": "4.05000000"
    },
    {
      "id": 41195,
      "name": "Cornimont",
      "latitude": "47.95998000",
      "longitude": "6.83038000"
    },
    {
      "id": 41196,
      "name": "Corny-sur-Moselle",
      "latitude": "49.03557000",
      "longitude": "6.06084000"
    },
    {
      "id": 41209,
      "name": "Cosnes",
      "latitude": "49.51964000",
      "longitude": "5.71210000"
    },
    {
      "id": 41242,
      "name": "Courcelles-Chaussy",
      "latitude": "49.10940000",
      "longitude": "6.40153000"
    },
    {
      "id": 41250,
      "name": "Courcy",
      "latitude": "49.32361000",
      "longitude": "4.00257000"
    },
    {
      "id": 41270,
      "name": "Courtisols",
      "latitude": "48.98670000",
      "longitude": "4.51700000"
    },
    {
      "id": 41345,
      "name": "Créhange",
      "latitude": "49.05897000",
      "longitude": "6.58178000"
    },
    {
      "id": 41305,
      "name": "Creney-près-Troyes",
      "latitude": "48.33333000",
      "longitude": "4.13333000"
    },
    {
      "id": 41312,
      "name": "Creutzwald",
      "latitude": "49.20531000",
      "longitude": "6.69668000"
    },
    {
      "id": 41338,
      "name": "Crusnes",
      "latitude": "49.43406000",
      "longitude": "5.91557000"
    },
    {
      "id": 41382,
      "name": "Custines",
      "latitude": "48.79127000",
      "longitude": "6.14461000"
    },
    {
      "id": 41401,
      "name": "Dabo",
      "latitude": "48.65373000",
      "longitude": "7.23611000"
    },
    {
      "id": 41402,
      "name": "Dachstein",
      "latitude": "48.56127000",
      "longitude": "7.53233000"
    },
    {
      "id": 41409,
      "name": "Dambach-la-Ville",
      "latitude": "48.32379000",
      "longitude": "7.42547000"
    },
    {
      "id": 41410,
      "name": "Damelevières",
      "latitude": "48.55930000",
      "longitude": "6.38453000"
    },
    {
      "id": 41411,
      "name": "Damery",
      "latitude": "49.07238000",
      "longitude": "3.88036000"
    },
    {
      "id": 41428,
      "name": "Dannemarie",
      "latitude": "47.63034000",
      "longitude": "7.11903000"
    },
    {
      "id": 41434,
      "name": "Darney",
      "latitude": "48.08660000",
      "longitude": "6.04917000"
    },
    {
      "id": 41435,
      "name": "Darnieulles",
      "latitude": "48.19950000",
      "longitude": "6.34929000"
    },
    {
      "id": 41439,
      "name": "Dauendorf",
      "latitude": "48.82987000",
      "longitude": "7.65532000"
    },
    {
      "id": 41613,
      "name": "Département de l'Aube",
      "latitude": "48.25000000",
      "longitude": "4.08333000"
    },
    {
      "id": 41456,
      "name": "Dessenheim",
      "latitude": "47.97767000",
      "longitude": "7.48891000"
    },
    {
      "id": 41458,
      "name": "Dettwiller",
      "latitude": "48.75415000",
      "longitude": "7.46633000"
    },
    {
      "id": 41461,
      "name": "Deville",
      "latitude": "49.87893000",
      "longitude": "4.70610000"
    },
    {
      "id": 41462,
      "name": "Deyvillers",
      "latitude": "48.20013000",
      "longitude": "6.51533000"
    },
    {
      "id": 41465,
      "name": "Didenheim",
      "latitude": "47.71866000",
      "longitude": "7.30157000"
    },
    {
      "id": 41467,
      "name": "Diebling",
      "latitude": "49.10966000",
      "longitude": "6.93974000"
    },
    {
      "id": 41468,
      "name": "Diemeringen",
      "latitude": "48.94013000",
      "longitude": "7.18839000"
    },
    {
      "id": 41470,
      "name": "Diesen",
      "latitude": "49.17818000",
      "longitude": "6.67798000"
    },
    {
      "id": 41471,
      "name": "Dietwiller",
      "latitude": "47.69278000",
      "longitude": "7.40300000"
    },
    {
      "id": 41472,
      "name": "Dieue-sur-Meuse",
      "latitude": "49.07200000",
      "longitude": "5.42248000"
    },
    {
      "id": 41474,
      "name": "Dieulouard",
      "latitude": "48.84137000",
      "longitude": "6.06782000"
    },
    {
      "id": 41475,
      "name": "Dieuze",
      "latitude": "48.81263000",
      "longitude": "6.71780000"
    },
    {
      "id": 41484,
      "name": "Dingsheim",
      "latitude": "48.63053000",
      "longitude": "7.66932000"
    },
    {
      "id": 41487,
      "name": "Dinsheim-sur-Bruche",
      "latitude": "48.54258000",
      "longitude": "7.42727000"
    },
    {
      "id": 41493,
      "name": "Distroff",
      "latitude": "49.33295000",
      "longitude": "6.26662000"
    },
    {
      "id": 41498,
      "name": "Dizy",
      "latitude": "49.06667000",
      "longitude": "3.96667000"
    },
    {
      "id": 41500,
      "name": "Docelles",
      "latitude": "48.14475000",
      "longitude": "6.61289000"
    },
    {
      "id": 41501,
      "name": "Dogneville",
      "latitude": "48.22251000",
      "longitude": "6.45944000"
    },
    {
      "id": 41508,
      "name": "Dom-le-Mesnil",
      "latitude": "49.69012000",
      "longitude": "4.80363000"
    },
    {
      "id": 41514,
      "name": "Dombasle-sur-Meurthe",
      "latitude": "48.61861000",
      "longitude": "6.35538000"
    },
    {
      "id": 41517,
      "name": "Domgermain",
      "latitude": "48.64276000",
      "longitude": "5.82957000"
    },
    {
      "id": 41518,
      "name": "Dommartin-lès-Remiremont",
      "latitude": "47.99902000",
      "longitude": "6.64048000"
    },
    {
      "id": 41519,
      "name": "Dommartin-lès-Toul",
      "latitude": "48.66949000",
      "longitude": "5.91005000"
    },
    {
      "id": 41529,
      "name": "Donchery",
      "latitude": "49.69584000",
      "longitude": "4.87417000"
    },
    {
      "id": 41530,
      "name": "Doncourt-lès-Conflans",
      "latitude": "49.14250000",
      "longitude": "5.93368000"
    },
    {
      "id": 41540,
      "name": "Dorlisheim",
      "latitude": "48.52485000",
      "longitude": "7.48624000"
    },
    {
      "id": 41541,
      "name": "Dormans",
      "latitude": "49.07392000",
      "longitude": "3.63819000"
    },
    {
      "id": 41544,
      "name": "Dossenheim-sur-Zinsel",
      "latitude": "48.80590000",
      "longitude": "7.40273000"
    },
    {
      "id": 41552,
      "name": "Doulaincourt-Saucourt",
      "latitude": "48.31667000",
      "longitude": "5.20000000"
    },
    {
      "id": 41561,
      "name": "Douzy",
      "latitude": "49.67080000",
      "longitude": "5.04156000"
    },
    {
      "id": 41579,
      "name": "Drulingen",
      "latitude": "48.86804000",
      "longitude": "7.18956000"
    },
    {
      "id": 41581,
      "name": "Drusenheim",
      "latitude": "48.76207000",
      "longitude": "7.95326000"
    },
    {
      "id": 41587,
      "name": "Dugny-sur-Meuse",
      "latitude": "49.10953000",
      "longitude": "5.38550000"
    },
    {
      "id": 41593,
      "name": "Duppigheim",
      "latitude": "48.52866000",
      "longitude": "7.59421000"
    },
    {
      "id": 41595,
      "name": "Durrenbach",
      "latitude": "48.89681000",
      "longitude": "7.76769000"
    },
    {
      "id": 41599,
      "name": "Duttlenheim",
      "latitude": "48.52553000",
      "longitude": "7.56572000"
    },
    {
      "id": 41654,
      "name": "Ebersheim",
      "latitude": "48.30438000",
      "longitude": "7.49903000"
    },
    {
      "id": 41655,
      "name": "Eckbolsheim",
      "latitude": "48.58075000",
      "longitude": "7.68768000"
    },
    {
      "id": 41656,
      "name": "Eckwersheim",
      "latitude": "48.68167000",
      "longitude": "7.69687000"
    },
    {
      "id": 48052,
      "name": "Écrouves",
      "latitude": "48.67986000",
      "longitude": "5.84267000"
    },
    {
      "id": 41660,
      "name": "Eguisheim",
      "latitude": "48.04280000",
      "longitude": "7.30617000"
    },
    {
      "id": 41661,
      "name": "Einville-au-Jard",
      "latitude": "48.65569000",
      "longitude": "6.48447000"
    },
    {
      "id": 48065,
      "name": "Éloyes",
      "latitude": "48.09793000",
      "longitude": "6.60653000"
    },
    {
      "id": 41668,
      "name": "Enchenberg",
      "latitude": "49.01354000",
      "longitude": "7.33868000"
    },
    {
      "id": 41671,
      "name": "Ennery",
      "latitude": "49.22619000",
      "longitude": "6.21778000"
    },
    {
      "id": 41676,
      "name": "Ensisheim",
      "latitude": "47.86584000",
      "longitude": "7.35052000"
    },
    {
      "id": 41680,
      "name": "Entrange",
      "latitude": "49.41300000",
      "longitude": "6.10501000"
    },
    {
      "id": 41683,
      "name": "Entzheim",
      "latitude": "48.53424000",
      "longitude": "7.63772000"
    },
    {
      "id": 48073,
      "name": "Épernay",
      "latitude": "49.04000000",
      "longitude": "3.95922000"
    },
    {
      "id": 41686,
      "name": "Epfig",
      "latitude": "48.35933000",
      "longitude": "7.46427000"
    },
    {
      "id": 48078,
      "name": "Épinal",
      "latitude": "48.18324000",
      "longitude": "6.45304000"
    },
    {
      "id": 41697,
      "name": "Ernolsheim-Bruche",
      "latitude": "48.56531000",
      "longitude": "7.56503000"
    },
    {
      "id": 41702,
      "name": "Erstein",
      "latitude": "48.42373000",
      "longitude": "7.66262000"
    },
    {
      "id": 41703,
      "name": "Ervy-le-Châtel",
      "latitude": "48.04116000",
      "longitude": "3.90988000"
    },
    {
      "id": 41709,
      "name": "Eschau",
      "latitude": "48.48897000",
      "longitude": "7.71644000"
    },
    {
      "id": 41710,
      "name": "Eschbach",
      "latitude": "48.87465000",
      "longitude": "7.73609000"
    },
    {
      "id": 41711,
      "name": "Eschentzwiller",
      "latitude": "47.71270000",
      "longitude": "7.39773000"
    },
    {
      "id": 41726,
      "name": "Essey-lès-Nancy",
      "latitude": "48.70500000",
      "longitude": "6.22691000"
    },
    {
      "id": 41731,
      "name": "Esternay",
      "latitude": "48.73232000",
      "longitude": "3.56159000"
    },
    {
      "id": 41734,
      "name": "Estissac",
      "latitude": "48.26920000",
      "longitude": "3.80515000"
    },
    {
      "id": 48092,
      "name": "Étain",
      "latitude": "49.21259000",
      "longitude": "5.64022000"
    },
    {
      "id": 48104,
      "name": "Étival-Clairefontaine",
      "latitude": "48.36519000",
      "longitude": "6.86118000"
    },
    {
      "id": 41741,
      "name": "Etzling",
      "latitude": "49.17943000",
      "longitude": "6.95864000"
    },
    {
      "id": 41743,
      "name": "Eulmont",
      "latitude": "48.75026000",
      "longitude": "6.22731000"
    },
    {
      "id": 41745,
      "name": "Eurville-Bienville",
      "latitude": "48.58333000",
      "longitude": "5.03333000"
    },
    {
      "id": 41746,
      "name": "Euville",
      "latitude": "48.75030000",
      "longitude": "5.62603000"
    },
    {
      "id": 41763,
      "name": "Fagnières",
      "latitude": "48.96385000",
      "longitude": "4.31692000"
    },
    {
      "id": 41764,
      "name": "Fains-Véel",
      "latitude": "48.78333000",
      "longitude": "5.13333000"
    },
    {
      "id": 41766,
      "name": "Falck",
      "latitude": "49.22695000",
      "longitude": "6.63373000"
    },
    {
      "id": 41770,
      "name": "Fameck",
      "latitude": "49.29895000",
      "longitude": "6.10915000"
    },
    {
      "id": 41777,
      "name": "Farébersviller",
      "latitude": "49.11898000",
      "longitude": "6.86914000"
    },
    {
      "id": 41776,
      "name": "Farschviller",
      "latitude": "49.09406000",
      "longitude": "6.89517000"
    },
    {
      "id": 41778,
      "name": "Faulquemont",
      "latitude": "49.04910000",
      "longitude": "6.59732000"
    },
    {
      "id": 41779,
      "name": "Faulx",
      "latitude": "48.79266000",
      "longitude": "6.19554000"
    },
    {
      "id": 41790,
      "name": "Fayl-Billot",
      "latitude": "47.78199000",
      "longitude": "5.59917000"
    },
    {
      "id": 41791,
      "name": "Fegersheim",
      "latitude": "48.49016000",
      "longitude": "7.68107000"
    },
    {
      "id": 41795,
      "name": "Fellering",
      "latitude": "47.89659000",
      "longitude": "6.98552000"
    },
    {
      "id": 41997,
      "name": "Fère-Champenoise",
      "latitude": "48.75431000",
      "longitude": "3.99069000"
    },
    {
      "id": 41804,
      "name": "Ferrette",
      "latitude": "47.49436000",
      "longitude": "7.31372000"
    },
    {
      "id": 41808,
      "name": "Fessenheim",
      "latitude": "47.91565000",
      "longitude": "7.53499000"
    },
    {
      "id": 41825,
      "name": "Fismes",
      "latitude": "49.30773000",
      "longitude": "3.68607000"
    },
    {
      "id": 41831,
      "name": "Flavigny-sur-Moselle",
      "latitude": "48.56567000",
      "longitude": "6.18878000"
    },
    {
      "id": 41834,
      "name": "Flaxlanden",
      "latitude": "47.69547000",
      "longitude": "7.31484000"
    },
    {
      "id": 41846,
      "name": "Fleury",
      "latitude": "49.04181000",
      "longitude": "6.19329000"
    },
    {
      "id": 41865,
      "name": "Fléville-devant-Nancy",
      "latitude": "48.62495000",
      "longitude": "6.20325000"
    },
    {
      "id": 41856,
      "name": "Flize",
      "latitude": "49.69875000",
      "longitude": "4.77171000"
    },
    {
      "id": 41858,
      "name": "Floing",
      "latitude": "49.72216000",
      "longitude": "4.92947000"
    },
    {
      "id": 41861,
      "name": "Florange",
      "latitude": "49.32373000",
      "longitude": "6.12120000"
    },
    {
      "id": 41869,
      "name": "Folkling",
      "latitude": "49.14756000",
      "longitude": "6.89482000"
    },
    {
      "id": 41871,
      "name": "Folschviller",
      "latitude": "49.07732000",
      "longitude": "6.68358000"
    },
    {
      "id": 41906,
      "name": "Fontoy",
      "latitude": "49.35597000",
      "longitude": "5.99250000"
    },
    {
      "id": 41908,
      "name": "Forbach",
      "latitude": "49.18848000",
      "longitude": "6.89255000"
    },
    {
      "id": 41918,
      "name": "Fortschwihr",
      "latitude": "48.08825000",
      "longitude": "7.45050000"
    },
    {
      "id": 41924,
      "name": "Foug",
      "latitude": "48.68385000",
      "longitude": "5.78735000"
    },
    {
      "id": 41945,
      "name": "Fraize",
      "latitude": "48.18660000",
      "longitude": "6.99787000"
    },
    {
      "id": 41986,
      "name": "Fréland",
      "latitude": "48.17215000",
      "longitude": "7.19167000"
    },
    {
      "id": 41961,
      "name": "Fresse-sur-Moselle",
      "latitude": "47.87589000",
      "longitude": "6.78589000"
    },
    {
      "id": 41964,
      "name": "Freyming-Merlebach",
      "latitude": "49.15000000",
      "longitude": "6.78333000"
    },
    {
      "id": 41965,
      "name": "Frignicourt",
      "latitude": "48.69966000",
      "longitude": "4.59153000"
    },
    {
      "id": 41970,
      "name": "Fromelennes",
      "latitude": "50.12333000",
      "longitude": "4.85952000"
    },
    {
      "id": 41971,
      "name": "Froncles",
      "latitude": "48.29756000",
      "longitude": "5.14586000"
    },
    {
      "id": 41980,
      "name": "Frouard",
      "latitude": "48.75994000",
      "longitude": "6.13036000"
    },
    {
      "id": 41991,
      "name": "Fumay",
      "latitude": "49.99132000",
      "longitude": "4.70771000"
    },
    {
      "id": 41993,
      "name": "Furdenheim",
      "latitude": "48.61129000",
      "longitude": "7.56100000"
    },
    {
      "id": 42026,
      "name": "Gambsheim",
      "latitude": "48.69209000",
      "longitude": "7.88286000"
    },
    {
      "id": 42028,
      "name": "Gandrange",
      "latitude": "49.27133000",
      "longitude": "6.12536000"
    },
    {
      "id": 42058,
      "name": "Geispolsheim",
      "latitude": "48.51603000",
      "longitude": "7.64825000"
    },
    {
      "id": 42299,
      "name": "Gérardmer",
      "latitude": "48.07346000",
      "longitude": "6.87787000"
    },
    {
      "id": 42072,
      "name": "Gerbéviller",
      "latitude": "48.49618000",
      "longitude": "6.51075000"
    },
    {
      "id": 42076,
      "name": "Gerstheim",
      "latitude": "48.38215000",
      "longitude": "7.70395000"
    },
    {
      "id": 42078,
      "name": "Gespunsart",
      "latitude": "49.82143000",
      "longitude": "4.82926000"
    },
    {
      "id": 42081,
      "name": "Geudertheim",
      "latitude": "48.72415000",
      "longitude": "7.75188000"
    },
    {
      "id": 42100,
      "name": "Giraumont",
      "latitude": "49.17076000",
      "longitude": "5.91448000"
    },
    {
      "id": 42107,
      "name": "Givet",
      "latitude": "50.13796000",
      "longitude": "4.82545000"
    },
    {
      "id": 42302,
      "name": "Gœrsdorf",
      "latitude": "48.95000000",
      "longitude": "7.76667000"
    },
    {
      "id": 42117,
      "name": "Goetzenbruck",
      "latitude": "48.97778000",
      "longitude": "7.37960000"
    },
    {
      "id": 42119,
      "name": "Golbey",
      "latitude": "48.19764000",
      "longitude": "6.43966000"
    },
    {
      "id": 42126,
      "name": "Gondrecourt-le-Château",
      "latitude": "48.51366000",
      "longitude": "5.51058000"
    },
    {
      "id": 42127,
      "name": "Gondreville",
      "latitude": "48.69373000",
      "longitude": "5.96467000"
    },
    {
      "id": 42135,
      "name": "Gorcy",
      "latitude": "49.53487000",
      "longitude": "5.68487000"
    },
    {
      "id": 42139,
      "name": "Gorze",
      "latitude": "49.05236000",
      "longitude": "6.00072000"
    },
    {
      "id": 42183,
      "name": "Granges-sur-Vologne",
      "latitude": "48.14517000",
      "longitude": "6.79095000"
    },
    {
      "id": 42199,
      "name": "Grendelbruch",
      "latitude": "48.49272000",
      "longitude": "7.32239000"
    },
    {
      "id": 42201,
      "name": "Gresswiller",
      "latitude": "48.53542000",
      "longitude": "7.43251000"
    },
    {
      "id": 42205,
      "name": "Gries",
      "latitude": "48.75370000",
      "longitude": "7.81403000"
    },
    {
      "id": 42206,
      "name": "Griesheim-près-Molsheim",
      "latitude": "48.50296000",
      "longitude": "7.53027000"
    },
    {
      "id": 42207,
      "name": "Griesheim-sur-Souffel",
      "latitude": "48.63591000",
      "longitude": "7.66923000"
    },
    {
      "id": 42223,
      "name": "Gros-Réderching",
      "latitude": "49.06835000",
      "longitude": "7.21914000"
    },
    {
      "id": 42224,
      "name": "Grosbliederstroff",
      "latitude": "49.15808000",
      "longitude": "7.02413000"
    },
    {
      "id": 42239,
      "name": "Guebwiller",
      "latitude": "47.91667000",
      "longitude": "7.20000000"
    },
    {
      "id": 42279,
      "name": "Guémar",
      "latitude": "48.18869000",
      "longitude": "7.39706000"
    },
    {
      "id": 42282,
      "name": "Guénange",
      "latitude": "49.29945000",
      "longitude": "6.20535000"
    },
    {
      "id": 42249,
      "name": "Gueux",
      "latitude": "49.25048000",
      "longitude": "3.91024000"
    },
    {
      "id": 42250,
      "name": "Guewenheim",
      "latitude": "47.75283000",
      "longitude": "7.09253000"
    },
    {
      "id": 42273,
      "name": "Gumbrechtshoffen",
      "latitude": "48.90580000",
      "longitude": "7.62915000"
    },
    {
      "id": 42274,
      "name": "Gundershoffen",
      "latitude": "48.90648000",
      "longitude": "7.66096000"
    },
    {
      "id": 42305,
      "name": "Habsheim",
      "latitude": "47.72975000",
      "longitude": "7.41801000"
    },
    {
      "id": 42306,
      "name": "Hadol",
      "latitude": "48.08983000",
      "longitude": "6.47662000"
    },
    {
      "id": 42307,
      "name": "Hagenthal-le-Bas",
      "latitude": "47.52497000",
      "longitude": "7.47783000"
    },
    {
      "id": 42309,
      "name": "Hagondange",
      "latitude": "49.24879000",
      "longitude": "6.16374000"
    },
    {
      "id": 42310,
      "name": "Haguenau",
      "latitude": "48.81557000",
      "longitude": "7.79051000"
    },
    {
      "id": 42318,
      "name": "Ham-sous-Varsberg",
      "latitude": "49.18014000",
      "longitude": "6.64702000"
    },
    {
      "id": 42319,
      "name": "Hambach",
      "latitude": "49.05942000",
      "longitude": "7.03530000"
    },
    {
      "id": 42323,
      "name": "Hangenbieten",
      "latitude": "48.55985000",
      "longitude": "7.61464000"
    },
    {
      "id": 42329,
      "name": "Hargarten-aux-Mines",
      "latitude": "49.22436000",
      "longitude": "6.61459000"
    },
    {
      "id": 42335,
      "name": "Hatten",
      "latitude": "48.90123000",
      "longitude": "7.97968000"
    },
    {
      "id": 42337,
      "name": "Haucourt",
      "latitude": "49.48982000",
      "longitude": "5.80361000"
    },
    {
      "id": 42340,
      "name": "Haut-Rhin",
      "latitude": "47.87603000",
      "longitude": "7.27190000"
    },
    {
      "id": 42344,
      "name": "Haute-Marne",
      "latitude": "48.12019000",
      "longitude": "5.24038000"
    },
    {
      "id": 42360,
      "name": "Hayange",
      "latitude": "49.32881000",
      "longitude": "6.06278000"
    },
    {
      "id": 42361,
      "name": "Haybes",
      "latitude": "50.00458000",
      "longitude": "4.70496000"
    },
    {
      "id": 42450,
      "name": "Hégenheim",
      "latitude": "47.56299000",
      "longitude": "7.52401000"
    },
    {
      "id": 42363,
      "name": "Heillecourt",
      "latitude": "48.65049000",
      "longitude": "6.19512000"
    },
    {
      "id": 42364,
      "name": "Heimsbrunn",
      "latitude": "47.72669000",
      "longitude": "7.22699000"
    },
    {
      "id": 42374,
      "name": "Herbitzheim",
      "latitude": "49.01541000",
      "longitude": "7.08188000"
    },
    {
      "id": 42381,
      "name": "Hermonville",
      "latitude": "49.33655000",
      "longitude": "3.91011000"
    },
    {
      "id": 42382,
      "name": "Herrlisheim",
      "latitude": "48.73049000",
      "longitude": "7.90535000"
    },
    {
      "id": 42383,
      "name": "Herrlisheim-près-Colmar",
      "latitude": "48.01835000",
      "longitude": "7.32668000"
    },
    {
      "id": 42385,
      "name": "Herserange",
      "latitude": "49.52047000",
      "longitude": "5.78994000"
    },
    {
      "id": 42465,
      "name": "Hésingue",
      "latitude": "47.57818000",
      "longitude": "7.51911000"
    },
    {
      "id": 42389,
      "name": "Hettange-Grande",
      "latitude": "49.40650000",
      "longitude": "6.15233000"
    },
    {
      "id": 42396,
      "name": "Hilsenheim",
      "latitude": "48.28761000",
      "longitude": "7.56348000"
    },
    {
      "id": 42397,
      "name": "Hindisheim",
      "latitude": "48.46837000",
      "longitude": "7.63859000"
    },
    {
      "id": 42401,
      "name": "Hirsingue",
      "latitude": "47.58768000",
      "longitude": "7.25299000"
    },
    {
      "id": 42403,
      "name": "Hirtzbach",
      "latitude": "47.59839000",
      "longitude": "7.22222000"
    },
    {
      "id": 42404,
      "name": "Hirtzfelden",
      "latitude": "47.91131000",
      "longitude": "7.44610000"
    },
    {
      "id": 42406,
      "name": "Hochfelden",
      "latitude": "48.75738000",
      "longitude": "7.56769000"
    },
    {
      "id": 42407,
      "name": "Hochstatt",
      "latitude": "47.70389000",
      "longitude": "7.27650000"
    },
    {
      "id": 42467,
      "name": "Hœnheim",
      "latitude": "48.62224000",
      "longitude": "7.75549000"
    },
    {
      "id": 42468,
      "name": "Hœrdt",
      "latitude": "48.70000000",
      "longitude": "7.78333000"
    },
    {
      "id": 42409,
      "name": "Holtzheim",
      "latitude": "48.55820000",
      "longitude": "7.64434000"
    },
    {
      "id": 42410,
      "name": "Holtzwihr",
      "latitude": "48.11288000",
      "longitude": "7.42080000"
    },
    {
      "id": 42411,
      "name": "Holving",
      "latitude": "49.01162000",
      "longitude": "6.96556000"
    },
    {
      "id": 42414,
      "name": "Hombourg-Haut",
      "latitude": "49.12819000",
      "longitude": "6.77066000"
    },
    {
      "id": 42415,
      "name": "Homécourt",
      "latitude": "49.22071000",
      "longitude": "5.99242000"
    },
    {
      "id": 42418,
      "name": "Horbourg-Wihr",
      "latitude": "48.08106000",
      "longitude": "7.39380000"
    },
    {
      "id": 42425,
      "name": "Houdemont",
      "latitude": "48.64407000",
      "longitude": "6.17579000"
    },
    {
      "id": 42433,
      "name": "Houssen",
      "latitude": "48.12579000",
      "longitude": "7.37735000"
    },
    {
      "id": 42441,
      "name": "Hundling",
      "latitude": "49.10860000",
      "longitude": "6.97989000"
    },
    {
      "id": 42442,
      "name": "Huningue",
      "latitude": "47.60477000",
      "longitude": "7.57782000"
    },
    {
      "id": 42445,
      "name": "Husseren-Wesserling",
      "latitude": "47.88351000",
      "longitude": "6.98994000"
    },
    {
      "id": 42446,
      "name": "Hussigny-Godbrange",
      "latitude": "49.49437000",
      "longitude": "5.86677000"
    },
    {
      "id": 42447,
      "name": "Huttenheim",
      "latitude": "48.35864000",
      "longitude": "7.57833000"
    },
    {
      "id": 42473,
      "name": "Igney",
      "latitude": "48.27358000",
      "longitude": "6.39664000"
    },
    {
      "id": 42477,
      "name": "Illange",
      "latitude": "49.32617000",
      "longitude": "6.17953000"
    },
    {
      "id": 42480,
      "name": "Illfurth",
      "latitude": "47.67410000",
      "longitude": "7.26607000"
    },
    {
      "id": 42482,
      "name": "Illkirch-Graffenstaden",
      "latitude": "48.52894000",
      "longitude": "7.71523000"
    },
    {
      "id": 42483,
      "name": "Illzach",
      "latitude": "47.77420000",
      "longitude": "7.35175000"
    },
    {
      "id": 42487,
      "name": "Ingersheim",
      "latitude": "48.09803000",
      "longitude": "7.30308000"
    },
    {
      "id": 42491,
      "name": "Ingwiller",
      "latitude": "48.87284000",
      "longitude": "7.47980000"
    },
    {
      "id": 42492,
      "name": "Innenheim",
      "latitude": "48.49659000",
      "longitude": "7.57439000"
    },
    {
      "id": 42494,
      "name": "Irmstett",
      "latitude": "48.58801000",
      "longitude": "7.47837000"
    },
    {
      "id": 42504,
      "name": "Issenheim",
      "latitude": "47.90357000",
      "longitude": "7.25235000"
    },
    {
      "id": 42513,
      "name": "Ittenheim",
      "latitude": "48.60508000",
      "longitude": "7.59372000"
    },
    {
      "id": 42534,
      "name": "Jarny",
      "latitude": "49.15873000",
      "longitude": "5.87640000"
    },
    {
      "id": 42536,
      "name": "Jarville-la-Malgrange",
      "latitude": "48.66697000",
      "longitude": "6.20269000"
    },
    {
      "id": 42546,
      "name": "Jeanménil",
      "latitude": "48.33560000",
      "longitude": "6.68769000"
    },
    {
      "id": 42547,
      "name": "Jebsheim",
      "latitude": "48.12375000",
      "longitude": "7.47578000"
    },
    {
      "id": 42603,
      "name": "Jœuf",
      "latitude": "49.23333000",
      "longitude": "6.01667000"
    },
    {
      "id": 42553,
      "name": "Joinville",
      "latitude": "48.44363000",
      "longitude": "5.14144000"
    },
    {
      "id": 42557,
      "name": "Jonchery-sur-Vesle",
      "latitude": "49.28952000",
      "longitude": "3.81345000"
    },
    {
      "id": 42567,
      "name": "Joudreville",
      "latitude": "49.29145000",
      "longitude": "5.77903000"
    },
    {
      "id": 42573,
      "name": "Jouy-aux-Arches",
      "latitude": "49.06148000",
      "longitude": "6.07925000"
    },
    {
      "id": 42604,
      "name": "Kaltenhouse",
      "latitude": "48.79110000",
      "longitude": "7.83217000"
    },
    {
      "id": 42605,
      "name": "Kaysersberg",
      "latitude": "48.13803000",
      "longitude": "7.26385000"
    },
    {
      "id": 42623,
      "name": "Kédange-sur-Canner",
      "latitude": "49.30887000",
      "longitude": "6.33805000"
    },
    {
      "id": 42606,
      "name": "Kembs",
      "latitude": "47.68948000",
      "longitude": "7.50323000"
    },
    {
      "id": 42607,
      "name": "Kerbach",
      "latitude": "49.16682000",
      "longitude": "6.96549000"
    },
    {
      "id": 42611,
      "name": "Kertzfeld",
      "latitude": "48.37990000",
      "longitude": "7.56816000"
    },
    {
      "id": 42613,
      "name": "Keskastel",
      "latitude": "48.97132000",
      "longitude": "7.04412000"
    },
    {
      "id": 42615,
      "name": "Kilstett",
      "latitude": "48.67600000",
      "longitude": "7.85471000"
    },
    {
      "id": 42616,
      "name": "Kingersheim",
      "latitude": "47.79100000",
      "longitude": "7.32647000"
    },
    {
      "id": 42617,
      "name": "Kintzheim",
      "latitude": "48.25480000",
      "longitude": "7.39491000"
    },
    {
      "id": 42618,
      "name": "Knutange",
      "latitude": "49.33895000",
      "longitude": "6.03898000"
    },
    {
      "id": 42624,
      "name": "Kœnigsmacker",
      "latitude": "49.40000000",
      "longitude": "6.28333000"
    },
    {
      "id": 42619,
      "name": "Krautergersheim",
      "latitude": "48.47634000",
      "longitude": "7.56718000"
    },
    {
      "id": 42620,
      "name": "Kruth",
      "latitude": "47.93101000",
      "longitude": "6.96467000"
    },
    {
      "id": 42621,
      "name": "Kunheim",
      "latitude": "48.07657000",
      "longitude": "7.53489000"
    },
    {
      "id": 42622,
      "name": "Kuntzig",
      "latitude": "49.34731000",
      "longitude": "6.23710000"
    },
    {
      "id": 42653,
      "name": "La Bresse",
      "latitude": "47.99974000",
      "longitude": "6.86499000"
    },
    {
      "id": 42655,
      "name": "La Broque",
      "latitude": "48.47298000",
      "longitude": "7.21639000"
    },
    {
      "id": 42687,
      "name": "La Chapelle-Saint-Luc",
      "latitude": "48.31734000",
      "longitude": "4.03988000"
    },
    {
      "id": 42756,
      "name": "La Francheville",
      "latitude": "49.72923000",
      "longitude": "4.71273000"
    },
    {
      "id": 42849,
      "name": "La Rivière-de-Corps",
      "latitude": "48.28840000",
      "longitude": "4.01947000"
    },
    {
      "id": 42920,
      "name": "La Wantzenau",
      "latitude": "48.65786000",
      "longitude": "7.83068000"
    },
    {
      "id": 42921,
      "name": "Labaroche",
      "latitude": "48.11076000",
      "longitude": "7.19244000"
    },
    {
      "id": 42938,
      "name": "Labry",
      "latitude": "49.17289000",
      "longitude": "5.88087000"
    },
    {
      "id": 42981,
      "name": "Lamarche",
      "latitude": "48.06967000",
      "longitude": "5.78141000"
    },
    {
      "id": 42995,
      "name": "Lampertheim",
      "latitude": "48.65149000",
      "longitude": "7.69876000"
    },
    {
      "id": 43010,
      "name": "Landres",
      "latitude": "49.32044000",
      "longitude": "5.80060000"
    },
    {
      "id": 43012,
      "name": "Landser",
      "latitude": "47.68501000",
      "longitude": "7.38998000"
    },
    {
      "id": 43020,
      "name": "Laneuveville-devant-Nancy",
      "latitude": "48.65659000",
      "longitude": "6.22658000"
    },
    {
      "id": 43030,
      "name": "Langres",
      "latitude": "47.86263000",
      "longitude": "5.33308000"
    },
    {
      "id": 43062,
      "name": "Lapoutroie",
      "latitude": "48.15398000",
      "longitude": "7.16714000"
    },
    {
      "id": 43101,
      "name": "Lautenbach",
      "latitude": "47.94055000",
      "longitude": "7.15768000"
    },
    {
      "id": 43102,
      "name": "Lautenbachzell",
      "latitude": "47.94124000",
      "longitude": "7.14643000"
    },
    {
      "id": 43103,
      "name": "Lauterbourg",
      "latitude": "48.97515000",
      "longitude": "8.17846000"
    },
    {
      "id": 43121,
      "name": "Laxou",
      "latitude": "48.68372000",
      "longitude": "6.14929000"
    },
    {
      "id": 43122,
      "name": "Lay-Saint-Christophe",
      "latitude": "48.74926000",
      "longitude": "6.19735000"
    },
    {
      "id": 43124,
      "name": "Le Ban Saint-Martin",
      "latitude": "49.12250000",
      "longitude": "6.15111000"
    },
    {
      "id": 43240,
      "name": "Le Ménil",
      "latitude": "47.90477000",
      "longitude": "6.78209000"
    },
    {
      "id": 43231,
      "name": "Le Mesnil-sur-Oger",
      "latitude": "48.94708000",
      "longitude": "4.02263000"
    },
    {
      "id": 43303,
      "name": "Le Syndicat",
      "latitude": "48.01733000",
      "longitude": "6.68436000"
    },
    {
      "id": 43313,
      "name": "Le Thillot",
      "latitude": "47.87941000",
      "longitude": "6.76279000"
    },
    {
      "id": 43315,
      "name": "Le Tholy",
      "latitude": "48.08229000",
      "longitude": "6.74351000"
    },
    {
      "id": 43345,
      "name": "Lembach",
      "latitude": "49.00362000",
      "longitude": "7.78986000"
    },
    {
      "id": 43346,
      "name": "Lemberg",
      "latitude": "49.00199000",
      "longitude": "7.37889000"
    },
    {
      "id": 43689,
      "name": "Lérouville",
      "latitude": "48.79261000",
      "longitude": "5.54063000"
    },
    {
      "id": 43388,
      "name": "Les Forges",
      "latitude": "48.17747000",
      "longitude": "6.38846000"
    },
    {
      "id": 43394,
      "name": "Les Hautes-Rivières",
      "latitude": "49.88595000",
      "longitude": "4.84186000"
    },
    {
      "id": 43415,
      "name": "Les Noës-près-Troyes",
      "latitude": "48.30358000",
      "longitude": "4.04552000"
    },
    {
      "id": 43423,
      "name": "Les Riceys",
      "latitude": "47.99390000",
      "longitude": "4.36986000"
    },
    {
      "id": 43455,
      "name": "Lexy",
      "latitude": "49.49996000",
      "longitude": "5.72985000"
    },
    {
      "id": 43457,
      "name": "Leymen",
      "latitude": "47.49632000",
      "longitude": "7.48517000"
    },
    {
      "id": 43524,
      "name": "Lièpvre",
      "latitude": "48.27166000",
      "longitude": "7.28229000"
    },
    {
      "id": 43473,
      "name": "Liffol-le-Grand",
      "latitude": "48.31771000",
      "longitude": "5.58125000"
    },
    {
      "id": 43477,
      "name": "Ligny-en-Barrois",
      "latitude": "48.68861000",
      "longitude": "5.32543000"
    },
    {
      "id": 43501,
      "name": "Lingolsheim",
      "latitude": "48.55752000",
      "longitude": "7.68253000"
    },
    {
      "id": 43506,
      "name": "Lipsheim",
      "latitude": "48.49164000",
      "longitude": "7.66751000"
    },
    {
      "id": 43515,
      "name": "Liverdun",
      "latitude": "48.74973000",
      "longitude": "6.06372000"
    },
    {
      "id": 43546,
      "name": "Loivre",
      "latitude": "49.34619000",
      "longitude": "3.97978000"
    },
    {
      "id": 43556,
      "name": "Longeville-en-Barrois",
      "latitude": "48.74242000",
      "longitude": "5.20905000"
    },
    {
      "id": 43557,
      "name": "Longeville-lès-Metz",
      "latitude": "49.11403000",
      "longitude": "6.13612000"
    },
    {
      "id": 43558,
      "name": "Longeville-lès-Saint-Avold",
      "latitude": "49.11689000",
      "longitude": "6.64327000"
    },
    {
      "id": 43562,
      "name": "Longlaville",
      "latitude": "49.53443000",
      "longitude": "5.80048000"
    },
    {
      "id": 43573,
      "name": "Longuyon",
      "latitude": "49.44181000",
      "longitude": "5.60508000"
    },
    {
      "id": 43575,
      "name": "Longwy",
      "latitude": "49.52170000",
      "longitude": "5.76192000"
    },
    {
      "id": 43593,
      "name": "Lorquin",
      "latitude": "48.67102000",
      "longitude": "6.99915000"
    },
    {
      "id": 43641,
      "name": "Ludres",
      "latitude": "48.62032000",
      "longitude": "6.16747000"
    },
    {
      "id": 43648,
      "name": "Lumes",
      "latitude": "49.73461000",
      "longitude": "4.78616000"
    },
    {
      "id": 43656,
      "name": "Lunéville",
      "latitude": "48.59273000",
      "longitude": "6.49383000"
    },
    {
      "id": 43663,
      "name": "Lusigny-sur-Barse",
      "latitude": "48.25451000",
      "longitude": "4.26891000"
    },
    {
      "id": 43666,
      "name": "Lutterbach",
      "latitude": "47.75976000",
      "longitude": "7.28032000"
    },
    {
      "id": 43667,
      "name": "Lutzelhouse",
      "latitude": "48.52114000",
      "longitude": "7.28700000"
    },
    {
      "id": 43713,
      "name": "Macheren",
      "latitude": "49.10019000",
      "longitude": "6.77763000"
    },
    {
      "id": 43718,
      "name": "Magenta",
      "latitude": "49.04899000",
      "longitude": "3.96882000"
    },
    {
      "id": 43731,
      "name": "Maidières",
      "latitude": "48.89961000",
      "longitude": "6.04005000"
    },
    {
      "id": 43736,
      "name": "Mailly-le-Camp",
      "latitude": "48.66526000",
      "longitude": "4.21303000"
    },
    {
      "id": 43746,
      "name": "Maizières-la-Grande-Paroisse",
      "latitude": "48.51012000",
      "longitude": "3.78573000"
    },
    {
      "id": 43747,
      "name": "Maizières-lès-Metz",
      "latitude": "49.21335000",
      "longitude": "6.15956000"
    },
    {
      "id": 43767,
      "name": "Malzéville",
      "latitude": "48.71235000",
      "longitude": "6.18468000"
    },
    {
      "id": 43772,
      "name": "Mancieulles",
      "latitude": "49.28231000",
      "longitude": "5.89612000"
    },
    {
      "id": 43779,
      "name": "Manom",
      "latitude": "49.37092000",
      "longitude": "6.18345000"
    },
    {
      "id": 43790,
      "name": "Marange-Silvange",
      "latitude": "49.20822000",
      "longitude": "6.10426000"
    },
    {
      "id": 43793,
      "name": "Marbache",
      "latitude": "48.79867000",
      "longitude": "6.10600000"
    },
    {
      "id": 43810,
      "name": "Marckolsheim",
      "latitude": "48.16471000",
      "longitude": "7.54400000"
    },
    {
      "id": 43817,
      "name": "Mardeuil",
      "latitude": "49.05393000",
      "longitude": "3.93000000"
    },
    {
      "id": 43826,
      "name": "Mareuil-le-Port",
      "latitude": "49.08179000",
      "longitude": "3.76011000"
    },
    {
      "id": 43828,
      "name": "Mareuil-sur-Ay",
      "latitude": "49.04581000",
      "longitude": "4.03587000"
    },
    {
      "id": 43842,
      "name": "Marigny-le-Châtel",
      "latitude": "48.40291000",
      "longitude": "3.73588000"
    },
    {
      "id": 43849,
      "name": "Marlenheim",
      "latitude": "48.62134000",
      "longitude": "7.49096000"
    },
    {
      "id": 43854,
      "name": "Marly",
      "latitude": "49.06382000",
      "longitude": "6.15427000"
    },
    {
      "id": 43860,
      "name": "Marmoutier",
      "latitude": "48.69005000",
      "longitude": "7.38195000"
    },
    {
      "id": 43863,
      "name": "Marne",
      "latitude": "48.99116000",
      "longitude": "4.25966000"
    },
    {
      "id": 43928,
      "name": "Masevaux",
      "latitude": "47.77671000",
      "longitude": "6.99683000"
    },
    {
      "id": 43942,
      "name": "Matzenheim",
      "latitude": "48.39450000",
      "longitude": "7.62185000"
    },
    {
      "id": 43967,
      "name": "Maxéville",
      "latitude": "48.71324000",
      "longitude": "6.16658000"
    },
    {
      "id": 44456,
      "name": "Mécleuves",
      "latitude": "49.04429000",
      "longitude": "6.27051000"
    },
    {
      "id": 43990,
      "name": "Meistratzheim",
      "latitude": "48.44853000",
      "longitude": "7.54350000"
    },
    {
      "id": 44014,
      "name": "Mercy-le-Bas",
      "latitude": "49.38935000",
      "longitude": "5.75599000"
    },
    {
      "id": 44481,
      "name": "Méréville",
      "latitude": "48.59113000",
      "longitude": "6.15106000"
    },
    {
      "id": 44019,
      "name": "Merten",
      "latitude": "49.24903000",
      "longitude": "6.66465000"
    },
    {
      "id": 44020,
      "name": "Mertzwiller",
      "latitude": "48.86558000",
      "longitude": "7.68136000"
    },
    {
      "id": 44026,
      "name": "Merxheim",
      "latitude": "47.91128000",
      "longitude": "7.29492000"
    },
    {
      "id": 44479,
      "name": "Méry-sur-Seine",
      "latitude": "48.50937000",
      "longitude": "3.89129000"
    },
    {
      "id": 44034,
      "name": "Messein",
      "latitude": "48.61180000",
      "longitude": "6.13959000"
    },
    {
      "id": 44041,
      "name": "Metz",
      "latitude": "49.11911000",
      "longitude": "6.17269000"
    },
    {
      "id": 44042,
      "name": "Metzeral",
      "latitude": "48.01217000",
      "longitude": "7.07091000"
    },
    {
      "id": 44043,
      "name": "Metzervisse",
      "latitude": "49.31476000",
      "longitude": "6.28277000"
    },
    {
      "id": 44051,
      "name": "Meurthe-et-Moselle",
      "latitude": "48.65082000",
      "longitude": "6.15660000"
    },
    {
      "id": 44052,
      "name": "Meuse",
      "latitude": "48.97176000",
      "longitude": "5.36371000"
    },
    {
      "id": 44054,
      "name": "Mexy",
      "latitude": "49.50072000",
      "longitude": "5.78078000"
    },
    {
      "id": 44055,
      "name": "Meyenheim",
      "latitude": "47.91364000",
      "longitude": "7.35560000"
    },
    {
      "id": 44094,
      "name": "Mirecourt",
      "latitude": "48.30089000",
      "longitude": "6.13282000"
    },
    {
      "id": 44107,
      "name": "Mittelhausbergen",
      "latitude": "48.61436000",
      "longitude": "7.69009000"
    },
    {
      "id": 44126,
      "name": "Molsheim",
      "latitude": "48.54042000",
      "longitude": "7.49199000"
    },
    {
      "id": 44127,
      "name": "Mommenheim",
      "latitude": "48.75782000",
      "longitude": "7.64494000"
    },
    {
      "id": 44135,
      "name": "Mondelange",
      "latitude": "49.26145000",
      "longitude": "6.16503000"
    },
    {
      "id": 44151,
      "name": "Monswiller",
      "latitude": "48.75511000",
      "longitude": "7.37732000"
    },
    {
      "id": 44157,
      "name": "Mont-Saint-Martin",
      "latitude": "49.54363000",
      "longitude": "5.78337000"
    },
    {
      "id": 44188,
      "name": "Montauville",
      "latitude": "48.90111000",
      "longitude": "6.02359000"
    },
    {
      "id": 44203,
      "name": "Montbronn",
      "latitude": "48.99243000",
      "longitude": "7.31075000"
    },
    {
      "id": 44213,
      "name": "Montcy-Notre-Dame",
      "latitude": "49.77507000",
      "longitude": "4.74245000"
    },
    {
      "id": 44250,
      "name": "Monthermé",
      "latitude": "49.88465000",
      "longitude": "4.73013000"
    },
    {
      "id": 44253,
      "name": "Montier-en-Der",
      "latitude": "48.47823000",
      "longitude": "4.77073000"
    },
    {
      "id": 44262,
      "name": "Montigny-lès-Metz",
      "latitude": "49.09560000",
      "longitude": "6.15271000"
    },
    {
      "id": 44290,
      "name": "Montmédy",
      "latitude": "49.52096000",
      "longitude": "5.36835000"
    },
    {
      "id": 44285,
      "name": "Montmirail",
      "latitude": "48.87214000",
      "longitude": "3.53797000"
    },
    {
      "id": 44294,
      "name": "Montois-la-Montagne",
      "latitude": "49.21680000",
      "longitude": "6.02137000"
    },
    {
      "id": 44337,
      "name": "Moosch",
      "latitude": "47.86035000",
      "longitude": "7.04870000"
    },
    {
      "id": 44352,
      "name": "Morhange",
      "latitude": "48.92359000",
      "longitude": "6.64163000"
    },
    {
      "id": 44366,
      "name": "Morsbach",
      "latitude": "49.16806000",
      "longitude": "6.87190000"
    },
    {
      "id": 44367,
      "name": "Morschwiller-le-Bas",
      "latitude": "47.73615000",
      "longitude": "7.26954000"
    },
    {
      "id": 44380,
      "name": "Moselle",
      "latitude": "49.04177000",
      "longitude": "6.58355000"
    },
    {
      "id": 44396,
      "name": "Moulins-lès-Metz",
      "latitude": "49.10434000",
      "longitude": "6.10832000"
    },
    {
      "id": 44402,
      "name": "Mourmelon-le-Grand",
      "latitude": "49.13256000",
      "longitude": "4.36420000"
    },
    {
      "id": 44412,
      "name": "Moutiers",
      "latitude": "49.23302000",
      "longitude": "5.96553000"
    },
    {
      "id": 44419,
      "name": "Mouzon",
      "latitude": "49.60706000",
      "longitude": "5.07569000"
    },
    {
      "id": 44422,
      "name": "Moyenmoutier",
      "latitude": "48.37730000",
      "longitude": "6.90047000"
    },
    {
      "id": 44423,
      "name": "Moyeuvre-Grande",
      "latitude": "49.25294000",
      "longitude": "6.04467000"
    },
    {
      "id": 44432,
      "name": "Muizon",
      "latitude": "49.27499000",
      "longitude": "3.89083000"
    },
    {
      "id": 44433,
      "name": "Mulhouse",
      "latitude": "47.75205000",
      "longitude": "7.32866000"
    },
    {
      "id": 44435,
      "name": "Munchhouse",
      "latitude": "47.86930000",
      "longitude": "7.45233000"
    },
    {
      "id": 44436,
      "name": "Mundolsheim",
      "latitude": "48.64215000",
      "longitude": "7.71378000"
    },
    {
      "id": 44437,
      "name": "Munster",
      "latitude": "48.04048000",
      "longitude": "7.13933000"
    },
    {
      "id": 44446,
      "name": "Mussig",
      "latitude": "48.22993000",
      "longitude": "7.51963000"
    },
    {
      "id": 44447,
      "name": "Mussy-sur-Seine",
      "latitude": "47.97791000",
      "longitude": "4.49743000"
    },
    {
      "id": 44448,
      "name": "Muttersholtz",
      "latitude": "48.26761000",
      "longitude": "7.53567000"
    },
    {
      "id": 44449,
      "name": "Mutzig",
      "latitude": "48.53974000",
      "longitude": "7.45594000"
    },
    {
      "id": 44501,
      "name": "Nancy",
      "latitude": "48.68439000",
      "longitude": "6.18496000"
    },
    {
      "id": 44538,
      "name": "Neuf-Brisach",
      "latitude": "48.01783000",
      "longitude": "7.52795000"
    },
    {
      "id": 44540,
      "name": "Neufchâteau",
      "latitude": "48.35557000",
      "longitude": "5.69602000"
    },
    {
      "id": 44539,
      "name": "Neufchef",
      "latitude": "49.31678000",
      "longitude": "6.02416000"
    },
    {
      "id": 44543,
      "name": "Neufgrange",
      "latitude": "49.07679000",
      "longitude": "7.06526000"
    },
    {
      "id": 44544,
      "name": "Neufmanil",
      "latitude": "49.81096000",
      "longitude": "4.79673000"
    },
    {
      "id": 44560,
      "name": "Neuves-Maisons",
      "latitude": "48.61811000",
      "longitude": "6.10544000"
    },
    {
      "id": 44582,
      "name": "Neuwiller-lès-Saverne",
      "latitude": "48.82506000",
      "longitude": "7.40513000"
    },
    {
      "id": 44588,
      "name": "Niderviller",
      "latitude": "48.71294000",
      "longitude": "7.10627000"
    },
    {
      "id": 44589,
      "name": "Niederbronn-les-Bains",
      "latitude": "48.95165000",
      "longitude": "7.64271000"
    },
    {
      "id": 44590,
      "name": "Niederhaslach",
      "latitude": "48.54264000",
      "longitude": "7.34282000"
    },
    {
      "id": 44591,
      "name": "Niederhausbergen",
      "latitude": "48.62400000",
      "longitude": "7.70210000"
    },
    {
      "id": 44592,
      "name": "Niedernai",
      "latitude": "48.45101000",
      "longitude": "7.51635000"
    },
    {
      "id": 44593,
      "name": "Niederschaeffolsheim",
      "latitude": "48.77241000",
      "longitude": "7.73862000"
    },
    {
      "id": 44600,
      "name": "Nilvange",
      "latitude": "49.34224000",
      "longitude": "6.04964000"
    },
    {
      "id": 44610,
      "name": "Nogent-le-Bas",
      "latitude": "48.01974000",
      "longitude": "5.33323000"
    },
    {
      "id": 44617,
      "name": "Nogent-sur-Seine",
      "latitude": "48.49372000",
      "longitude": "3.50262000"
    },
    {
      "id": 44635,
      "name": "Nomeny",
      "latitude": "48.88977000",
      "longitude": "6.22635000"
    },
    {
      "id": 44636,
      "name": "Nomexy",
      "latitude": "48.30741000",
      "longitude": "6.38572000"
    },
    {
      "id": 44641,
      "name": "Nordhouse",
      "latitude": "48.44833000",
      "longitude": "7.67326000"
    },
    {
      "id": 44644,
      "name": "Norroy-lès-Pont-à-Mousson",
      "latitude": "48.93495000",
      "longitude": "6.03078000"
    },
    {
      "id": 44661,
      "name": "Nouvion-sur-Meuse",
      "latitude": "49.69949000",
      "longitude": "4.79562000"
    },
    {
      "id": 44664,
      "name": "Nouzonville",
      "latitude": "49.81369000",
      "longitude": "4.74736000"
    },
    {
      "id": 44668,
      "name": "Novéant-sur-Moselle",
      "latitude": "49.02366000",
      "longitude": "6.04795000"
    },
    {
      "id": 44702,
      "name": "Obenheim",
      "latitude": "48.35975000",
      "longitude": "7.69200000"
    },
    {
      "id": 44703,
      "name": "Oberbronn",
      "latitude": "48.94020000",
      "longitude": "7.60700000"
    },
    {
      "id": 44704,
      "name": "Oberhaslach",
      "latitude": "48.55039000",
      "longitude": "7.33213000"
    },
    {
      "id": 44705,
      "name": "Oberhausbergen",
      "latitude": "48.60607000",
      "longitude": "7.68846000"
    },
    {
      "id": 44706,
      "name": "Oberhergheim",
      "latitude": "47.96668000",
      "longitude": "7.39516000"
    },
    {
      "id": 44707,
      "name": "Oberhoffen-sur-Moder",
      "latitude": "48.78366000",
      "longitude": "7.86347000"
    },
    {
      "id": 44708,
      "name": "Obermodern-Zutzendorf",
      "latitude": "48.85000000",
      "longitude": "7.53333000"
    },
    {
      "id": 44709,
      "name": "Obernai",
      "latitude": "48.46313000",
      "longitude": "7.48100000"
    },
    {
      "id": 44710,
      "name": "Oberschaeffolsheim",
      "latitude": "48.58643000",
      "longitude": "7.65018000"
    },
    {
      "id": 44714,
      "name": "Oderen",
      "latitude": "47.91036000",
      "longitude": "6.97463000"
    },
    {
      "id": 44716,
      "name": "Oermingen",
      "latitude": "49.00043000",
      "longitude": "7.12900000"
    },
    {
      "id": 48128,
      "name": "Œting",
      "latitude": "49.17291000",
      "longitude": "6.91472000"
    },
    {
      "id": 44719,
      "name": "Offenheim",
      "latitude": "48.63208000",
      "longitude": "7.61668000"
    },
    {
      "id": 44723,
      "name": "Ohlungen",
      "latitude": "48.81352000",
      "longitude": "7.70225000"
    },
    {
      "id": 44755,
      "name": "Orbey",
      "latitude": "48.12651000",
      "longitude": "7.16455000"
    },
    {
      "id": 44793,
      "name": "Ostheim",
      "latitude": "48.15995000",
      "longitude": "7.36976000"
    },
    {
      "id": 44795,
      "name": "Ostwald",
      "latitude": "48.54369000",
      "longitude": "7.71099000"
    },
    {
      "id": 44797,
      "name": "Ottange",
      "latitude": "49.44307000",
      "longitude": "6.01988000"
    },
    {
      "id": 44798,
      "name": "Otterswiller",
      "latitude": "48.72568000",
      "longitude": "7.37878000"
    },
    {
      "id": 44799,
      "name": "Ottmarsheim",
      "latitude": "47.78802000",
      "longitude": "7.50777000"
    },
    {
      "id": 44800,
      "name": "Ottrott",
      "latitude": "48.45642000",
      "longitude": "7.42556000"
    },
    {
      "id": 44826,
      "name": "Pagny-sur-Moselle",
      "latitude": "48.98365000",
      "longitude": "6.02069000"
    },
    {
      "id": 44852,
      "name": "Pargny-sur-Saulx",
      "latitude": "48.76866000",
      "longitude": "4.83758000"
    },
    {
      "id": 44875,
      "name": "Payns",
      "latitude": "48.38255000",
      "longitude": "3.97755000"
    },
    {
      "id": 44889,
      "name": "Peltre",
      "latitude": "49.07480000",
      "longitude": "6.22721000"
    },
    {
      "id": 44918,
      "name": "Petit-Réderching",
      "latitude": "49.05494000",
      "longitude": "7.30640000"
    },
    {
      "id": 44920,
      "name": "Petite-Rosselle",
      "latitude": "49.21177000",
      "longitude": "6.85607000"
    },
    {
      "id": 44937,
      "name": "Pfaffenheim",
      "latitude": "47.98567000",
      "longitude": "7.28928000"
    },
    {
      "id": 44938,
      "name": "Pfaffenhoffen",
      "latitude": "48.84220000",
      "longitude": "7.60714000"
    },
    {
      "id": 44939,
      "name": "Pfastatt",
      "latitude": "47.76915000",
      "longitude": "7.30295000"
    },
    {
      "id": 44940,
      "name": "Pfetterhouse",
      "latitude": "47.50128000",
      "longitude": "7.16598000"
    },
    {
      "id": 44941,
      "name": "Pfulgriesheim",
      "latitude": "48.64403000",
      "longitude": "7.67086000"
    },
    {
      "id": 44943,
      "name": "Phalsbourg",
      "latitude": "48.76771000",
      "longitude": "7.25820000"
    },
    {
      "id": 44948,
      "name": "Piennes",
      "latitude": "49.30964000",
      "longitude": "5.78009000"
    },
    {
      "id": 44961,
      "name": "Pierrepont",
      "latitude": "49.41646000",
      "longitude": "5.70908000"
    },
    {
      "id": 44964,
      "name": "Pierrevillers",
      "latitude": "49.22468000",
      "longitude": "6.10337000"
    },
    {
      "id": 44965,
      "name": "Pierry",
      "latitude": "49.02024000",
      "longitude": "3.94071000"
    },
    {
      "id": 44971,
      "name": "Piney",
      "latitude": "48.36366000",
      "longitude": "4.33325000"
    },
    {
      "id": 44991,
      "name": "Plainfaing",
      "latitude": "48.17284000",
      "longitude": "7.01539000"
    },
    {
      "id": 45002,
      "name": "Plappeville",
      "latitude": "49.13019000",
      "longitude": "6.12471000"
    },
    {
      "id": 45029,
      "name": "Plobsheim",
      "latitude": "48.46979000",
      "longitude": "7.72442000"
    },
    {
      "id": 45036,
      "name": "Plombières-les-Bains",
      "latitude": "47.96337000",
      "longitude": "6.45758000"
    },
    {
      "id": 45155,
      "name": "Pompey",
      "latitude": "48.76876000",
      "longitude": "6.12639000"
    },
    {
      "id": 45197,
      "name": "Pont-à-Mousson",
      "latitude": "48.90702000",
      "longitude": "6.05635000"
    },
    {
      "id": 45172,
      "name": "Pont-Saint-Vincent",
      "latitude": "48.60519000",
      "longitude": "6.09850000"
    },
    {
      "id": 45173,
      "name": "Pont-Sainte-Marie",
      "latitude": "48.31848000",
      "longitude": "4.09447000"
    },
    {
      "id": 45209,
      "name": "Pontfaverger-Moronvilliers",
      "latitude": "49.29702000",
      "longitude": "4.31657000"
    },
    {
      "id": 45219,
      "name": "Porcelette",
      "latitude": "49.15657000",
      "longitude": "6.65513000"
    },
    {
      "id": 45226,
      "name": "Port à Binson",
      "latitude": "49.08202000",
      "longitude": "3.75989000"
    },
    {
      "id": 45243,
      "name": "Portieux",
      "latitude": "48.34466000",
      "longitude": "6.34465000"
    },
    {
      "id": 45267,
      "name": "Pouru-Saint-Remy",
      "latitude": "49.68333000",
      "longitude": "5.08333000"
    },
    {
      "id": 45269,
      "name": "Pouxeux",
      "latitude": "48.10621000",
      "longitude": "6.57299000"
    },
    {
      "id": 45292,
      "name": "Prix-lès-Mézières",
      "latitude": "49.75549000",
      "longitude": "4.69113000"
    },
    {
      "id": 45327,
      "name": "Pulligny",
      "latitude": "48.53893000",
      "longitude": "6.14426000"
    },
    {
      "id": 45328,
      "name": "Pulnoy",
      "latitude": "48.70343000",
      "longitude": "6.25765000"
    },
    {
      "id": 45329,
      "name": "Pulversheim",
      "latitude": "47.83753000",
      "longitude": "7.30119000"
    },
    {
      "id": 45416,
      "name": "Raedersheim",
      "latitude": "47.88895000",
      "longitude": "7.28222000"
    },
    {
      "id": 45422,
      "name": "Rambervillers",
      "latitude": "48.34240000",
      "longitude": "6.63580000"
    },
    {
      "id": 45424,
      "name": "Ramonchamp",
      "latitude": "47.89429000",
      "longitude": "6.74171000"
    },
    {
      "id": 45432,
      "name": "Raon-aux-Bois",
      "latitude": "48.05686000",
      "longitude": "6.52098000"
    },
    {
      "id": 45686,
      "name": "Réding",
      "latitude": "48.75177000",
      "longitude": "7.10747000"
    },
    {
      "id": 45689,
      "name": "Réguisheim",
      "latitude": "47.89563000",
      "longitude": "7.35288000"
    },
    {
      "id": 45691,
      "name": "Réhon",
      "latitude": "49.49878000",
      "longitude": "5.75497000"
    },
    {
      "id": 45444,
      "name": "Reichshoffen",
      "latitude": "48.93287000",
      "longitude": "7.66561000"
    },
    {
      "id": 45445,
      "name": "Reichstett",
      "latitude": "48.64856000",
      "longitude": "7.75455000"
    },
    {
      "id": 45450,
      "name": "Reims",
      "latitude": "49.26526000",
      "longitude": "4.02853000"
    },
    {
      "id": 45451,
      "name": "Reiningue",
      "latitude": "47.75215000",
      "longitude": "7.23327000"
    },
    {
      "id": 45693,
      "name": "Rémelfing",
      "latitude": "49.08947000",
      "longitude": "7.08820000"
    },
    {
      "id": 45694,
      "name": "Rémilly",
      "latitude": "49.01359000",
      "longitude": "6.39219000"
    },
    {
      "id": 45452,
      "name": "Remiremont",
      "latitude": "48.01754000",
      "longitude": "6.58820000"
    },
    {
      "id": 45461,
      "name": "Renwez",
      "latitude": "49.83839000",
      "longitude": "4.60334000"
    },
    {
      "id": 45467,
      "name": "Rethel",
      "latitude": "49.50979000",
      "longitude": "4.36740000"
    },
    {
      "id": 45469,
      "name": "Retonfey",
      "latitude": "49.13648000",
      "longitude": "6.30634000"
    },
    {
      "id": 45477,
      "name": "Revigny-sur-Ornain",
      "latitude": "48.83016000",
      "longitude": "4.98558000"
    },
    {
      "id": 45478,
      "name": "Revin",
      "latitude": "49.94039000",
      "longitude": "4.63503000"
    },
    {
      "id": 45483,
      "name": "Rhinau",
      "latitude": "48.32017000",
      "longitude": "7.70527000"
    },
    {
      "id": 45490,
      "name": "Ribeauvillé",
      "latitude": "48.19510000",
      "longitude": "7.31938000"
    },
    {
      "id": 45493,
      "name": "Richardménil",
      "latitude": "48.59334000",
      "longitude": "6.16917000"
    },
    {
      "id": 45497,
      "name": "Richemont",
      "latitude": "49.27723000",
      "longitude": "6.16372000"
    },
    {
      "id": 45498,
      "name": "Richwiller",
      "latitude": "47.77995000",
      "longitude": "7.28067000"
    },
    {
      "id": 45500,
      "name": "Riedisheim",
      "latitude": "47.74847000",
      "longitude": "7.36716000"
    },
    {
      "id": 45513,
      "name": "Rilly-la-Montagne",
      "latitude": "49.16553000",
      "longitude": "4.04568000"
    },
    {
      "id": 45514,
      "name": "Rimogne",
      "latitude": "49.84075000",
      "longitude": "4.53941000"
    },
    {
      "id": 45523,
      "name": "Riquewihr",
      "latitude": "48.16672000",
      "longitude": "7.29707000"
    },
    {
      "id": 45534,
      "name": "Rixheim",
      "latitude": "47.74970000",
      "longitude": "7.40203000"
    },
    {
      "id": 45553,
      "name": "Rocroi",
      "latitude": "49.92610000",
      "longitude": "4.52220000"
    },
    {
      "id": 45556,
      "name": "Roeschwoog",
      "latitude": "48.82676000",
      "longitude": "8.03684000"
    },
    {
      "id": 45562,
      "name": "Rohrbach-lès-Bitche",
      "latitude": "49.04424000",
      "longitude": "7.26759000"
    },
    {
      "id": 45567,
      "name": "Rolampont",
      "latitude": "47.94951000",
      "longitude": "5.28560000"
    },
    {
      "id": 45575,
      "name": "Romanswiller",
      "latitude": "48.64556000",
      "longitude": "7.40762000"
    },
    {
      "id": 45577,
      "name": "Rombas",
      "latitude": "49.24946000",
      "longitude": "6.09398000"
    },
    {
      "id": 45580,
      "name": "Romilly-sur-Seine",
      "latitude": "48.51085000",
      "longitude": "3.72634000"
    },
    {
      "id": 45600,
      "name": "Rosenau",
      "latitude": "47.63688000",
      "longitude": "7.53598000"
    },
    {
      "id": 45601,
      "name": "Rosheim",
      "latitude": "48.49710000",
      "longitude": "7.47105000"
    },
    {
      "id": 45603,
      "name": "Rosières-aux-Salines",
      "latitude": "48.59301000",
      "longitude": "6.33199000"
    },
    {
      "id": 45605,
      "name": "Rosières-près-Troyes",
      "latitude": "48.26182000",
      "longitude": "4.07396000"
    },
    {
      "id": 45610,
      "name": "Rosselange",
      "latitude": "49.25780000",
      "longitude": "6.06890000"
    },
    {
      "id": 45613,
      "name": "Rothau",
      "latitude": "48.45687000",
      "longitude": "7.20772000"
    },
    {
      "id": 45619,
      "name": "Rouffach",
      "latitude": "47.95786000",
      "longitude": "7.30016000"
    },
    {
      "id": 45626,
      "name": "Rouhling",
      "latitude": "49.13888000",
      "longitude": "7.00446000"
    },
    {
      "id": 45655,
      "name": "Rozérieulles",
      "latitude": "49.10668000",
      "longitude": "6.08198000"
    },
    {
      "id": 45661,
      "name": "Ruelisheim",
      "latitude": "47.82405000",
      "longitude": "7.35744000"
    },
    {
      "id": 45671,
      "name": "Rumersheim-le-Haut",
      "latitude": "47.85124000",
      "longitude": "7.52079000"
    },
    {
      "id": 45677,
      "name": "Rupt-sur-Moselle",
      "latitude": "47.92271000",
      "longitude": "6.66291000"
    },
    {
      "id": 45678,
      "name": "Rurange-lès-Thionville",
      "latitude": "49.27599000",
      "longitude": "6.23184000"
    },
    {
      "id": 45679,
      "name": "Russ",
      "latitude": "48.49600000",
      "longitude": "7.25911000"
    },
    {
      "id": 45680,
      "name": "Russange",
      "latitude": "49.48283000",
      "longitude": "5.95204000"
    },
    {
      "id": 45750,
      "name": "Saint-Amarin",
      "latitude": "47.87494000",
      "longitude": "7.02940000"
    },
    {
      "id": 45753,
      "name": "Saint-Amé",
      "latitude": "48.02388000",
      "longitude": "6.66416000"
    },
    {
      "id": 45765,
      "name": "Saint-André-les-Vergers",
      "latitude": "48.28527000",
      "longitude": "4.05210000"
    },
    {
      "id": 45798,
      "name": "Saint-Avold",
      "latitude": "49.10465000",
      "longitude": "6.70402000"
    },
    {
      "id": 45826,
      "name": "Saint-Brice-Courcelles",
      "latitude": "49.26667000",
      "longitude": "3.98333000"
    },
    {
      "id": 45913,
      "name": "Saint-Dié-des-Vosges",
      "latitude": "48.28333000",
      "longitude": "6.95000000"
    },
    {
      "id": 45912,
      "name": "Saint-Dizier",
      "latitude": "48.63773000",
      "longitude": "4.94892000"
    },
    {
      "id": 46657,
      "name": "Saint-Étienne-lès-Remiremont",
      "latitude": "48.02287000",
      "longitude": "6.60868000"
    },
    {
      "id": 45994,
      "name": "Saint-Germain",
      "latitude": "48.25736000",
      "longitude": "4.03264000"
    },
    {
      "id": 46068,
      "name": "Saint-Hippolyte",
      "latitude": "48.23156000",
      "longitude": "7.37121000"
    },
    {
      "id": 46148,
      "name": "Saint-Julien-lès-Metz",
      "latitude": "49.13288000",
      "longitude": "6.20240000"
    },
    {
      "id": 46147,
      "name": "Saint-Julien-les-Villas",
      "latitude": "48.27127000",
      "longitude": "4.09901000"
    },
    {
      "id": 46158,
      "name": "Saint-Just-Sauvage",
      "latitude": "48.55478000",
      "longitude": "3.78449000"
    },
    {
      "id": 46172,
      "name": "Saint-Laurent",
      "latitude": "49.76449000",
      "longitude": "4.77193000"
    },
    {
      "id": 46223,
      "name": "Saint-Léonard",
      "latitude": "48.21638000",
      "longitude": "6.94355000"
    },
    {
      "id": 46196,
      "name": "Saint-Louis",
      "latitude": "47.59206000",
      "longitude": "7.55923000"
    },
    {
      "id": 46209,
      "name": "Saint-Lyé",
      "latitude": "48.36502000",
      "longitude": "3.99900000"
    },
    {
      "id": 46321,
      "name": "Saint-Maurice-sur-Moselle",
      "latitude": "47.85889000",
      "longitude": "6.82477000"
    },
    {
      "id": 46323,
      "name": "Saint-Max",
      "latitude": "48.70426000",
      "longitude": "6.20686000"
    },
    {
      "id": 46328,
      "name": "Saint-Memmie",
      "latitude": "48.95247000",
      "longitude": "4.38409000"
    },
    {
      "id": 46330,
      "name": "Saint-Menges",
      "latitude": "49.73873000",
      "longitude": "4.92628000"
    },
    {
      "id": 46340,
      "name": "Saint-Michel-sur-Meurthe",
      "latitude": "48.32219000",
      "longitude": "6.89024000"
    },
    {
      "id": 46342,
      "name": "Saint-Mihiel",
      "latitude": "48.88746000",
      "longitude": "5.55099000"
    },
    {
      "id": 46356,
      "name": "Saint-Nabord",
      "latitude": "48.05171000",
      "longitude": "6.58248000"
    },
    {
      "id": 46364,
      "name": "Saint-Nicolas-de-Port",
      "latitude": "48.62857000",
      "longitude": "6.29668000"
    },
    {
      "id": 46397,
      "name": "Saint-Parres-aux-Tertres",
      "latitude": "48.29780000",
      "longitude": "4.11752000"
    },
    {
      "id": 46461,
      "name": "Saint-Pouange",
      "latitude": "48.22656000",
      "longitude": "4.03979000"
    },
    {
      "id": 46471,
      "name": "Saint-Privat-la-Montagne",
      "latitude": "49.18768000",
      "longitude": "6.03874000"
    },
    {
      "id": 46672,
      "name": "Sainte-Croix-aux-Mines",
      "latitude": "48.26249000",
      "longitude": "7.22739000"
    },
    {
      "id": 46673,
      "name": "Sainte-Croix-en-Plaine",
      "latitude": "48.00876000",
      "longitude": "7.38556000"
    },
    {
      "id": 46704,
      "name": "Sainte-Marguerite",
      "latitude": "48.26735000",
      "longitude": "6.98439000"
    },
    {
      "id": 46710,
      "name": "Sainte-Marie-aux-Chênes",
      "latitude": "49.19262000",
      "longitude": "6.00150000"
    },
    {
      "id": 46711,
      "name": "Sainte-Marie-aux-Mines",
      "latitude": "48.24649000",
      "longitude": "7.18385000"
    },
    {
      "id": 46716,
      "name": "Sainte-Maure",
      "latitude": "48.34729000",
      "longitude": "4.05962000"
    },
    {
      "id": 46719,
      "name": "Sainte-Menehould",
      "latitude": "49.09008000",
      "longitude": "4.89733000"
    },
    {
      "id": 46725,
      "name": "Sainte-Savine",
      "latitude": "48.29637000",
      "longitude": "4.04642000"
    },
    {
      "id": 46739,
      "name": "Saizerais",
      "latitude": "48.79250000",
      "longitude": "6.04470000"
    },
    {
      "id": 46785,
      "name": "Sand",
      "latitude": "48.38319000",
      "longitude": "7.61233000"
    },
    {
      "id": 46809,
      "name": "Sarralbe",
      "latitude": "48.99858000",
      "longitude": "7.03074000"
    },
    {
      "id": 46811,
      "name": "Sarre-Union",
      "latitude": "48.93818000",
      "longitude": "7.09373000"
    },
    {
      "id": 46812,
      "name": "Sarrebourg",
      "latitude": "48.73558000",
      "longitude": "7.05720000"
    },
    {
      "id": 46813,
      "name": "Sarreguemines",
      "latitude": "49.10995000",
      "longitude": "7.06747000"
    },
    {
      "id": 46814,
      "name": "Sarreinsming",
      "latitude": "49.09121000",
      "longitude": "7.11053000"
    },
    {
      "id": 46815,
      "name": "Sarrewerden",
      "latitude": "48.92261000",
      "longitude": "7.08412000"
    },
    {
      "id": 46818,
      "name": "Sarry",
      "latitude": "48.91852000",
      "longitude": "4.40621000"
    },
    {
      "id": 46839,
      "name": "Saulcy-sur-Meurthe",
      "latitude": "48.23758000",
      "longitude": "6.96443000"
    },
    {
      "id": 46842,
      "name": "Saulnes",
      "latitude": "49.53189000",
      "longitude": "5.82130000"
    },
    {
      "id": 46843,
      "name": "Saulny",
      "latitude": "49.15770000",
      "longitude": "6.10929000"
    },
    {
      "id": 46846,
      "name": "Sault-lès-Rethel",
      "latitude": "49.49980000",
      "longitude": "4.36227000"
    },
    {
      "id": 46849,
      "name": "Saulxures-lès-Nancy",
      "latitude": "48.68872000",
      "longitude": "6.24353000"
    },
    {
      "id": 46850,
      "name": "Saulxures-sur-Moselotte",
      "latitude": "47.94894000",
      "longitude": "6.77040000"
    },
    {
      "id": 46853,
      "name": "Sausheim",
      "latitude": "47.78711000",
      "longitude": "7.37267000"
    },
    {
      "id": 46874,
      "name": "Saverne",
      "latitude": "48.74164000",
      "longitude": "7.36221000"
    },
    {
      "id": 46897,
      "name": "Scherwiller",
      "latitude": "48.28713000",
      "longitude": "7.42135000"
    },
    {
      "id": 46898,
      "name": "Schiltigheim",
      "latitude": "48.60749000",
      "longitude": "7.74931000"
    },
    {
      "id": 46899,
      "name": "Schirmeck",
      "latitude": "48.48313000",
      "longitude": "7.22004000"
    },
    {
      "id": 46900,
      "name": "Schirrhein",
      "latitude": "48.80161000",
      "longitude": "7.90588000"
    },
    {
      "id": 46901,
      "name": "Schnersheim",
      "latitude": "48.65741000",
      "longitude": "7.56701000"
    },
    {
      "id": 46904,
      "name": "Schœneck",
      "latitude": "49.21667000",
      "longitude": "6.91667000"
    },
    {
      "id": 46902,
      "name": "Schweighouse-sur-Moder",
      "latitude": "48.82009000",
      "longitude": "7.72810000"
    },
    {
      "id": 46903,
      "name": "Schwindratzheim",
      "latitude": "48.75582000",
      "longitude": "7.59898000"
    },
    {
      "id": 46908,
      "name": "Scy-Chazelles",
      "latitude": "49.11340000",
      "longitude": "6.11470000"
    },
    {
      "id": 46913,
      "name": "Sedan",
      "latitude": "49.70187000",
      "longitude": "4.94028000"
    },
    {
      "id": 46916,
      "name": "Seichamps",
      "latitude": "48.71492000",
      "longitude": "6.26139000"
    },
    {
      "id": 46928,
      "name": "Seingbouse",
      "latitude": "49.11341000",
      "longitude": "6.83186000"
    },
    {
      "id": 47136,
      "name": "Sélestat",
      "latitude": "48.26195000",
      "longitude": "7.44890000"
    },
    {
      "id": 46934,
      "name": "Seltz",
      "latitude": "48.89520000",
      "longitude": "8.10757000"
    },
    {
      "id": 46944,
      "name": "Senones",
      "latitude": "48.39475000",
      "longitude": "6.97818000"
    },
    {
      "id": 46947,
      "name": "Sentheim",
      "latitude": "47.75560000",
      "longitude": "7.05305000"
    },
    {
      "id": 46975,
      "name": "Serémange-Erzange",
      "latitude": "49.32062000",
      "longitude": "6.09092000"
    },
    {
      "id": 46957,
      "name": "Sermaize-les-Bains",
      "latitude": "48.78507000",
      "longitude": "4.91169000"
    },
    {
      "id": 46976,
      "name": "Sessenheim",
      "latitude": "48.79652000",
      "longitude": "7.98719000"
    },
    {
      "id": 47151,
      "name": "Sézanne",
      "latitude": "48.72047000",
      "longitude": "3.72339000"
    },
    {
      "id": 46989,
      "name": "Sierck-les-Bains",
      "latitude": "49.43942000",
      "longitude": "6.35816000"
    },
    {
      "id": 46990,
      "name": "Sierentz",
      "latitude": "47.65834000",
      "longitude": "7.45387000"
    },
    {
      "id": 46993,
      "name": "Signy-le-Petit",
      "latitude": "49.90277000",
      "longitude": "4.27990000"
    },
    {
      "id": 46994,
      "name": "Sigolsheim",
      "latitude": "48.13493000",
      "longitude": "7.29980000"
    },
    {
      "id": 46996,
      "name": "Sillery",
      "latitude": "49.19822000",
      "longitude": "4.13244000"
    },
    {
      "id": 47026,
      "name": "Solgne",
      "latitude": "48.96543000",
      "longitude": "6.29429000"
    },
    {
      "id": 47059,
      "name": "Soucht",
      "latitude": "48.95902000",
      "longitude": "7.33434000"
    },
    {
      "id": 47065,
      "name": "Souffelweyersheim",
      "latitude": "48.63540000",
      "longitude": "7.74141000"
    },
    {
      "id": 47066,
      "name": "Soufflenheim",
      "latitude": "48.83026000",
      "longitude": "7.96268000"
    },
    {
      "id": 47074,
      "name": "Soultz-Haut-Rhin",
      "latitude": "47.88849000",
      "longitude": "7.22860000"
    },
    {
      "id": 47075,
      "name": "Soultz-sous-Forêts",
      "latitude": "48.93693000",
      "longitude": "7.88110000"
    },
    {
      "id": 47076,
      "name": "Soultzeren",
      "latitude": "48.06394000",
      "longitude": "7.10233000"
    },
    {
      "id": 47077,
      "name": "Soultzmatt",
      "latitude": "47.96188000",
      "longitude": "7.23759000"
    },
    {
      "id": 47093,
      "name": "Spicheren",
      "latitude": "49.19252000",
      "longitude": "6.96611000"
    },
    {
      "id": 47097,
      "name": "Staffelfelden",
      "latitude": "47.82647000",
      "longitude": "7.25235000"
    },
    {
      "id": 47103,
      "name": "Steinbach",
      "latitude": "47.82140000",
      "longitude": "7.15279000"
    },
    {
      "id": 47104,
      "name": "Steinbourg",
      "latitude": "48.77028000",
      "longitude": "7.41354000"
    },
    {
      "id": 47105,
      "name": "Stenay",
      "latitude": "49.49489000",
      "longitude": "5.18606000"
    },
    {
      "id": 47106,
      "name": "Still",
      "latitude": "48.54982000",
      "longitude": "7.40444000"
    },
    {
      "id": 47107,
      "name": "Stiring-Wendel",
      "latitude": "49.20198000",
      "longitude": "6.93170000"
    },
    {
      "id": 47108,
      "name": "Stosswihr",
      "latitude": "48.05389000",
      "longitude": "7.09964000"
    },
    {
      "id": 47109,
      "name": "Stotzheim",
      "latitude": "48.37868000",
      "longitude": "7.49235000"
    },
    {
      "id": 47110,
      "name": "Strasbourg",
      "latitude": "48.58392000",
      "longitude": "7.74553000"
    },
    {
      "id": 47113,
      "name": "Suippes",
      "latitude": "49.12886000",
      "longitude": "4.53446000"
    },
    {
      "id": 47117,
      "name": "Sundhoffen",
      "latitude": "48.04263000",
      "longitude": "7.41320000"
    },
    {
      "id": 47118,
      "name": "Sundhouse",
      "latitude": "48.25110000",
      "longitude": "7.60427000"
    },
    {
      "id": 47119,
      "name": "Surbourg",
      "latitude": "48.91009000",
      "longitude": "7.84716000"
    },
    {
      "id": 47158,
      "name": "Taintrux",
      "latitude": "48.24944000",
      "longitude": "6.89963000"
    },
    {
      "id": 47159,
      "name": "Taissy",
      "latitude": "49.21509000",
      "longitude": "4.09406000"
    },
    {
      "id": 47160,
      "name": "Talange",
      "latitude": "49.23577000",
      "longitude": "6.17167000"
    },
    {
      "id": 47204,
      "name": "Tenteling",
      "latitude": "49.12544000",
      "longitude": "6.93751000"
    },
    {
      "id": 47211,
      "name": "Terville",
      "latitude": "49.34668000",
      "longitude": "6.13346000"
    },
    {
      "id": 47214,
      "name": "Teting-sur-Nied",
      "latitude": "49.05704000",
      "longitude": "6.66294000"
    },
    {
      "id": 47217,
      "name": "Thann",
      "latitude": "47.80789000",
      "longitude": "7.10301000"
    },
    {
      "id": 47219,
      "name": "Thaon-les-Vosges",
      "latitude": "48.25000000",
      "longitude": "6.41667000"
    },
    {
      "id": 47266,
      "name": "Théding",
      "latitude": "49.12847000",
      "longitude": "6.89220000"
    },
    {
      "id": 47231,
      "name": "Thierville-sur-Meuse",
      "latitude": "49.17050000",
      "longitude": "5.35266000"
    },
    {
      "id": 47232,
      "name": "Thil",
      "latitude": "49.47300000",
      "longitude": "5.90821000"
    },
    {
      "id": 47234,
      "name": "Thilay",
      "latitude": "49.87345000",
      "longitude": "4.80772000"
    },
    {
      "id": 47236,
      "name": "Thionville",
      "latitude": "49.35994000",
      "longitude": "6.16044000"
    },
    {
      "id": 47289,
      "name": "Tinqueux",
      "latitude": "49.25000000",
      "longitude": "3.98333000"
    },
    {
      "id": 47293,
      "name": "Tomblaine",
      "latitude": "48.68378000",
      "longitude": "6.21620000"
    },
    {
      "id": 47309,
      "name": "Toul",
      "latitude": "48.68075000",
      "longitude": "5.89115000"
    },
    {
      "id": 47326,
      "name": "Tournes",
      "latitude": "49.79700000",
      "longitude": "4.63856000"
    },
    {
      "id": 47334,
      "name": "Tours-sur-Marne",
      "latitude": "49.04873000",
      "longitude": "4.12060000"
    },
    {
      "id": 47402,
      "name": "Trémery",
      "latitude": "49.24610000",
      "longitude": "6.22369000"
    },
    {
      "id": 47362,
      "name": "Tressange",
      "latitude": "49.40271000",
      "longitude": "5.98084000"
    },
    {
      "id": 47372,
      "name": "Trieux",
      "latitude": "49.32462000",
      "longitude": "5.93049000"
    },
    {
      "id": 47380,
      "name": "Tronville-en-Barrois",
      "latitude": "48.71977000",
      "longitude": "5.27808000"
    },
    {
      "id": 47385,
      "name": "Troyes",
      "latitude": "48.30073000",
      "longitude": "4.08524000"
    },
    {
      "id": 47386,
      "name": "Truchtersheim",
      "latitude": "48.66313000",
      "longitude": "7.60752000"
    },
    {
      "id": 47410,
      "name": "Tucquegnieux",
      "latitude": "49.31010000",
      "longitude": "5.89448000"
    },
    {
      "id": 47415,
      "name": "Turckheim",
      "latitude": "48.08748000",
      "longitude": "7.27707000"
    },