{
  "id": 49,
  "name": "Western",
  "state_code": "WP",
  "latitude": "5.50000000",
  "longitude": "-2.50000000",
  "type": "region",
  "cities": [
    {
      "id": 52147,
      "name": "Aboso",
      "latitude": "5.36073000",
      "longitude": "-1.94856000"
    },
    {
      "id": 52160,
      "name": "Axim",
      "latitude": "4.86641000",
      "longitude": "-2.24181000"
    },
    {
      "id": 52166,
      "name": "Bibiani",
      "latitude": "6.46346000",
      "longitude": "-2.31938000"
    },
    {
      "id": 52197,
      "name": "Prestea",
      "latitude": "5.43385000",
      "longitude": "-2.14295000"
    },
    {
      "id": 52201,
      "name": "Sekondi-Takoradi",
      "latitude": "4.92678000",
      "longitude": "-1.75773000"
    },
    {
      "id": 52202,
      "name": "Shama Junction",
      "latitude": "5.01806000",
      "longitude": "-1.66437000"
    },
    {
      "id": 52207,
      "name": "Takoradi",
      "latitude": "4.89816000",
      "longitude": "-1.76029000"
    },
    {
      "id": 52209,
      "name": "Tarkwa",
      "latitude": "5.30383000",
      "longitude": "-1.98956000"
    }
  ],
  "country": {
    "id": 83,
    "name": "Ghana",
    "iso3": "GHA",
    "iso2": "GH",
    "numeric_code": "288",
    "phone_code": "233",
    "capital": "Accra",
    "currency": "GHS",
    "currency_name": "Ghanaian cedi",
    "currency_symbol": "GHâ‚µ",
    "tld": ".gh",
    "native": "Ghana",
    "region": "Africa",
    "subregion": "Western Africa",
    "timezones": [
      {
        "zoneName": "Africa/Accra",
        "gmtOffset": 0,
        "gmtOffsetName": "UTCÂ±00",
        "abbreviation": "GMT",
        "tzName": "Greenwich Mean Time"
      }
    ],
    "translations": {
      "kr": "ê°€ë‚˜",
      "pt-BR": "Gana",
      "pt": "Gana",
      "nl": "Ghana",
      "hr": "Gana",
      "fa": "ØºÙ†Ø§",
      "de": "Ghana",
      "es": "Ghana",
      "fr": "Ghana",
      "ja": "ã‚¬ãƒ¼ãƒŠ",
      "it": "Ghana",
      "cn": "åŠ çº³",
      "tr": "Gana"
    },
    "latitude": "8.00000000",
    "longitude": "-2.00000000",
    "emoji": "ðŸ‡¬ðŸ‡­",
    "emojiU": "U+1F1EC U+1F1ED"
  }
}