{
  "id": 4799,
  "name": "Occitanie",
  "state_code": "OCC",
  "latitude": "43.89272320",
  "longitude": "3.28276250",
  "type": "metropolitan region",
  "cities": [
    {
      "id": 39236,
      "name": "Abeilhan",
      "latitude": "43.44925000",
      "longitude": "3.29529000"
    },
    {
      "id": 39257,
      "name": "Agde",
      "latitude": "43.31083000",
      "longitude": "3.47583000"
    },
    {
      "id": 39274,
      "name": "Aiguefonde",
      "latitude": "43.49394000",
      "longitude": "2.31686000"
    },
    {
      "id": 39276,
      "name": "Aigues-Mortes",
      "latitude": "43.56683000",
      "longitude": "4.19068000"
    },
    {
      "id": 39277,
      "name": "Aigues-Vives",
      "latitude": "43.73790000",
      "longitude": "4.18066000"
    },
    {
      "id": 39284,
      "name": "Aimargues",
      "latitude": "43.68448000",
      "longitude": "4.20999000"
    },
    {
      "id": 39305,
      "name": "Albi",
      "latitude": "43.92980000",
      "longitude": "2.14800000"
    },
    {
      "id": 39306,
      "name": "Albias",
      "latitude": "44.09049000",
      "longitude": "1.44821000"
    },
    {
      "id": 39342,
      "name": "Alénya",
      "latitude": "42.63875000",
      "longitude": "2.98148000"
    },
    {
      "id": 39341,
      "name": "Alès",
      "latitude": "44.12489000",
      "longitude": "4.08082000"
    },
    {
      "id": 39314,
      "name": "Alignan-du-Vent",
      "latitude": "43.46945000",
      "longitude": "3.34165000"
    },
    {
      "id": 39340,
      "name": "Alzonne",
      "latitude": "43.25338000",
      "longitude": "2.17808000"
    },
    {
      "id": 39388,
      "name": "Andrest",
      "latitude": "43.31998000",
      "longitude": "0.06405000"
    },
    {
      "id": 39392,
      "name": "Anduze",
      "latitude": "44.05409000",
      "longitude": "3.98545000"
    },
    {
      "id": 39410,
      "name": "Aniane",
      "latitude": "43.68448000",
      "longitude": "3.58747000"
    },
    {
      "id": 39447,
      "name": "Aramon",
      "latitude": "43.89174000",
      "longitude": "4.68096000"
    },
    {
      "id": 39474,
      "name": "Argelers",
      "latitude": "42.54714000",
      "longitude": "3.02253000"
    },
    {
      "id": 39476,
      "name": "Argelès-Gazost",
      "latitude": "43.00258000",
      "longitude": "-0.09855000"
    },
    {
      "id": 39475,
      "name": "Argeliers",
      "latitude": "43.31217000",
      "longitude": "2.91046000"
    },
    {
      "id": 39488,
      "name": "Arles",
      "latitude": "42.45654000",
      "longitude": "2.63457000"
    },
    {
      "id": 39495,
      "name": "Armissan",
      "latitude": "43.18778000",
      "longitude": "3.09660000"
    },
    {
      "id": 39526,
      "name": "Arthès",
      "latitude": "43.95745000",
      "longitude": "2.21130000"
    },
    {
      "id": 39535,
      "name": "Arzens",
      "latitude": "43.19838000",
      "longitude": "2.20954000"
    },
    {
      "id": 39548,
      "name": "Aspet",
      "latitude": "43.01457000",
      "longitude": "0.80294000"
    },
    {
      "id": 39549,
      "name": "Aspiran",
      "latitude": "43.56586000",
      "longitude": "3.45031000"
    },
    {
      "id": 39551,
      "name": "Assas",
      "latitude": "43.70278000",
      "longitude": "3.90000000"
    },
    {
      "id": 39567,
      "name": "Aubais",
      "latitude": "43.75402000",
      "longitude": "4.14567000"
    },
    {
      "id": 39577,
      "name": "Aubiet",
      "latitude": "43.64631000",
      "longitude": "0.78441000"
    },
    {
      "id": 39584,
      "name": "Aubin",
      "latitude": "44.52809000",
      "longitude": "2.24439000"
    },
    {
      "id": 39586,
      "name": "Aubord",
      "latitude": "43.75827000",
      "longitude": "4.31105000"
    },
    {
      "id": 39591,
      "name": "Aucamville",
      "latitude": "43.67020000",
      "longitude": "1.42808000"
    },
    {
      "id": 39592,
      "name": "Auch",
      "latitude": "43.64540000",
      "longitude": "0.58793000"
    },
    {
      "id": 39617,
      "name": "Aumont-Aubrac",
      "latitude": "44.72205000",
      "longitude": "3.28466000"
    },
    {
      "id": 39625,
      "name": "Aureilhan",
      "latitude": "43.24337000",
      "longitude": "0.09581000"
    },
    {
      "id": 39627,
      "name": "Auriac-sur-Vendinelle",
      "latitude": "43.52416000",
      "longitude": "1.82640000"
    },
    {
      "id": 39629,
      "name": "Aurignac",
      "latitude": "43.21695000",
      "longitude": "0.88176000"
    },
    {
      "id": 39632,
      "name": "Aussillon",
      "latitude": "43.50293000",
      "longitude": "2.36791000"
    },
    {
      "id": 39633,
      "name": "Aussonne",
      "latitude": "43.68162000",
      "longitude": "1.31886000"
    },
    {
      "id": 39634,
      "name": "Auterive",
      "latitude": "43.35103000",
      "longitude": "1.47797000"
    },
    {
      "id": 39643,
      "name": "Auvillar",
      "latitude": "44.06863000",
      "longitude": "0.90192000"
    },
    {
      "id": 39652,
      "name": "Auzeville-Tolosane",
      "latitude": "43.52777000",
      "longitude": "1.48240000"
    },
    {
      "id": 39653,
      "name": "Auzielle",
      "latitude": "43.54165000",
      "longitude": "1.56574000"
    },
    {
      "id": 39681,
      "name": "Avèze",
      "latitude": "43.97116000",
      "longitude": "3.60097000"
    },
    {
      "id": 39670,
      "name": "Avignonet-Lauragais",
      "latitude": "43.36667000",
      "longitude": "1.80000000"
    },
    {
      "id": 39682,
      "name": "Ax-les-Thermes",
      "latitude": "42.71968000",
      "longitude": "1.83845000"
    },
    {
      "id": 39688,
      "name": "Ayguesvives",
      "latitude": "43.43636000",
      "longitude": "1.59505000"
    },
    {
      "id": 39696,
      "name": "Azille",
      "latitude": "43.27691000",
      "longitude": "2.65981000"
    },
    {
      "id": 39705,
      "name": "Bagard",
      "latitude": "44.07126000",
      "longitude": "4.05225000"
    },
    {
      "id": 39706,
      "name": "Bages",
      "latitude": "42.60588000",
      "longitude": "2.89350000"
    },
    {
      "id": 39707,
      "name": "Bagnac-sur-Célé",
      "latitude": "44.66667000",
      "longitude": "2.16667000"
    },
    {
      "id": 39714,
      "name": "Bagnères-de-Bigorre",
      "latitude": "43.06416000",
      "longitude": "0.14970000"
    },
    {
      "id": 39715,
      "name": "Bagnères-de-Luchon",
      "latitude": "42.79079000",
      "longitude": "0.59315000"
    },
    {
      "id": 39713,
      "name": "Bagnols-sur-Cèze",
      "latitude": "44.15990000",
      "longitude": "4.61776000"
    },
    {
      "id": 39718,
      "name": "Baho",
      "latitude": "42.70000000",
      "longitude": "2.82204000"
    },
    {
      "id": 39720,
      "name": "Baillargues",
      "latitude": "43.66267000",
      "longitude": "4.01681000"
    },
    {
      "id": 39741,
      "name": "Baixas",
      "latitude": "42.74969000",
      "longitude": "2.81002000"
    },
    {
      "id": 39745,
      "name": "Balaruc-le-Vieux",
      "latitude": "43.46140000",
      "longitude": "3.68530000"
    },
    {
      "id": 39746,
      "name": "Balaruc-les-Bains",
      "latitude": "43.44170000",
      "longitude": "3.67780000"
    },
    {
      "id": 39756,
      "name": "Balma",
      "latitude": "43.61111000",
      "longitude": "1.49944000"
    },
    {
      "id": 39762,
      "name": "Banyuls de la Marenda",
      "latitude": "42.48375000",
      "longitude": "3.12897000"
    },
    {
      "id": 39763,
      "name": "Banyuls-dels-Aspres",
      "latitude": "42.56567000",
      "longitude": "2.86667000"
    },
    {
      "id": 39768,
      "name": "Baraqueville",
      "latitude": "44.27655000",
      "longitude": "2.43184000"
    },
    {
      "id": 39770,
      "name": "Barbazan-Debat",
      "latitude": "43.19580000",
      "longitude": "0.12060000"
    },
    {
      "id": 39778,
      "name": "Barcelonne-du-Gers",
      "latitude": "43.70360000",
      "longitude": "-0.23619000"
    },
    {
      "id": 39784,
      "name": "Barjac",
      "latitude": "44.30743000",
      "longitude": "4.35146000"
    },
    {
      "id": 39797,
      "name": "Bassan",
      "latitude": "43.41060000",
      "longitude": "3.25396000"
    },
    {
      "id": 39830,
      "name": "Bazet",
      "latitude": "43.29145000",
      "longitude": "0.06728000"
    },
    {
      "id": 39831,
      "name": "Baziège",
      "latitude": "43.45454000",
      "longitude": "1.61399000"
    },
    {
      "id": 39836,
      "name": "Beaucaire",
      "latitude": "43.80806000",
      "longitude": "4.64417000"
    },
    {
      "id": 39850,
      "name": "Beaulieu",
      "latitude": "43.72861000",
      "longitude": "4.02194000"
    },
    {
      "id": 39863,
      "name": "Beaumont-de-Lomagne",
      "latitude": "43.88285000",
      "longitude": "0.98762000"
    },
    {
      "id": 39871,
      "name": "Beaumont-sur-Lèze",
      "latitude": "43.38095000",
      "longitude": "1.35826000"
    },
    {
      "id": 39878,
      "name": "Beaupuy",
      "latitude": "43.64713000",
      "longitude": "1.55517000"
    },
    {
      "id": 39896,
      "name": "Beauvoisin",
      "latitude": "43.71835000",
      "longitude": "4.32339000"
    },
    {
      "id": 39898,
      "name": "Beauzelle",
      "latitude": "43.66713000",
      "longitude": "1.37518000"
    },
    {
      "id": 40412,
      "name": "Bédarieux",
      "latitude": "43.61553000",
      "longitude": "3.15714000"
    },
    {
      "id": 39901,
      "name": "Belberaud",
      "latitude": "43.50557000",
      "longitude": "1.56725000"
    },
    {
      "id": 40420,
      "name": "Bélesta",
      "latitude": "42.90228000",
      "longitude": "1.93325000"
    },
    {
      "id": 39913,
      "name": "Bellegarde",
      "latitude": "43.75329000",
      "longitude": "4.51654000"
    },
    {
      "id": 39933,
      "name": "Belmont-sur-Rance",
      "latitude": "43.81981000",
      "longitude": "2.75524000"
    },
    {
      "id": 39934,
      "name": "Belpech",
      "latitude": "43.19957000",
      "longitude": "1.75157000"
    },
    {
      "id": 40428,
      "name": "Bérat",
      "latitude": "43.37857000",
      "longitude": "1.17572000"
    },
    {
      "id": 39956,
      "name": "Bernis",
      "latitude": "43.76913000",
      "longitude": "4.28713000"
    },
    {
      "id": 39973,
      "name": "Bessan",
      "latitude": "43.36196000",
      "longitude": "3.42288000"
    },
    {
      "id": 39982,
      "name": "Bessèges",
      "latitude": "44.29230000",
      "longitude": "4.09661000"
    },
    {
      "id": 39981,
      "name": "Bessières",
      "latitude": "43.79861000",
      "longitude": "1.60624000"
    },
    {
      "id": 40436,
      "name": "Béziers",
      "latitude": "43.34122000",
      "longitude": "3.21402000"
    },
    {
      "id": 40003,
      "name": "Bezouce",
      "latitude": "43.88229000",
      "longitude": "4.49072000"
    },
    {
      "id": 40007,
      "name": "Biars-sur-Cère",
      "latitude": "44.92629000",
      "longitude": "1.85403000"
    },
    {
      "id": 40037,
      "name": "Bizanet",
      "latitude": "43.16419000",
      "longitude": "2.87034000"
    },
    {
      "id": 40039,
      "name": "Bize-Minervois",
      "latitude": "43.31656000",
      "longitude": "2.87134000"
    },
    {
      "id": 40044,
      "name": "Blagnac",
      "latitude": "43.63276000",
      "longitude": "1.39399000"
    },
    {
      "id": 40060,
      "name": "Blauzac",
      "latitude": "43.96151000",
      "longitude": "4.36930000"
    },
    {
      "id": 40063,
      "name": "Blaye-les-Mines",
      "latitude": "44.03073000",
      "longitude": "2.13166000"
    },
    {
      "id": 40094,
      "name": "Boisseron",
      "latitude": "43.75795000",
      "longitude": "4.07970000"
    },
    {
      "id": 40095,
      "name": "Boisset-et-Gaujac",
      "latitude": "44.04749000",
      "longitude": "4.00861000"
    },
    {
      "id": 40107,
      "name": "Bompas",
      "latitude": "42.73333000",
      "longitude": "2.93333000"
    },
    {
      "id": 40157,
      "name": "Bouillargues",
      "latitude": "43.79733000",
      "longitude": "4.42853000"
    },
    {
      "id": 40161,
      "name": "Boujan-sur-Libron",
      "latitude": "43.36996000",
      "longitude": "3.24759000"
    },
    {
      "id": 40171,
      "name": "Bouloc",
      "latitude": "43.78163000",
      "longitude": "1.40522000"
    },
    {
      "id": 40173,
      "name": "Boulogne-sur-Gesse",
      "latitude": "43.30000000",
      "longitude": "0.65000000"
    },
    {
      "id": 40222,
      "name": "Bout-du-Pont-de-Larn",
      "latitude": "43.49738000",
      "longitude": "2.41642000"
    },
    {
      "id": 40234,
      "name": "Bouzigues",
      "latitude": "43.44810000",
      "longitude": "3.65781000"
    },
    {
      "id": 40243,
      "name": "Bozouls",
      "latitude": "44.47050000",
      "longitude": "2.72432000"
    },
    {
      "id": 40251,
      "name": "Bram",
      "latitude": "43.24376000",
      "longitude": "2.11341000"
    },
    {
      "id": 40256,
      "name": "Branoux-les-Taillades",
      "latitude": "44.21941000",
      "longitude": "3.99647000"
    },
    {
      "id": 40261,
      "name": "Brassac",
      "latitude": "43.62959000",
      "longitude": "2.49763000"
    },
    {
      "id": 40264,
      "name": "Brax",
      "latitude": "43.61793000",
      "longitude": "1.23957000"
    },
    {
      "id": 40275,
      "name": "Brens",
      "latitude": "43.88725000",
      "longitude": "1.90716000"
    },
    {
      "id": 40277,
      "name": "Bressols",
      "latitude": "43.96796000",
      "longitude": "1.33839000"
    },
    {
      "id": 40281,
      "name": "Bretenoux",
      "latitude": "44.91468000",
      "longitude": "1.84007000"
    },
    {
      "id": 40302,
      "name": "Briatexte",
      "latitude": "43.75237000",
      "longitude": "1.90879000"
    },
    {
      "id": 40342,
      "name": "Bruguières",
      "latitude": "43.72720000",
      "longitude": "1.40762000"
    },
    {
      "id": 40388,
      "name": "Burlats",
      "latitude": "43.63633000",
      "longitude": "2.31879000"
    },
    {
      "id": 40408,
      "name": "Buzet-sur-Tarn",
      "latitude": "43.77977000",
      "longitude": "1.63301000"
    },
    {
      "id": 40444,
      "name": "Cabestany",
      "latitude": "42.68132000",
      "longitude": "2.94122000"
    },
    {
      "id": 40447,
      "name": "Cabrières",
      "latitude": "43.90389000",
      "longitude": "4.47094000"
    },
    {
      "id": 40450,
      "name": "Cadalen",
      "latitude": "43.84933000",
      "longitude": "1.98089000"
    },
    {
      "id": 40458,
      "name": "Cagnac-les-Mines",
      "latitude": "43.98445000",
      "longitude": "2.14227000"
    },
    {
      "id": 40463,
      "name": "Cahors",
      "latitude": "44.44910000",
      "longitude": "1.43663000"
    },
    {
      "id": 40464,
      "name": "Cahuzac-sur-Vère",
      "latitude": "43.98268000",
      "longitude": "1.91052000"
    },
    {
      "id": 40467,
      "name": "Caissargues",
      "latitude": "43.79509000",
      "longitude": "4.37955000"
    },
    {
      "id": 40468,
      "name": "Cajarc",
      "latitude": "44.48546000",
      "longitude": "1.84261000"
    },
    {
      "id": 40474,
      "name": "Calmont",
      "latitude": "43.28718000",
      "longitude": "1.63031000"
    },
    {
      "id": 40480,
      "name": "Calvisson",
      "latitude": "43.78696000",
      "longitude": "4.19626000"
    },
    {
      "id": 40483,
      "name": "Camarès",
      "latitude": "43.82208000",
      "longitude": "2.88005000"
    },
    {
      "id": 40497,
      "name": "Campan",
      "latitude": "43.01587000",
      "longitude": "0.17846000"
    },
    {
      "id": 40502,
      "name": "Campsas",
      "latitude": "43.89591000",
      "longitude": "1.32677000"
    },
    {
      "id": 40506,
      "name": "Candillargues",
      "latitude": "43.62052000",
      "longitude": "4.06924000"
    },
    {
      "id": 40509,
      "name": "Canet",
      "latitude": "43.22744000",
      "longitude": "2.84800000"
    },
    {
      "id": 40510,
      "name": "Canet-en-Roussillon",
      "latitude": "42.70000000",
      "longitude": "3.01667000"
    },
    {
      "id": 40514,
      "name": "Canohès",
      "latitude": "42.65461000",
      "longitude": "2.83633000"
    },
    {
      "id": 40526,
      "name": "Capdenac-Gare",
      "latitude": "44.57567000",
      "longitude": "2.08079000"
    },
    {
      "id": 40527,
      "name": "Capendu",
      "latitude": "43.18596000",
      "longitude": "2.55677000"
    },
    {
      "id": 40528,
      "name": "Capestang",
      "latitude": "43.32791000",
      "longitude": "3.04447000"
    },
    {
      "id": 40533,
      "name": "Capvern",
      "latitude": "43.10357000",
      "longitude": "0.31604000"
    },
    {
      "id": 40534,
      "name": "Caraman",
      "latitude": "43.53271000",
      "longitude": "1.76002000"
    },
    {
      "id": 40537,
      "name": "Carbonne",
      "latitude": "43.29857000",
      "longitude": "1.22520000"
    },
    {
      "id": 40539,
      "name": "Carcassonne",
      "latitude": "43.21351000",
      "longitude": "2.35162000"
    },
    {
      "id": 40549,
      "name": "Carmaux",
      "latitude": "44.05099000",
      "longitude": "2.15795000"
    },
    {
      "id": 40568,
      "name": "Cassagnes-Bégonhès",
      "latitude": "44.16893000",
      "longitude": "2.53084000"
    },
    {
      "id": 40575,
      "name": "Castanet-Tolosan",
      "latitude": "43.51591000",
      "longitude": "1.49864000"
    },
    {
      "id": 40577,
      "name": "Castelginest",
      "latitude": "43.69382000",
      "longitude": "1.43440000"
    },
    {
      "id": 40580,
      "name": "Castelmaurou",
      "latitude": "43.67778000",
      "longitude": "1.53222000"
    },
    {
      "id": 40583,
      "name": "Castelnau-d'Estrétefonds",
      "latitude": "43.78367000",
      "longitude": "1.35904000"
    },
    {
      "id": 40584,
      "name": "Castelnau-de-Guers",
      "latitude": "43.43398000",
      "longitude": "3.43708000"
    },
    {
      "id": 40585,
      "name": "Castelnau-de-Lévis",
      "latitude": "43.93975000",
      "longitude": "2.08491000"
    },
    {
      "id": 40587,
      "name": "Castelnau-le-Lez",
      "latitude": "43.63333000",
      "longitude": "3.90000000"
    },
    {
      "id": 40582,
      "name": "Castelnau-Montratier",
      "latitude": "44.26667000",
      "longitude": "1.36667000"
    },
    {
      "id": 40588,
      "name": "Castelnaudary",
      "latitude": "43.31829000",
      "longitude": "1.95449000"
    },
    {
      "id": 40589,
      "name": "Castelsarrasin",
      "latitude": "44.04022000",
      "longitude": "1.10702000"
    },
    {
      "id": 40592,
      "name": "Castillon-du-Gard",
      "latitude": "43.96457000",
      "longitude": "4.55337000"
    },
    {
      "id": 40595,
      "name": "Castres",
      "latitude": "43.60589000",
      "longitude": "2.23992000"
    },
    {
      "id": 40597,
      "name": "Castries",
      "latitude": "43.67972000",
      "longitude": "3.98222000"
    },
    {
      "id": 40610,
      "name": "Caunes-Minervois",
      "latitude": "43.32555000",
      "longitude": "2.52541000"
    },
    {
      "id": 40612,
      "name": "Caussade",
      "latitude": "44.16080000",
      "longitude": "1.53913000"
    },
    {
      "id": 40613,
      "name": "Cauterets",
      "latitude": "42.88333000",
      "longitude": "-0.11667000"
    },
    {
      "id": 40616,
      "name": "Caux",
      "latitude": "43.50621000",
      "longitude": "3.36709000"
    },
    {
      "id": 40620,
      "name": "Caveirac",
      "latitude": "43.82437000",
      "longitude": "4.26664000"
    },
    {
      "id": 40623,
      "name": "Caylus",
      "latitude": "44.23607000",
      "longitude": "1.77168000"
    },
    {
      "id": 40624,
      "name": "Cazaubon",
      "latitude": "43.93431000",
      "longitude": "-0.06814000"
    },
    {
      "id": 40628,
      "name": "Cazères",
      "latitude": "43.20710000",
      "longitude": "1.08633000"
    },
    {
      "id": 40625,
      "name": "Cazes-Mondenard",
      "latitude": "44.22689000",
      "longitude": "1.20299000"
    },
    {
      "id": 40626,
      "name": "Cazilhac",
      "latitude": "43.18205000",
      "longitude": "2.36085000"
    },
    {
      "id": 40627,
      "name": "Cazouls-lès-Béziers",
      "latitude": "43.39218000",
      "longitude": "3.10100000"
    },
    {
      "id": 40637,
      "name": "Cendras",
      "latitude": "44.15000000",
      "longitude": "4.06667000"
    },
    {
      "id": 41393,
      "name": "Cépet",
      "latitude": "43.74885000",
      "longitude": "1.43168000"
    },
    {
      "id": 40645,
      "name": "Ceret",
      "latitude": "42.48533000",
      "longitude": "2.74804000"
    },
    {
      "id": 40654,
      "name": "Cers",
      "latitude": "43.32352000",
      "longitude": "3.30450000"
    },
    {
      "id": 40656,
      "name": "Cervera de la Marenda",
      "latitude": "42.44094000",
      "longitude": "3.16518000"
    },
    {
      "id": 40658,
      "name": "Cessenon-sur-Orb",
      "latitude": "43.45011000",
      "longitude": "3.05154000"
    },
    {
      "id": 40684,
      "name": "Chalabre",
      "latitude": "42.98248000",
      "longitude": "2.00538000"
    },
    {
      "id": 40755,
      "name": "Chanac",
      "latitude": "44.46614000",
      "longitude": "3.34327000"
    },
    {
      "id": 40913,
      "name": "Chirac",
      "latitude": "44.52289000",
      "longitude": "3.26652000"
    },
    {
      "id": 41023,
      "name": "Cintegabelle",
      "latitude": "43.31316000",
      "longitude": "1.53333000"
    },
    {
      "id": 41034,
      "name": "Claira",
      "latitude": "42.76036000",
      "longitude": "2.95572000"
    },
    {
      "id": 41041,
      "name": "Clapiers",
      "latitude": "43.65833000",
      "longitude": "3.88917000"
    },
    {
      "id": 41042,
      "name": "Clarensac",
      "latitude": "43.82536000",
      "longitude": "4.22047000"
    },
    {
      "id": 41043,
      "name": "Claret",
      "latitude": "43.86244000",
      "longitude": "3.90522000"
    },
    {
      "id": 41078,
      "name": "Codognan",
      "latitude": "43.73033000",
      "longitude": "4.22120000"
    },
    {
      "id": 41091,
      "name": "Collioure",
      "latitude": "42.52462000",
      "longitude": "3.08235000"
    },
    {
      "id": 41103,
      "name": "Colombiers",
      "latitude": "43.31424000",
      "longitude": "3.13947000"
    },
    {
      "id": 41105,
      "name": "Colombiès",
      "latitude": "44.34414000",
      "longitude": "2.33772000"
    },
    {
      "id": 41106,
      "name": "Colomiers",
      "latitude": "43.61058000",
      "longitude": "1.33467000"
    },
    {
      "id": 41108,
      "name": "Combaillaux",
      "latitude": "43.67191000",
      "longitude": "3.76767000"
    },
    {
      "id": 41126,
      "name": "Comps",
      "latitude": "43.85304000",
      "longitude": "4.60567000"
    },
    {
      "id": 41133,
      "name": "Condom",
      "latitude": "43.95816000",
      "longitude": "0.37199000"
    },
    {
      "id": 41147,
      "name": "Congénies",
      "latitude": "43.76667000",
      "longitude": "4.16667000"
    },
    {
      "id": 41150,
      "name": "Connaux",
      "latitude": "44.08919000",
      "longitude": "4.59387000"
    },
    {
      "id": 41153,
      "name": "Conques-sur-Orbiel",
      "latitude": "43.26667000",
      "longitude": "2.41667000"
    },
    {
      "id": 41161,
      "name": "Corbarieu",
      "latitude": "43.94415000",
      "longitude": "1.36881000"
    },
    {
      "id": 41174,
      "name": "Cordes-sur-Ciel",
      "latitude": "44.06667000",
      "longitude": "1.95000000"
    },
    {
      "id": 41187,
      "name": "Cornebarrieu",
      "latitude": "43.64895000",
      "longitude": "1.32407000"
    },
    {
      "id": 41188,
      "name": "Corneilhan",
      "latitude": "43.39957000",
      "longitude": "3.19147000"
    },
    {
      "id": 41189,
      "name": "Corneilla-del-Vercol",
      "latitude": "42.62390000",
      "longitude": "2.95216000"
    },
    {
      "id": 41190,
      "name": "Corneilla-la-Rivière",
      "latitude": "42.69675000",
      "longitude": "2.72962000"
    },
    {
      "id": 41224,
      "name": "Coufouleux",
      "latitude": "43.81713000",
      "longitude": "1.73078000"
    },
    {
      "id": 41227,
      "name": "Couiza",
      "latitude": "42.94198000",
      "longitude": "2.25453000"
    },
    {
      "id": 41256,
      "name": "Cournonsec",
      "latitude": "43.54944000",
      "longitude": "3.70556000"
    },
    {
      "id": 41257,
      "name": "Cournonterral",
      "latitude": "43.55889000",
      "longitude": "3.72000000"
    },
    {
      "id": 41265,
      "name": "Coursan",
      "latitude": "43.23370000",
      "longitude": "3.05712000"
    },
    {
      "id": 41296,
      "name": "Cransac",
      "latitude": "44.52411000",
      "longitude": "2.28370000"
    },
    {
      "id": 41303,
      "name": "Creissan",
      "latitude": "43.37524000",
      "longitude": "3.01196000"
    },
    {
      "id": 41304,
      "name": "Creissels",
      "latitude": "44.08588000",
      "longitude": "3.06071000"
    },
    {
      "id": 41364,
      "name": "Cugnaux",
      "latitude": "43.53635000",
      "longitude": "1.34428000"
    },
    {
      "id": 41373,
      "name": "Cunac",
      "latitude": "43.93010000",
      "longitude": "2.21878000"
    },
    {
      "id": 41386,
      "name": "Cuxac-Cabardès",
      "latitude": "43.37087000",
      "longitude": "2.28369000"
    },
    {
      "id": 41441,
      "name": "Daux",
      "latitude": "43.69506000",
      "longitude": "1.26892000"
    },
    {
      "id": 41445,
      "name": "Decazeville",
      "latitude": "44.56045000",
      "longitude": "2.25091000"
    },
    {
      "id": 41612,
      "name": "Département de l'Ariège",
      "latitude": "43.00000000",
      "longitude": "1.50000000"
    },
    {
      "id": 41614,
      "name": "Département de l'Aude",
      "latitude": "43.08333000",
      "longitude": "2.50000000"
    },
    {
      "id": 41615,
      "name": "Département de l'Aveyron",
      "latitude": "44.25000000",
      "longitude": "2.50000000"
    },
    {
      "id": 41618,
      "name": "Département de l'Hérault",
      "latitude": "43.66667000",
      "longitude": "3.50000000"
    },
    {
      "id": 41631,
      "name": "Département de la Lozère",
      "latitude": "44.50000000",
      "longitude": "3.50000000"
    },
    {
      "id": 41637,
      "name": "Département des Hautes-Pyrénées",
      "latitude": "43.03686000",
      "longitude": "0.18632000"
    },
    {
      "id": 41639,
      "name": "Département des Pyrénées-Orientales",
      "latitude": "42.60075000",
      "longitude": "2.58889000"
    },
    {
      "id": 41645,
      "name": "Département du Tarn-et-Garonne",
      "latitude": "44.00000000",
      "longitude": "1.16667000"
    },
    {
      "id": 41556,
      "name": "Dourgne",
      "latitude": "43.48381000",
      "longitude": "2.13989000"
    },
    {
      "id": 41583,
      "name": "Drémil-Lafage",
      "latitude": "43.59624000",
      "longitude": "1.60117000"
    },
    {
      "id": 41578,
      "name": "Druelle",
      "latitude": "44.36006000",
      "longitude": "2.50505000"
    },
    {
      "id": 41652,
      "name": "Eaunes",
      "latitude": "43.42079000",
      "longitude": "1.35397000"
    },
    {
      "id": 41653,
      "name": "Eauze",
      "latitude": "43.86055000",
      "longitude": "0.10199000"
    },
    {
      "id": 48031,
      "name": "el Voló",
      "latitude": "42.52424000",
      "longitude": "2.83336000"
    },
    {
      "id": 41664,
      "name": "Elne",
      "latitude": "42.60031000",
      "longitude": "2.97146000"
    },
    {
      "id": 48032,
      "name": "els Banys d'Arles",
      "latitude": "42.47289000",
      "longitude": "2.66916000"
    },
    {
      "id": 41681,
      "name": "Entraygues-sur-Truyère",
      "latitude": "44.64606000",
      "longitude": "2.56745000"
    },
    {
      "id": 41705,
      "name": "Escalquens",
      "latitude": "43.51744000",
      "longitude": "1.55893000"
    },
    {
      "id": 41716,
      "name": "Espalion",
      "latitude": "44.52237000",
      "longitude": "2.76265000"
    },
    {
      "id": 41719,
      "name": "Espéraza",
      "latitude": "42.93225000",
      "longitude": "2.22006000"
    },
    {
      "id": 41729,
      "name": "Estagel",
      "latitude": "42.77314000",
      "longitude": "2.69665000"
    },
    {
      "id": 41761,
      "name": "Fabrègues",
      "latitude": "43.55057000",
      "longitude": "3.77637000"
    },
    {
      "id": 41760,
      "name": "Fabrezan",
      "latitude": "43.13581000",
      "longitude": "2.69814000"
    },
    {
      "id": 41799,
      "name": "Fenouillet",
      "latitude": "43.68041000",
      "longitude": "1.39200000"
    },
    {
      "id": 41803,
      "name": "Ferrals-les-Corbières",
      "latitude": "43.15000000",
      "longitude": "2.73333000"
    },
    {
      "id": 41819,
      "name": "Figeac",
      "latitude": "44.60880000",
      "longitude": "2.03187000"
    },
    {
      "id": 41822,
      "name": "Finhan",
      "latitude": "43.91335000",
      "longitude": "1.22120000"
    },
    {
      "id": 41823,
      "name": "Firmi",
      "latitude": "44.54106000",
      "longitude": "2.30764000"
    },
    {
      "id": 41832,
      "name": "Flavin",
      "latitude": "44.28890000",
      "longitude": "2.60513000"
    },
    {
      "id": 41839,
      "name": "Fleurance",
      "latitude": "43.84824000",
      "longitude": "0.66302000"
    },
    {
      "id": 41845,
      "name": "Fleury",
      "latitude": "43.23095000",
      "longitude": "3.13745000"
    },
    {
      "id": 41860,
      "name": "Florac",
      "latitude": "44.32632000",
      "longitude": "3.59301000"
    },
    {
      "id": 41862,
      "name": "Florensac",
      "latitude": "43.38301000",
      "longitude": "3.46638000"
    },
    {
      "id": 41863,
      "name": "Flourens",
      "latitude": "43.59273000",
      "longitude": "1.56259000"
    },
    {
      "id": 41867,
      "name": "Foix",
      "latitude": "42.96046000",
      "longitude": "1.60787000"
    },
    {
      "id": 41872,
      "name": "Fonbeauzard",
      "latitude": "43.67830000",
      "longitude": "1.43440000"
    },
    {
      "id": 41874,
      "name": "Fonsorbes",
      "latitude": "43.53524000",
      "longitude": "1.22937000"
    },
    {
      "id": 41875,
      "name": "Font-Romeu-Odeillo-Via",
      "latitude": "42.50552000",
      "longitude": "2.04011000"
    },
    {
      "id": 41904,
      "name": "Fontenilles",
      "latitude": "43.55286000",
      "longitude": "1.19096000"
    },
    {
      "id": 41937,
      "name": "Fourques",
      "latitude": "43.69450000",
      "longitude": "4.60932000"
    },
    {
      "id": 41984,
      "name": "Fréjairolles",
      "latitude": "43.88094000",
      "longitude": "2.23151000"
    },
    {
      "id": 41975,
      "name": "Frontignan",
      "latitude": "43.44848000",
      "longitude": "3.75400000"
    },
    {
      "id": 41976,
      "name": "Fronton",
      "latitude": "43.83931000",
      "longitude": "1.38931000"
    },
    {
      "id": 41981,
      "name": "Frouzins",
      "latitude": "43.51482000",
      "longitude": "1.32523000"
    },
    {
      "id": 42011,
      "name": "Gagnac-sur-Garonne",
      "latitude": "43.69990000",
      "longitude": "1.37535000"
    },
    {
      "id": 42013,
      "name": "Gaillac",
      "latitude": "43.90160000",
      "longitude": "1.89686000"
    },
    {
      "id": 42014,
      "name": "Gaillac-Toulza",
      "latitude": "43.25536000",
      "longitude": "1.47141000"
    },
    {
      "id": 42022,
      "name": "Gallargues-le-Montueux",
      "latitude": "43.71667000",
      "longitude": "4.16667000"
    },
    {
      "id": 42029,
      "name": "Ganges",
      "latitude": "43.93380000",
      "longitude": "3.70784000"
    },
    {
      "id": 42036,
      "name": "Gard",
      "latitude": "44.01790000",
      "longitude": "4.28751000"
    },
    {
      "id": 42039,
      "name": "Gardouch",
      "latitude": "43.39096000",
      "longitude": "1.68313000"
    },
    {
      "id": 42044,
      "name": "Garidech",
      "latitude": "43.71076000",
      "longitude": "1.56036000"
    },
    {
      "id": 42047,
      "name": "Garons",
      "latitude": "43.76861000",
      "longitude": "4.42753000"
    },
    {
      "id": 42298,
      "name": "Générac",
      "latitude": "43.72830000",
      "longitude": "4.35000000"
    },
    {
      "id": 42073,
      "name": "Gerde",
      "latitude": "43.05567000",
      "longitude": "0.16688000"
    },
    {
      "id": 42075,
      "name": "Gers",
      "latitude": "43.71731000",
      "longitude": "0.45422000"
    },
    {
      "id": 42090,
      "name": "Gigean",
      "latitude": "43.50028000",
      "longitude": "3.71167000"
    },
    {
      "id": 42091,
      "name": "Gignac",
      "latitude": "43.65200000",
      "longitude": "3.55090000"
    },
    {
      "id": 42097,
      "name": "Gimont",
      "latitude": "43.62627000",
      "longitude": "0.87655000"
    },
    {
      "id": 42099,
      "name": "Ginestas",
      "latitude": "43.26645000",
      "longitude": "2.87038000"
    },
    {
      "id": 42104,
      "name": "Giroussens",
      "latitude": "43.76199000",
      "longitude": "1.77608000"
    },
    {
      "id": 42128,
      "name": "Gondrin",
      "latitude": "43.88466000",
      "longitude": "0.23737000"
    },
    {
      "id": 42144,
      "name": "Goudargues",
      "latitude": "44.21376000",
      "longitude": "4.46652000"
    },
    {
      "id": 42149,
      "name": "Gourdan-Polignan",
      "latitude": "43.07092000",
      "longitude": "0.57482000"
    },
    {
      "id": 42150,
      "name": "Gourdon",
      "latitude": "44.73742000",
      "longitude": "1.38297000"
    },
    {
      "id": 42163,
      "name": "Grabels",
      "latitude": "43.64797000",
      "longitude": "3.79865000"
    },
    {
      "id": 42165,
      "name": "Gragnague",
      "latitude": "43.68091000",
      "longitude": "1.58461000"
    },
    {
      "id": 42168,
      "name": "Gramat",
      "latitude": "44.78075000",
      "longitude": "1.71957000"
    },
    {
      "id": 42187,
      "name": "Gratentour",
      "latitude": "43.72360000",
      "longitude": "1.43234000"
    },
    {
      "id": 42188,
      "name": "Graulhet",
      "latitude": "43.76688000",
      "longitude": "1.98938000"
    },
    {
      "id": 42195,
      "name": "Grenade",
      "latitude": "43.76667000",
      "longitude": "1.28333000"
    },
    {
      "id": 42215,
      "name": "Grisolles",
      "latitude": "43.82920000",
      "longitude": "1.29673000"
    },
    {
      "id": 42230,
      "name": "Gruissan",
      "latitude": "43.10759000",
      "longitude": "3.08651000"
    },
    {
      "id": 42341,
      "name": "Haute-Garonne",
      "latitude": "43.38724000",
      "longitude": "1.22191000"
    },
    {
      "id": 42464,
      "name": "Hérépian",
      "latitude": "43.59300000",
      "longitude": "3.11595000"
    },
    {
      "id": 42420,
      "name": "Horgues",
      "latitude": "43.18865000",
      "longitude": "0.08733000"
    },
    {
      "id": 42469,
      "name": "Ibos",
      "latitude": "43.23333000",
      "longitude": "0.00000000"
    },
    {
      "id": 42479,
      "name": "Ille-sur-Têt",
      "latitude": "42.67069000",
      "longitude": "2.62162000"
    },
    {
      "id": 42523,
      "name": "Jacou",
      "latitude": "43.66139000",
      "longitude": "3.91222000"
    },
    {
      "id": 42548,
      "name": "Jegun",
      "latitude": "43.76667000",
      "longitude": "0.46667000"
    },
    {
      "id": 42560,
      "name": "Jonquières-Saint-Vincent",
      "latitude": "43.82809000",
      "longitude": "4.56327000"
    },
    {
      "id": 42586,
      "name": "Juillan",
      "latitude": "43.19937000",
      "longitude": "0.02570000"
    },
    {
      "id": 42598,
      "name": "Juvignac",
      "latitude": "43.61389000",
      "longitude": "3.81056000"
    },
    {
      "id": 42627,
      "name": "L'Union",
      "latitude": "43.66042000",
      "longitude": "1.48264000"
    },
    {
      "id": 43706,
      "name": "L’Isle-en-Dodon",
      "latitude": "43.38428000",
      "longitude": "0.83513000"
    },
    {
      "id": 43704,
      "name": "L’Isle-Jourdain",
      "latitude": "43.61218000",
      "longitude": "1.08219000"
    },
    {
      "id": 42634,
      "name": "La Barthe-de-Neste",
      "latitude": "43.08123000",
      "longitude": "0.38438000"
    },
    {
      "id": 42664,
      "name": "La Calmette",
      "latitude": "43.92283000",
      "longitude": "4.26617000"
    },
    {
      "id": 42665,
      "name": "La Canourgue",
      "latitude": "44.43133000",
      "longitude": "3.21584000"
    },
    {
      "id": 42669,
      "name": "La Cavalerie",
      "latitude": "44.00961000",
      "longitude": "3.15840000"
    },
    {
      "id": 42753,
      "name": "La Fouillade",
      "latitude": "44.23072000",
      "longitude": "2.03989000"
    },
    {
      "id": 42772,
      "name": "La Grande-Motte",
      "latitude": "43.56667000",
      "longitude": "4.08333000"
    },
    {
      "id": 48033,
      "name": "la Guingueta d'Ix",
      "latitude": "42.43416000",
      "longitude": "1.94391000"
    },
    {
      "id": 42794,
      "name": "La Loubière",
      "latitude": "44.37143000",
      "longitude": "2.66825000"
    },
    {
      "id": 42827,
      "name": "La Palme",
      "latitude": "42.97518000",
      "longitude": "2.99243000"
    },
    {
      "id": 48034,
      "name": "la Roca d'Albera",
      "latitude": "42.52130000",
      "longitude": "2.93374000"
    },
    {
      "id": 42871,
      "name": "La Salvetat-Peyralès",
      "latitude": "44.21940000",
      "longitude": "2.20297000"
    },
    {
      "id": 42872,
      "name": "La Salvetat-Saint-Gilles",
      "latitude": "43.57622000",
      "longitude": "1.27192000"
    },
    {
      "id": 42873,
      "name": "La Salvetat-sur-Agout",
      "latitude": "43.60000000",
      "longitude": "2.71667000"
    },
    {
      "id": 42891,
      "name": "La Tour-du-Crieu",
      "latitude": "43.10471000",
      "longitude": "1.65275000"
    },
    {
      "id": 42894,
      "name": "La Tour-sur-Orb",
      "latitude": "43.65186000",
      "longitude": "3.15071000"
    },
    {
      "id": 42922,
      "name": "Labarthe-Rivière",
      "latitude": "43.08100000",
      "longitude": "0.67134000"
    },
    {
      "id": 42923,
      "name": "Labarthe-sur-Lèze",
      "latitude": "43.45206000",
      "longitude": "1.39968000"
    },
    {
      "id": 42924,
      "name": "Labastide-Beauvoir",
      "latitude": "43.48148000",
      "longitude": "1.66543000"
    },
    {
      "id": 42925,
      "name": "Labastide-Rouairoux",
      "latitude": "43.47566000",
      "longitude": "2.63929000"
    },
    {
      "id": 42926,
      "name": "Labastide-Saint-Georges",
      "latitude": "43.69962000",
      "longitude": "1.84585000"
    },
    {
      "id": 42927,
      "name": "Labastide-Saint-Pierre",
      "latitude": "43.91769000",
      "longitude": "1.36628000"
    },
    {
      "id": 42928,
      "name": "Labastide-Saint-Sernin",
      "latitude": "43.73743000",
      "longitude": "1.46985000"
    },
    {
      "id": 42929,
      "name": "Labastidette",
      "latitude": "43.45952000",
      "longitude": "1.24525000"
    },
    {
      "id": 42939,
      "name": "Labège",
      "latitude": "43.53039000",
      "longitude": "1.53596000"
    },
    {
      "id": 42937,
      "name": "Labruguière",
      "latitude": "43.53858000",
      "longitude": "2.26392000"
    },
    {
      "id": 42942,
      "name": "Lacapelle-Marival",
      "latitude": "44.72773000",
      "longitude": "1.92465000"
    },
    {
      "id": 42943,
      "name": "Lacasse",
      "latitude": "43.39873000",
      "longitude": "1.26951000"
    },
    {
      "id": 42944,
      "name": "Lacaune",
      "latitude": "43.70660000",
      "longitude": "2.69293000"
    },
    {
      "id": 42947,
      "name": "Lacroix-Falgarde",
      "latitude": "43.49968000",
      "longitude": "1.40985000"
    },
    {
      "id": 42949,
      "name": "Lacrouzette",
      "latitude": "43.66030000",
      "longitude": "2.34838000"
    },
    {
      "id": 42953,
      "name": "Lafrançaise",
      "latitude": "44.12791000",
      "longitude": "1.24141000"
    },
    {
      "id": 42954,
      "name": "Lagardelle-sur-Lèze",
      "latitude": "43.41143000",
      "longitude": "1.38920000"
    },
    {
      "id": 42955,
      "name": "Lagarrigue",
      "latitude": "43.57765000",
      "longitude": "2.27784000"
    },
    {
      "id": 42963,
      "name": "Lagrave",
      "latitude": "43.89734000",
      "longitude": "1.99268000"
    },
    {
      "id": 42965,
      "name": "Laguiole",
      "latitude": "44.68465000",
      "longitude": "2.84666000"
    },
    {
      "id": 42971,
      "name": "Laissac",
      "latitude": "44.38085000",
      "longitude": "2.82154000"
    },
    {
      "id": 42973,
      "name": "Lalbenque",
      "latitude": "44.33929000",
      "longitude": "1.54501000"
    },
    {
      "id": 42977,
      "name": "Laloubère",
      "latitude": "43.20430000",
      "longitude": "0.07296000"
    },
    {
      "id": 42978,
      "name": "Lamagistère",
      "latitude": "44.12488000",
      "longitude": "0.82486000"
    },
    {
      "id": 42979,
      "name": "Lamalou-les-Bains",
      "latitude": "43.59786000",
      "longitude": "3.08052000"
    },
    {
      "id": 43023,
      "name": "Langlade",
      "latitude": "43.80284000",
      "longitude": "4.25232000"
    },
    {
      "id": 43025,
      "name": "Langogne",
      "latitude": "44.72726000",
      "longitude": "3.85539000"
    },
    {
      "id": 43035,
      "name": "Lannemezan",
      "latitude": "43.12517000",
      "longitude": "0.38401000"
    },
    {
      "id": 43046,
      "name": "Lansargues",
      "latitude": "43.65157000",
      "longitude": "4.07495000"
    },
    {
      "id": 43047,
      "name": "Lanta",
      "latitude": "43.56667000",
      "longitude": "1.66667000"
    },
    {
      "id": 43060,
      "name": "Lapeyrouse-Fossat",
      "latitude": "43.69973000",
      "longitude": "1.51049000"
    },
    {
      "id": 43075,
      "name": "Laroque",
      "latitude": "43.92320000",
      "longitude": "3.72397000"
    },
    {
      "id": 43077,
      "name": "Laroque-d’Olmes",
      "latitude": "42.96785000",
      "longitude": "1.86677000"
    },
    {
      "id": 43084,
      "name": "Lasalle",
      "latitude": "44.04530000",
      "longitude": "3.85477000"
    },
    {
      "id": 43091,
      "name": "Latour-Bas-Elne",
      "latitude": "42.60646000",
      "longitude": "3.00201000"
    },
    {
      "id": 43093,
      "name": "Lattes",
      "latitude": "43.56752000",
      "longitude": "3.90460000"
    },
    {
      "id": 43094,
      "name": "Laudun-l'Ardoise",
      "latitude": "44.10000000",
      "longitude": "4.66667000"
    },
    {
      "id": 43095,
      "name": "Launac",
      "latitude": "43.74357000",
      "longitude": "1.18172000"
    },
    {
      "id": 43096,
      "name": "Launaguet",
      "latitude": "43.67818000",
      "longitude": "1.45603000"
    },
    {
      "id": 43097,
      "name": "Laure-Minervois",
      "latitude": "43.27106000",
      "longitude": "2.52031000"
    },
    {
      "id": 43098,
      "name": "Laurens",
      "latitude": "43.52238000",
      "longitude": "3.19714000"
    },
    {
      "id": 43104,
      "name": "Lautrec",
      "latitude": "43.70591000",
      "longitude": "2.13925000"
    },
    {
      "id": 43106,
      "name": "Lauzerte",
      "latitude": "44.25535000",
      "longitude": "1.13817000"
    },
    {
      "id": 43108,
      "name": "Laval-Pradel",
      "latitude": "44.20665000",
      "longitude": "4.06591000"
    },
    {
      "id": 43109,
      "name": "Lavalette",
      "latitude": "43.18428000",
      "longitude": "2.26825000"
    },
    {
      "id": 43113,
      "name": "Lavaur",
      "latitude": "43.69847000",
      "longitude": "1.81858000"
    },
    {
      "id": 43114,
      "name": "Lavelanet",
      "latitude": "42.93127000",
      "longitude": "1.84656000"
    },
    {
      "id": 43116,
      "name": "Lavernose-Lacasse",
      "latitude": "43.39700000",
      "longitude": "1.26205000"
    },
    {
      "id": 43120,
      "name": "Lavérune",
      "latitude": "43.58639000",
      "longitude": "3.80611000"
    },
    {
      "id": 43118,
      "name": "Lavit",
      "latitude": "43.95674000",
      "longitude": "0.92010000"
    },
    {
      "id": 43126,
      "name": "Le Barcarès",
      "latitude": "42.78773000",
      "longitude": "3.03656000"
    },
    {
      "id": 43142,
      "name": "Le Bousquet-d’Orb",
      "latitude": "43.69242000",
      "longitude": "3.16746000"
    },
    {
      "id": 43151,
      "name": "Le Cailar",
      "latitude": "43.67923000",
      "longitude": "4.23576000"
    },
    {
      "id": 43156,
      "name": "Le Cap d'Agde",
      "latitude": "43.27796000",
      "longitude": "3.51357000"
    },
    {
      "id": 43178,
      "name": "Le Crès",
      "latitude": "43.64807000",
      "longitude": "3.93976000"
    },
    {
      "id": 43185,
      "name": "Le Fauga",
      "latitude": "43.39619000",
      "longitude": "1.29571000"
    },
    {
      "id": 43190,
      "name": "Le Fousseret",
      "latitude": "43.28205000",
      "longitude": "1.06624000"
    },
    {
      "id": 43193,
      "name": "Le Garric",
      "latitude": "44.00932000",
      "longitude": "2.16431000"
    },
    {
      "id": 43200,
      "name": "Le Grau-du-Roi",
      "latitude": "43.53881000",
      "longitude": "4.13559000"
    },
    {
      "id": 43206,
      "name": "Le Houga",
      "latitude": "43.77464000",
      "longitude": "-0.17833000"
    },
    {
      "id": 43219,
      "name": "Le Malzieu-Ville",
      "latitude": "44.85699000",
      "longitude": "3.33302000"
    },
    {
      "id": 43236,
      "name": "Le Monastère",
      "latitude": "44.34165000",
      "longitude": "2.57956000"
    },
    {
      "id": 43279,
      "name": "Le Pouget",
      "latitude": "43.59195000",
      "longitude": "3.52423000"
    },
    {
      "id": 43280,
      "name": "Le Poujol-sur-Orb",
      "latitude": "43.57919000",
      "longitude": "3.06156000"
    },
    {
      "id": 43300,
      "name": "Le Sequestre",
      "latitude": "43.91076000",
      "longitude": "2.11804000"
    },
    {
      "id": 43301,
      "name": "Le Soler",
      "latitude": "42.68101000",
      "longitude": "2.79335000"
    },
    {
      "id": 43334,
      "name": "Le Vigan",
      "latitude": "44.74075000",
      "longitude": "1.43963000"
    },
    {
      "id": 43339,
      "name": "Lectoure",
      "latitude": "43.93464000",
      "longitude": "0.62107000"
    },
    {
      "id": 43683,
      "name": "Lédenon",
      "latitude": "43.91349000",
      "longitude": "4.51444000"
    },
    {
      "id": 43684,
      "name": "Lédignan",
      "latitude": "43.98690000",
      "longitude": "4.10644000"
    },
    {
      "id": 43685,
      "name": "Léguevin",
      "latitude": "43.60028000",
      "longitude": "1.23236000"
    },
    {
      "id": 43363,
      "name": "Les Angles",
      "latitude": "43.95806000",
      "longitude": "4.76342000"
    },
    {
      "id": 43403,
      "name": "Les Mages",
      "latitude": "44.22862000",
      "longitude": "4.16946000"
    },
    {
      "id": 43407,
      "name": "Les Matelles",
      "latitude": "43.72905000",
      "longitude": "3.81360000"
    },
    {
      "id": 43428,
      "name": "Les Salles-du-Gardon",
      "latitude": "44.20790000",
      "longitude": "4.03689000"
    },
    {
      "id": 43439,
      "name": "Lespignan",
      "latitude": "43.27366000",
      "longitude": "3.17224000"
    },
    {
      "id": 43440,
      "name": "Lespinasse",
      "latitude": "43.71206000",
      "longitude": "1.38462000"
    },
    {
      "id": 43445,
      "name": "Leucate",
      "latitude": "42.91056000",
      "longitude": "3.02944000"
    },
    {
      "id": 43693,
      "name": "Lévignac",
      "latitude": "43.66667000",
      "longitude": "1.20000000"
    },
    {
      "id": 43456,
      "name": "Leyme",
      "latitude": "44.78622000",
      "longitude": "1.89897000"
    },
    {
      "id": 43695,
      "name": "Lézan",
      "latitude": "44.01667000",
      "longitude": "4.05000000"
    },
    {
      "id": 43697,
      "name": "Lézat-sur-Lèze",
      "latitude": "43.27734000",
      "longitude": "1.34686000"
    },
    {
      "id": 43698,
      "name": "Lézignan-Corbières",
      "latitude": "43.19765000",
      "longitude": "2.76142000"
    },
    {
      "id": 43699,
      "name": "Lézignan-la-Cèbe",
      "latitude": "43.49368000",
      "longitude": "3.43708000"
    },
    {
      "id": 43462,
      "name": "Lherm",
      "latitude": "43.43127000",
      "longitude": "1.22239000"
    },
    {
      "id": 43470,
      "name": "Lieuran-lès-Béziers",
      "latitude": "43.41860000",
      "longitude": "3.23719000"
    },
    {
      "id": 43475,
      "name": "Lignan-sur-Orb",
      "latitude": "43.38462000",
      "longitude": "3.16891000"
    },
    {
      "id": 43496,
      "name": "Limoux",
      "latitude": "43.05487000",
      "longitude": "2.22173000"
    },
    {
      "id": 43509,
      "name": "Lisle-sur-Tarn",
      "latitude": "43.85249000",
      "longitude": "1.81099000"
    },
    {
      "id": 43518,
      "name": "Livinhac-le-Haut",
      "latitude": "44.59212000",
      "longitude": "2.23117000"
    },
    {
      "id": 43526,
      "name": "Llupia",
      "latitude": "42.62074000",
      "longitude": "2.76924000"
    },
    {
      "id": 43537,
      "name": "Lodève",
      "latitude": "43.73166000",
      "longitude": "3.31941000"
    },
    {
      "id": 43547,
      "name": "Lombez",
      "latitude": "43.47501000",
      "longitude": "0.91119000"
    },
    {
      "id": 43552,
      "name": "Longages",
      "latitude": "43.35398000",
      "longitude": "1.23905000"
    },
    {
      "id": 43597,
      "name": "Lot",
      "latitude": "44.62703000",
      "longitude": "1.63461000"
    },
    {
      "id": 43605,
      "name": "Loupian",
      "latitude": "43.44886000",
      "longitude": "3.61381000"
    },
    {
      "id": 43608,
      "name": "Lourdes",
      "latitude": "43.10000000",
      "longitude": "-0.05000000"
    },
    {
      "id": 43629,
      "name": "Luc-la-Primaube",
      "latitude": "44.31439000",
      "longitude": "2.53552000"
    },
    {
      "id": 43652,
      "name": "Lunel",
      "latitude": "43.67778000",
      "longitude": "4.13611000"
    },
    {
      "id": 43653,
      "name": "Lunel-Viel",
      "latitude": "43.67890000",
      "longitude": "4.09250000"
    },
    {
      "id": 43670,
      "name": "Luz-Saint-Sauveur",
      "latitude": "42.87191000",
      "longitude": "-0.00323000"
    },
    {
      "id": 43672,
      "name": "Luzech",
      "latitude": "44.47818000",
      "longitude": "1.28704000"
    },
    {
      "id": 43717,
      "name": "Magalas",
      "latitude": "43.47095000",
      "longitude": "3.22338000"
    },
    {
      "id": 43776,
      "name": "Manduel",
      "latitude": "43.81855000",
      "longitude": "4.47247000"
    },
    {
      "id": 43792,
      "name": "Maraussan",
      "latitude": "43.36895000",
      "longitude": "3.15643000"
    },
    {
      "id": 43801,
      "name": "Marciac",
      "latitude": "43.52321000",
      "longitude": "0.16091000"
    },
    {
      "id": 43804,
      "name": "Marcillac-Vallon",
      "latitude": "44.47464000",
      "longitude": "2.46454000"
    },
    {
      "id": 43814,
      "name": "Marcorignan",
      "latitude": "43.22634000",
      "longitude": "2.92281000"
    },
    {
      "id": 43837,
      "name": "Marguerittes",
      "latitude": "43.85960000",
      "longitude": "4.44517000"
    },
    {
      "id": 43871,
      "name": "Marquefave",
      "latitude": "43.31766000",
      "longitude": "1.24661000"
    },
    {
      "id": 43882,
      "name": "Marseillan",
      "latitude": "43.35618000",
      "longitude": "3.52795000"
    },
    {
      "id": 43906,
      "name": "Marsillargues",
      "latitude": "43.66424000",
      "longitude": "4.17448000"
    },
    {
      "id": 43908,
      "name": "Marssac-sur-Tarn",
      "latitude": "43.91768000",
      "longitude": "2.02921000"
    },
    {
      "id": 43909,
      "name": "Martel",
      "latitude": "44.93667000",
      "longitude": "1.60851000"
    },
    {
      "id": 43921,
      "name": "Martres-Tolosane",
      "latitude": "43.19929000",
      "longitude": "1.01056000"
    },
    {
      "id": 43922,
      "name": "Marvejols",
      "latitude": "44.55378000",
      "longitude": "3.29137000"
    },
    {
      "id": 43932,
      "name": "Masseube",
      "latitude": "43.42984000",
      "longitude": "0.57810000"
    },
    {
      "id": 43946,
      "name": "Maubourguet",
      "latitude": "43.46824000",
      "longitude": "0.03578000"
    },
    {
      "id": 43947,
      "name": "Mauguio",
      "latitude": "43.61810000",
      "longitude": "4.00739000"
    },
    {
      "id": 43953,
      "name": "Maureilhan",
      "latitude": "43.35000000",
      "longitude": "3.11667000"
    },
    {
      "id": 43954,
      "name": "Maureillas-las-Illas",
      "latitude": "42.49014000",
      "longitude": "2.80752000"
    },
    {
      "id": 43962,
      "name": "Mauvezin",
      "latitude": "43.73048000",
      "longitude": "0.87810000"
    },
    {
      "id": 43971,
      "name": "Mazamet",
      "latitude": "43.49001000",
      "longitude": "2.37304000"
    },
    {
      "id": 43978,
      "name": "Mazères",
      "latitude": "43.25055000",
      "longitude": "1.67728000"
    },
    {
      "id": 43999,
      "name": "Mende",
      "latitude": "44.51849000",
      "longitude": "3.50372000"
    },
    {
      "id": 44013,
      "name": "Mercus-Garrabet",
      "latitude": "42.87790000",
      "longitude": "1.62900000"
    },
    {
      "id": 44024,
      "name": "Merville",
      "latitude": "43.72354000",
      "longitude": "1.29656000"
    },
    {
      "id": 44058,
      "name": "Meynes",
      "latitude": "43.87974000",
      "longitude": "4.55958000"
    },
    {
      "id": 44061,
      "name": "Meyrueis",
      "latitude": "44.17737000",
      "longitude": "3.43083000"
    },
    {
      "id": 44453,
      "name": "Mèze",
      "latitude": "43.42504000",
      "longitude": "3.60590000"
    },
    {
      "id": 44108,
      "name": "Miélan",
      "latitude": "43.43054000",
      "longitude": "0.30794000"
    },
    {
      "id": 44071,
      "name": "Milhaud",
      "latitude": "43.78977000",
      "longitude": "4.31035000"
    },
    {
      "id": 44073,
      "name": "Millas",
      "latitude": "42.69203000",
      "longitude": "2.69508000"
    },
    {
      "id": 44074,
      "name": "Millau",
      "latitude": "44.09774000",
      "longitude": "3.07777000"
    },
    {
      "id": 44090,
      "name": "Mirande",
      "latitude": "43.51481000",
      "longitude": "0.40410000"
    },
    {
      "id": 44091,
      "name": "Mirandol-Bourgnounac",
      "latitude": "44.14273000",
      "longitude": "2.16857000"
    },
    {
      "id": 44096,
      "name": "Miremont",
      "latitude": "43.36995000",
      "longitude": "1.41724000"
    },
    {
      "id": 44098,
      "name": "Mirepoix",
      "latitude": "43.08773000",
      "longitude": "1.87350000"
    },
    {
      "id": 44099,
      "name": "Mireval",
      "latitude": "43.50860000",
      "longitude": "3.80170000"
    },
    {
      "id": 44118,
      "name": "Moissac",
      "latitude": "44.10236000",
      "longitude": "1.09450000"
    },
    {
      "id": 44123,
      "name": "Molières",
      "latitude": "44.19305000",
      "longitude": "1.36318000"
    },
    {
      "id": 44124,
      "name": "Molières-sur-Cèze",
      "latitude": "44.25989000",
      "longitude": "4.15836000"
    },
    {
      "id": 44131,
      "name": "Monclar-de-Quercy",
      "latitude": "43.96554000",
      "longitude": "1.58587000"
    },
    {
      "id": 44137,
      "name": "Mondonville",
      "latitude": "43.67296000",
      "longitude": "1.28592000"
    },
    {
      "id": 44141,
      "name": "Monestiés",
      "latitude": "44.06667000",
      "longitude": "2.10000000"
    },
    {
      "id": 44147,
      "name": "Mons",
      "latitude": "43.61240000",
      "longitude": "1.57207000"
    },
    {
      "id": 44164,
      "name": "Montady",
      "latitude": "43.33590000",
      "longitude": "3.12780000"
    },
    {
      "id": 44165,
      "name": "Montagnac",
      "latitude": "43.48087000",
      "longitude": "3.48312000"
    },
    {
      "id": 44170,
      "name": "Montaigu-de-Quercy",
      "latitude": "44.33964000",
      "longitude": "1.01690000"
    },
    {
      "id": 44172,
      "name": "Montaigut-sur-Save",
      "latitude": "43.68947000",
      "longitude": "1.23133000"
    },
    {
      "id": 44176,
      "name": "Montans",
      "latitude": "43.86700000",
      "longitude": "1.88568000"
    },
    {
      "id": 44178,
      "name": "Montaren-et-Saint-Médiers",
      "latitude": "44.02869000",
      "longitude": "4.38030000"
    },
    {
      "id": 44180,
      "name": "Montarnaud",
      "latitude": "43.64743000",
      "longitude": "3.69690000"
    },
    {
      "id": 44181,
      "name": "Montastruc-la-Conseillère",
      "latitude": "43.71982000",
      "longitude": "1.59019000"
    },
    {
      "id": 44183,
      "name": "Montauban",
      "latitude": "44.01819000",
      "longitude": "1.36432000"
    },
    {
      "id": 44191,
      "name": "Montbazens",
      "latitude": "44.47807000",
      "longitude": "2.22980000"
    },
    {
      "id": 44192,
      "name": "Montbazin",
      "latitude": "43.51667000",
      "longitude": "3.69667000"
    },
    {
      "id": 44194,
      "name": "Montberon",
      "latitude": "43.71586000",
      "longitude": "1.47968000"
    },
    {
      "id": 44196,
      "name": "Montbeton",
      "latitude": "44.01667000",
      "longitude": "1.30000000"
    },
    {
      "id": 44198,
      "name": "Montblanc",
      "latitude": "43.39486000",
      "longitude": "3.36752000"
    },
    {
      "id": 44212,
      "name": "Montcuq",
      "latitude": "44.33838000",
      "longitude": "1.20850000"
    },
    {
      "id": 44216,
      "name": "Montech",
      "latitude": "43.95816000",
      "longitude": "1.23204000"
    },
    {
      "id": 44217,
      "name": "Monteils",
      "latitude": "44.16862000",
      "longitude": "1.57608000"
    },
    {
      "id": 44224,
      "name": "Montescot",
      "latitude": "42.60692000",
      "longitude": "2.93318000"
    },
    {
      "id": 44226,
      "name": "Montesquieu-Volvestre",
      "latitude": "43.20725000",
      "longitude": "1.22862000"
    },
    {
      "id": 44227,
      "name": "Montesquiu d'Albera",
      "latitude": "42.51798000",
      "longitude": "2.88243000"
    },
    {
      "id": 44231,
      "name": "Montfaucon",
      "latitude": "44.07245000",
      "longitude": "4.75504000"
    },
    {
      "id": 44239,
      "name": "Montferrier-sur-Lez",
      "latitude": "43.66742000",
      "longitude": "3.85439000"
    },
    {
      "id": 44243,
      "name": "Montfrin",
      "latitude": "43.87596000",
      "longitude": "4.59959000"
    },
    {
      "id": 44244,
      "name": "Montgaillard",
      "latitude": "42.93333000",
      "longitude": "1.63333000"
    },
    {
      "id": 44247,
      "name": "Montgiscard",
      "latitude": "43.46072000",
      "longitude": "1.56739000"
    },
    {
      "id": 44267,
      "name": "Montjoie-en-Couserans",
      "latitude": "43.00250000",
      "longitude": "1.16000000"
    },
    {
      "id": 44268,
      "name": "Montjoire",
      "latitude": "43.76899000",
      "longitude": "1.53362000"
    },
    {
      "id": 44269,
      "name": "Montlaur",
      "latitude": "43.48935000",
      "longitude": "1.56807000"
    },
    {
      "id": 44298,
      "name": "Montpellier",
      "latitude": "43.61092000",
      "longitude": "3.87723000"
    },
    {
      "id": 44299,
      "name": "Montpeyroux",
      "latitude": "43.69590000",
      "longitude": "3.50542000"
    },
    {
      "id": 44300,
      "name": "Montpezat-de-Quercy",
      "latitude": "44.23876000",
      "longitude": "1.47682000"
    },
    {
      "id": 44303,
      "name": "Montrabé",
      "latitude": "43.64477000",
      "longitude": "1.52384000"
    },
    {
      "id": 44324,
      "name": "Montréal",
      "latitude": "43.19980000",
      "longitude": "2.14122000"
    },
    {
      "id": 44305,
      "name": "Montredon-Labessonnié",
      "latitude": "43.71723000",
      "longitude": "2.32454000"
    },
    {
      "id": 44326,
      "name": "Montréjeau",
      "latitude": "43.08555000",
      "longitude": "0.56470000"
    },
    {
      "id": 44318,
      "name": "Montricoux",
      "latitude": "44.07589000",
      "longitude": "1.61946000"
    },
    {
      "id": 44319,
      "name": "Montrodat",
      "latitude": "44.55038000",
      "longitude": "3.32929000"
    },
    {
      "id": 44406,
      "name": "Moussac",
      "latitude": "43.98119000",
      "longitude": "4.22647000"
    },
    {
      "id": 44407,
      "name": "Moussan",
      "latitude": "43.23091000",
      "longitude": "2.95000000"
    },
    {
      "id": 44424,
      "name": "Moyrazès",
      "latitude": "44.34204000",
      "longitude": "2.43933000"
    },
    {
      "id": 44429,
      "name": "Mudaison",
      "latitude": "43.63333000",
      "longitude": "4.03333000"
    },
    {
      "id": 44440,
      "name": "Muret",
      "latitude": "43.46027000",
      "longitude": "1.32571000"
    },
    {
      "id": 44442,
      "name": "Murviel-lès-Béziers",
      "latitude": "43.43333000",
      "longitude": "3.13333000"
    },
    {
      "id": 44443,
      "name": "Murviel-lès-Montpellier",
      "latitude": "43.60528000",
      "longitude": "3.73750000"
    },
    {
      "id": 44444,
      "name": "Mus",
      "latitude": "43.73919000",
      "longitude": "4.20257000"
    },
    {
      "id": 44495,
      "name": "Nages-et-Solorgues",
      "latitude": "43.79010000",
      "longitude": "4.23027000"
    },
    {
      "id": 44496,
      "name": "Nailloux",
      "latitude": "43.35718000",
      "longitude": "1.62302000"
    },
    {
      "id": 44514,
      "name": "Narbonne",
      "latitude": "43.18396000",
      "longitude": "3.00141000"
    },
    {
      "id": 44518,
      "name": "Naucelle",
      "latitude": "44.19810000",
      "longitude": "2.34310000"
    },
    {
      "id": 44692,
      "name": "Nébian",
      "latitude": "43.60657000",
      "longitude": "3.43133000"
    },
    {
      "id": 44691,
      "name": "Nègrepelisse",
      "latitude": "44.07436000",
      "longitude": "1.51978000"
    },
    {
      "id": 44698,
      "name": "Névian",
      "latitude": "43.21238000",
      "longitude": "2.90286000"
    },
    {
      "id": 44700,
      "name": "Nîmes",
      "latitude": "43.83378000",
      "longitude": "4.35962000"
    },
    {
      "id": 44602,
      "name": "Nissan-lez-Enserune",
      "latitude": "43.28961000",
      "longitude": "3.12705000"
    },
    {
      "id": 44683,
      "name": "Noé",
      "latitude": "43.35814000",
      "longitude": "1.27709000"
    },
    {
      "id": 44609,
      "name": "Nogaro",
      "latitude": "43.75856000",
      "longitude": "-0.03293000"
    },
    {
      "id": 44621,
      "name": "Nohic",
      "latitude": "43.88970000",
      "longitude": "1.43741000"
    },
    {
      "id": 44715,
      "name": "Odos",
      "latitude": "43.19622000",
      "longitude": "0.05693000"
    },
    {
      "id": 44731,
      "name": "Olemps",
      "latitude": "44.34638000",
      "longitude": "2.55140000"
    },
    {
      "id": 44738,
      "name": "Olonzac",
      "latitude": "43.28294000",
      "longitude": "2.73098000"
    },
    {
      "id": 44741,
      "name": "Ondes",
      "latitude": "43.78250000",
      "longitude": "1.30823000"
    },
    {
      "id": 44765,
      "name": "Orgueil",
      "latitude": "43.90618000",
      "longitude": "1.41071000"
    },
    {
      "id": 44771,
      "name": "Orleix",
      "latitude": "43.27932000",
      "longitude": "0.12033000"
    },
    {
      "id": 44779,
      "name": "Ornaisons",
      "latitude": "43.18040000",
      "longitude": "2.83689000"
    },
    {
      "id": 44783,
      "name": "Orsan",
      "latitude": "44.13106000",
      "longitude": "4.66520000"
    },
    {
      "id": 44785,
      "name": "Ortaffa",
      "latitude": "42.57977000",
      "longitude": "2.92653000"
    },
    {
      "id": 44792,
      "name": "Osséja",
      "latitude": "42.41383000",
      "longitude": "1.98192000"
    },
    {
      "id": 44790,
      "name": "Ossun",
      "latitude": "43.18333000",
      "longitude": "-0.03333000"
    },
    {
      "id": 44809,
      "name": "Oursbelille",
      "latitude": "43.28508000",
      "longitude": "0.03473000"
    },
    {
      "id": 44814,
      "name": "Ouveillan",
      "latitude": "43.28915000",
      "longitude": "2.97124000"
    },
    {
      "id": 44833,
      "name": "Palaja",
      "latitude": "43.17363000",
      "longitude": "2.38462000"
    },
    {
      "id": 44835,
      "name": "Palau-del-Vidre",
      "latitude": "42.57162000",
      "longitude": "2.96033000"
    },
    {
      "id": 44836,
      "name": "Palavas-les-Flots",
      "latitude": "43.52805000",
      "longitude": "3.92705000"
    },
    {
      "id": 44838,
      "name": "Pamiers",
      "latitude": "43.11650000",
      "longitude": "1.61079000"
    },
    {
      "id": 44869,
      "name": "Paulhac",
      "latitude": "43.75639000",
      "longitude": "1.55667000"
    },
    {
      "id": 44871,
      "name": "Paulhan",
      "latitude": "43.53944000",
      "longitude": "3.45760000"
    },
    {
      "id": 44873,
      "name": "Pavie",
      "latitude": "43.60969000",
      "longitude": "0.59143000"
    },
    {
      "id": 44876,
      "name": "Payrin-Augmontel",
      "latitude": "43.54450000",
      "longitude": "2.35406000"
    },
    {
      "id": 45343,
      "name": "Péchabou",
      "latitude": "43.50241000",
      "longitude": "1.50934000"
    },
    {
      "id": 44879,
      "name": "Pechbonnieu",
      "latitude": "43.70242000",
      "longitude": "1.46538000"
    },
    {
      "id": 44892,
      "name": "Pennautier",
      "latitude": "43.24513000",
      "longitude": "2.31892000"
    },
    {
      "id": 45349,
      "name": "Pépieux",
      "latitude": "43.29735000",
      "longitude": "2.67952000"
    },
    {
      "id": 45360,
      "name": "Pérols",
      "latitude": "43.56313000",
      "longitude": "3.95203000"
    },
    {
      "id": 44899,
      "name": "Perpignan",
      "latitude": "42.69764000",
      "longitude": "2.89541000"
    },
    {
      "id": 44929,
      "name": "Peyrestortes",
      "latitude": "42.75480000",
      "longitude": "2.85232000"
    },
    {
      "id": 44931,
      "name": "Peyriac-de-Mer",
      "latitude": "43.08720000",
      "longitude": "2.95831000"
    },
    {
      "id": 44930,
      "name": "Peyriac-Minervois",
      "latitude": "43.29068000",
      "longitude": "2.56613000"
    },
    {
      "id": 45366,
      "name": "Pézenas",
      "latitude": "43.45953000",
      "longitude": "3.42384000"
    },
    {
      "id": 44936,
      "name": "Pezens",
      "latitude": "43.25446000",
      "longitude": "2.26868000"
    },
    {
      "id": 45367,
      "name": "Pézilla-la-Rivière",
      "latitude": "42.69536000",
      "longitude": "2.77115000"
    },
    {
      "id": 44944,
      "name": "Pia",
      "latitude": "42.74490000",
      "longitude": "2.91930000"
    },
    {
      "id": 44945,
      "name": "Pibrac",
      "latitude": "43.62042000",
      "longitude": "1.28540000"
    },
    {
      "id": 44954,
      "name": "Pierrefitte-Nestalas",
      "latitude": "42.96667000",
      "longitude": "-0.06667000"
    },
    {
      "id": 44968,
      "name": "Pignan",
      "latitude": "43.58365000",
      "longitude": "3.75981000"
    },
    {
      "id": 44970,
      "name": "Pinet",
      "latitude": "43.40556000",
      "longitude": "3.51000000"
    },
    {
      "id": 44973,
      "name": "Pinsaguel",
      "latitude": "43.51040000",
      "longitude": "1.38831000"
    },
    {
      "id": 44993,
      "name": "Plaisance",
      "latitude": "43.60436000",
      "longitude": "0.04615000"
    },
    {
      "id": 44994,
      "name": "Plaisance-du-Touch",
      "latitude": "43.56566000",
      "longitude": "1.29749000"
    },
    {
      "id": 45143,
      "name": "Pollestres",
      "latitude": "42.64200000",
      "longitude": "2.87116000"
    },
    {
      "id": 45159,
      "name": "Pomérols",
      "latitude": "43.39139000",
      "longitude": "3.49944000"
    },
    {
      "id": 45154,
      "name": "Pompertuzat",
      "latitude": "43.49277000",
      "longitude": "1.51531000"
    },
    {
      "id": 45157,
      "name": "Pompignan",
      "latitude": "43.81768000",
      "longitude": "1.31209000"
    },
    {
      "id": 45179,
      "name": "Pont-de-Larn",
      "latitude": "43.50412000",
      "longitude": "2.40786000"
    },
    {
      "id": 45182,
      "name": "Pont-de-Salars",
      "latitude": "44.28080000",
      "longitude": "2.72783000"
    },
    {
      "id": 45169,
      "name": "Pont-Saint-Esprit",
      "latitude": "44.25494000",
      "longitude": "4.64736000"
    },
    {
      "id": 45207,
      "name": "Ponteilla",
      "latitude": "42.62594000",
      "longitude": "2.81335000"
    },
    {
      "id": 45236,
      "name": "Port-la-Nouvelle",
      "latitude": "43.01991000",
      "longitude": "3.04366000"
    },
    {
      "id": 45239,
      "name": "Portel-des-Corbières",
      "latitude": "43.05000000",
      "longitude": "2.91667000"
    },
    {
      "id": 45241,
      "name": "Portet-sur-Garonne",
      "latitude": "43.52333000",
      "longitude": "1.40651000"
    },
    {
      "id": 45244,
      "name": "Portiragnes",
      "latitude": "43.30460000",
      "longitude": "3.33365000"
    },
    {
      "id": 45246,
      "name": "Portvendres",
      "latitude": "42.51792000",
      "longitude": "3.10553000"
    },
    {
      "id": 45264,
      "name": "Poulx",
      "latitude": "43.90798000",
      "longitude": "4.41629000"
    },
    {
      "id": 45268,
      "name": "Poussan",
      "latitude": "43.48944000",
      "longitude": "3.67083000"
    },
    {
      "id": 45270,
      "name": "Pouzac",
      "latitude": "43.08606000",
      "longitude": "0.13522000"
    },
    {
      "id": 45272,
      "name": "Prades",
      "latitude": "42.61715000",
      "longitude": "2.42208000"
    },
    {
      "id": 45273,
      "name": "Prades-le-Lez",
      "latitude": "43.69754000",
      "longitude": "3.86463000"
    },
    {
      "id": 45274,
      "name": "Pradines",
      "latitude": "44.48341000",
      "longitude": "1.40105000"
    },
    {
      "id": 45278,
      "name": "Prats de Molló",
      "latitude": "42.40404000",
      "longitude": "2.47928000"
    },
    {
      "id": 45279,
      "name": "Prayssac",
      "latitude": "44.50440000",
      "longitude": "1.18862000"
    },
    {
      "id": 45282,
      "name": "Preignan",
      "latitude": "43.71177000",
      "longitude": "0.62608000"
    },
    {
      "id": 45318,
      "name": "Puicheric",
      "latitude": "43.22380000",
      "longitude": "2.62455000"
    },
    {
      "id": 45322,
      "name": "Puissalicon",
      "latitude": "43.45828000",
      "longitude": "3.23690000"
    },
    {
      "id": 45323,
      "name": "Puisserguier",
      "latitude": "43.36767000",
      "longitude": "3.04047000"
    },
    {
      "id": 45324,
      "name": "Pujaudran",
      "latitude": "43.58954000",
      "longitude": "1.14977000"
    },
    {
      "id": 45325,
      "name": "Pujaut",
      "latitude": "44.00404000",
      "longitude": "4.77575000"
    },
    {
      "id": 45336,
      "name": "Puy-l’Évêque",
      "latitude": "44.50483000",
      "longitude": "1.14015000"
    },
    {
      "id": 45337,
      "name": "Puygouzon",
      "latitude": "43.90000000",
      "longitude": "2.16667000"
    },
    {
      "id": 45338,
      "name": "Puylaurens",
      "latitude": "43.57202000",
      "longitude": "2.01227000"
    },
    {
      "id": 45369,
      "name": "Quarante",
      "latitude": "43.34711000",
      "longitude": "2.96228000"
    },
    {
      "id": 45386,
      "name": "Quillan",
      "latitude": "42.87579000",
      "longitude": "2.18176000"
    },
    {
      "id": 45402,
      "name": "Quissac",
      "latitude": "43.91341000",
      "longitude": "3.99920000"
    },
    {
      "id": 45411,
      "name": "Rabastens",
      "latitude": "43.82512000",
      "longitude": "1.72382000"
    },
    {
      "id": 45412,
      "name": "Rabastens-de-Bigorre",
      "latitude": "43.38769000",
      "longitude": "0.15122000"
    },
    {
      "id": 45425,
      "name": "Ramonville-Saint-Agne",
      "latitude": "43.54618000",
      "longitude": "1.47491000"
    },
    {
      "id": 45683,
      "name": "Réalmont",
      "latitude": "43.77754000",
      "longitude": "2.18885000"
    },
    {
      "id": 45684,
      "name": "Réalville",
      "latitude": "44.11452000",
      "longitude": "1.47998000"
    },
    {
      "id": 45442,
      "name": "Redessan",
      "latitude": "43.83117000",
      "longitude": "4.49771000"
    },
    {
      "id": 45454,
      "name": "Remoulins",
      "latitude": "43.93949000",
      "longitude": "4.56799000"
    },
    {
      "id": 45695,
      "name": "Réquista",
      "latitude": "44.03325000",
      "longitude": "2.53554000"
    },
    {
      "id": 45466,
      "name": "Restinclières",
      "latitude": "43.72252000",
      "longitude": "4.03476000"
    },
    {
      "id": 45475,
      "name": "Revel",
      "latitude": "43.45812000",
      "longitude": "2.00469000"
    },
    {
      "id": 45480,
      "name": "Reynès",
      "latitude": "42.47702000",
      "longitude": "2.70680000"
    },
    {
      "id": 45484,
      "name": "Ria-Sirach",
      "latitude": "42.61667000",
      "longitude": "2.40000000"
    },
    {
      "id": 45489,
      "name": "Ribaute-les-Tavernes",
      "latitude": "44.03724000",
      "longitude": "4.08046000"
    },
    {
      "id": 45502,
      "name": "Rieumes",
      "latitude": "43.41143000",
      "longitude": "1.11702000"
    },
    {
      "id": 45503,
      "name": "Rieupeyroux",
      "latitude": "44.30799000",
      "longitude": "2.23819000"
    },
    {
      "id": 45506,
      "name": "Rieux-Minervois",
      "latitude": "43.28194000",
      "longitude": "2.58687000"
    },
    {
      "id": 45507,
      "name": "Rieux-Volvestre",
      "latitude": "43.25000000",
      "longitude": "1.20000000"
    },
    {
      "id": 45510,
      "name": "Rignac",
      "latitude": "44.40853000",
      "longitude": "2.29001000"
    },
    {
      "id": 45525,
      "name": "Riscle",
      "latitude": "43.65633000",
      "longitude": "-0.08607000"
    },
    {
      "id": 45530,
      "name": "Rivesaltes",
      "latitude": "42.76945000",
      "longitude": "2.87239000"
    },
    {
      "id": 45545,
      "name": "Rochefort-du-Gard",
      "latitude": "43.97652000",
      "longitude": "4.69023000"
    },
    {
      "id": 45554,
      "name": "Rodez",
      "latitude": "44.35258000",
      "longitude": "2.57338000"
    },
    {
      "id": 45555,
      "name": "Rodilhan",
      "latitude": "43.82725000",
      "longitude": "4.43088000"
    },
    {
      "id": 45591,
      "name": "Roquecourbe",
      "latitude": "43.66442000",
      "longitude": "2.29264000"
    },
    {
      "id": 45594,
      "name": "Roquemaure",
      "latitude": "44.04944000",
      "longitude": "4.77740000"
    },
    {
      "id": 45596,
      "name": "Roquettes",
      "latitude": "43.49733000",
      "longitude": "1.36848000"
    },
    {
      "id": 45620,
      "name": "Rouffiac-Tolosan",
      "latitude": "43.66576000",
      "longitude": "1.52521000"
    },
    {
      "id": 45630,
      "name": "Roujan",
      "latitude": "43.50489000",
      "longitude": "3.31071000"
    },
    {
      "id": 45640,
      "name": "Rousson",
      "latitude": "44.19136000",
      "longitude": "4.14786000"
    },
    {
      "id": 45704,
      "name": "Sabran",
      "latitude": "44.15040000",
      "longitude": "4.54820000"
    },
    {
      "id": 45727,
      "name": "Saint-Affrique",
      "latitude": "43.95575000",
      "longitude": "2.88915000"
    },
    {
      "id": 45735,
      "name": "Saint-Alban",
      "latitude": "43.69270000",
      "longitude": "1.41020000"
    },
    {
      "id": 45738,
      "name": "Saint-Alban-sur-Limagnole",
      "latitude": "44.78100000",
      "longitude": "3.38793000"
    },
    {
      "id": 45739,
      "name": "Saint-Alexandre",
      "latitude": "44.22741000",
      "longitude": "4.62081000"
    },
    {
      "id": 45746,
      "name": "Saint-Amans-Soult",
      "latitude": "43.47697000",
      "longitude": "2.49076000"
    },
    {
      "id": 45747,
      "name": "Saint-Amans-Valtoret",
      "latitude": "43.48071000",
      "longitude": "2.49095000"
    },
    {
      "id": 45751,
      "name": "Saint-Ambroix",
      "latitude": "44.25893000",
      "longitude": "4.19833000"
    },
    {
      "id": 45758,
      "name": "Saint-André-de-Sangonis",
      "latitude": "43.64753000",
      "longitude": "3.50209000"
    },
    {
      "id": 45795,
      "name": "Saint-Aunès",
      "latitude": "43.64083000",
      "longitude": "3.96583000"
    },
    {
      "id": 45807,
      "name": "Saint-Bauzille-de-Putois",
      "latitude": "43.89454000",
      "longitude": "3.73580000"
    },
    {
      "id": 45811,
      "name": "Saint-Benoît-de-Carmaux",
      "latitude": "44.05037000",
      "longitude": "2.12911000"
    },
    {
      "id": 45834,
      "name": "Saint-Brès",
      "latitude": "43.66742000",
      "longitude": "4.03105000"
    },
    {
      "id": 45892,
      "name": "Saint-Céré",
      "latitude": "44.85726000",
      "longitude": "1.89415000"
    },
    {
      "id": 45848,
      "name": "Saint-Chaptes",
      "latitude": "43.97172000",
      "longitude": "4.27812000"
    },
    {
      "id": 45851,
      "name": "Saint-Chinian",
      "latitude": "43.42238000",
      "longitude": "2.94643000"
    },
    {
      "id": 45853,
      "name": "Saint-Christol",
      "latitude": "43.72805000",
      "longitude": "4.07991000"
    },
    {
      "id": 45854,
      "name": "Saint-Christol-lès-Alès",
      "latitude": "44.08256000",
      "longitude": "4.07506000"
    },
    {
      "id": 45856,
      "name": "Saint-Christophe-Vallon",
      "latitude": "44.47072000",
      "longitude": "2.41184000"
    },
    {
      "id": 45871,
      "name": "Saint-Clément-de-Rivière",
      "latitude": "43.68333000",
      "longitude": "3.83333000"
    },
    {
      "id": 45881,
      "name": "Saint-Cyprien-Plage",
      "latitude": "42.63229000",
      "longitude": "3.03333000"
    },
    {
      "id": 45918,
      "name": "Saint-Drézéry",
      "latitude": "43.72991000",
      "longitude": "3.97620000"
    },
    {
      "id": 45924,
      "name": "Saint-Estève",
      "latitude": "42.71175000",
      "longitude": "2.84490000"
    },
    {
      "id": 45926,
      "name": "Saint-Etienne-de-Tulmont",
      "latitude": "44.05000000",
      "longitude": "1.46667000"
    },
    {
      "id": 45946,
      "name": "Saint-Féliu-d’Avall",
      "latitude": "42.68117000",
      "longitude": "2.73813000"
    },
    {
      "id": 45948,
      "name": "Saint-Félix-Lauragais",
      "latitude": "43.44863000",
      "longitude": "1.88814000"
    },
    {
      "id": 45935,
      "name": "Saint-Florent-sur-Auzonnet",
      "latitude": "44.24032000",
      "longitude": "4.11252000"
    },
    {
      "id": 45951,
      "name": "Saint-Gaudens",
      "latitude": "43.10809000",
      "longitude": "0.72345000"
    },
    {
      "id": 46043,
      "name": "Saint-Gély-du-Fesc",
      "latitude": "43.69272000",
      "longitude": "3.80492000"
    },
    {
      "id": 45964,
      "name": "Saint-Geniès-Bellevue",
      "latitude": "43.68409000",
      "longitude": "1.48693000"
    },
    {
      "id": 45965,
      "name": "Saint-Geniès-de-Comolas",
      "latitude": "44.06617000",
      "longitude": "4.72157000"
    },
    {
      "id": 45966,
      "name": "Saint-Geniès-de-Fontedit",
      "latitude": "43.46667000",
      "longitude": "3.18333000"
    },
    {
      "id": 45967,
      "name": "Saint-Geniès-de-Malgoirès",
      "latitude": "43.95000000",
      "longitude": "4.21667000"
    },
    {
      "id": 45968,
      "name": "Saint-Geniès-des-Mourgues",
      "latitude": "43.69780000",
      "longitude": "4.03610000"
    },
    {
      "id": 45958,
      "name": "Saint-Geniez-d’Olt",
      "latitude": "44.46561000",
      "longitude": "2.97261000"
    },
    {
      "id": 46044,
      "name": "Saint-Génis-des-Fontaines",
      "latitude": "42.54325000",
      "longitude": "2.92060000"
    },
    {
      "id": 45975,
      "name": "Saint-Georges-de-Luzençon",
      "latitude": "44.06471000",
      "longitude": "2.98597000"
    },
    {
      "id": 46031,
      "name": "Saint-Gervasy",
      "latitude": "43.87687000",
      "longitude": "4.46588000"
    },
    {
      "id": 46034,
      "name": "Saint-Gilles",
      "latitude": "43.67656000",
      "longitude": "4.43024000"
    },
    {
      "id": 46038,
      "name": "Saint-Girons",
      "latitude": "42.98491000",
      "longitude": "1.14587000"
    },
    {
      "id": 46054,
      "name": "Saint-Hilaire-de-Brethmas",
      "latitude": "44.08003000",
      "longitude": "4.12478000"
    },
    {
      "id": 46067,
      "name": "Saint-Hippolyte",
      "latitude": "42.78550000",
      "longitude": "2.96620000"
    },
    {
      "id": 46071,
      "name": "Saint-Hippolyte-du-Fort",
      "latitude": "43.96362000",
      "longitude": "3.85572000"
    },
    {
      "id": 46081,
      "name": "Saint-Jean",
      "latitude": "43.66420000",
      "longitude": "1.49941000"
    },
    {
      "id": 46090,
      "name": "Saint-Jean-de-Fos",
      "latitude": "43.70100000",
      "longitude": "3.55171000"
    },
    {
      "id": 46104,
      "name": "Saint-Jean-de-Védas",
      "latitude": "43.57759000",
      "longitude": "3.82603000"
    },
    {
      "id": 46110,
      "name": "Saint-Jean-du-Falga",
      "latitude": "43.08647000",
      "longitude": "1.62780000"
    },
    {
      "id": 46111,
      "name": "Saint-Jean-du-Gard",
      "latitude": "44.10523000",
      "longitude": "3.88566000"
    },
    {
      "id": 46126,
      "name": "Saint-Jory",
      "latitude": "43.74146000",
      "longitude": "1.37089000"
    },
    {
      "id": 46165,
      "name": "Saint-Juéry",
      "latitude": "43.95000000",
      "longitude": "2.21667000"
    },
    {
      "id": 46140,
      "name": "Saint-Julien-de-Peyrolas",
      "latitude": "44.28837000",
      "longitude": "4.56507000"
    },
    {
      "id": 46146,
      "name": "Saint-Julien-les-Rosiers",
      "latitude": "44.17445000",
      "longitude": "4.10803000"
    },
    {
      "id": 46151,
      "name": "Saint-Just",
      "latitude": "43.65806000",
      "longitude": "4.11472000"
    },
    {
      "id": 46170,
      "name": "Saint-Lary-Soulan",
      "latitude": "42.81713000",
      "longitude": "0.32238000"
    },
    {
      "id": 46180,
      "name": "Saint-Laurent-de-la-Salanque",
      "latitude": "42.77270000",
      "longitude": "2.98998000"
    },
    {
      "id": 46181,
      "name": "Saint-Laurent-des-Arbres",
      "latitude": "44.05493000",
      "longitude": "4.70026000"
    },
    {
      "id": 46194,
      "name": "Saint-Lizier",
      "latitude": "43.00183000",
      "longitude": "1.13686000"
    },
    {
      "id": 46200,
      "name": "Saint-Loup-Cammas",
      "latitude": "43.69767000",
      "longitude": "1.48127000"
    },
    {
      "id": 46208,
      "name": "Saint-Lys",
      "latitude": "43.51127000",
      "longitude": "1.17557000"
    },
    {
      "id": 46232,
      "name": "Saint-Mamert-du-Gard",
      "latitude": "43.88835000",
      "longitude": "4.18725000"
    },
    {
      "id": 46249,
      "name": "Saint-Marcel-sur-Aude",
      "latitude": "43.25000000",
      "longitude": "2.93333000"
    },
    {
      "id": 46274,
      "name": "Saint-Martin-de-Londres",
      "latitude": "43.79040000",
      "longitude": "3.73066000"
    },
    {
      "id": 46280,
      "name": "Saint-Martin-de-Valgalgues",
      "latitude": "44.16315000",
      "longitude": "4.08364000"
    },
    {
      "id": 46263,
      "name": "Saint-Martin-Lalande",
      "latitude": "43.29928000",
      "longitude": "2.02004000"
    },
    {
      "id": 46306,
      "name": "Saint-Mathieu-de-Tréviers",
      "latitude": "43.76795000",
      "longitude": "3.85814000"
    },
    {
      "id": 46357,
      "name": "Saint-Nauphary",
      "latitude": "43.96712000",
      "longitude": "1.42549000"
    },
    {
      "id": 46359,
      "name": "Saint-Nazaire",
      "latitude": "42.66790000",
      "longitude": "2.99168000"
    },
    {
      "id": 46360,
      "name": "Saint-Nazaire-d’Aude",
      "latitude": "43.24518000",
      "longitude": "2.89443000"
    },
    {
      "id": 46366,
      "name": "Saint-Nicolas-de-la-Grave",
      "latitude": "44.06417000",
      "longitude": "1.02280000"
    },
    {
      "id": 46375,
      "name": "Saint-Orens-de-Gameville",
      "latitude": "43.55402000",
      "longitude": "1.53411000"
    },
    {
      "id": 46395,
      "name": "Saint-Pargoire",
      "latitude": "43.52766000",
      "longitude": "3.51870000"
    },
    {
      "id": 46404,
      "name": "Saint-Paul-Cap-de-Joux",
      "latitude": "43.64791000",
      "longitude": "1.97559000"
    },
    {
      "id": 46406,
      "name": "Saint-Paul-de-Fenouillet",
      "latitude": "42.80938000",
      "longitude": "2.50374000"
    },
    {
      "id": 46407,
      "name": "Saint-Paul-de-Jarrat",
      "latitude": "42.91404000",
      "longitude": "1.65437000"
    },
    {
      "id": 46418,
      "name": "Saint-Paulet-de-Caisson",
      "latitude": "44.26055000",
      "longitude": "4.59785000"
    },
    {
      "id": 46480,
      "name": "Saint-Pé-de-Bigorre",
      "latitude": "43.10369000",
      "longitude": "-0.15943000"
    },
    {
      "id": 46458,
      "name": "Saint-Pons-de-Thomières",
      "latitude": "43.48333000",
      "longitude": "2.76667000"
    },
    {
      "id": 46460,
      "name": "Saint-Porquier",
      "latitude": "44.00344000",
      "longitude": "1.17932000"
    },
    {
      "id": 46470,
      "name": "Saint-Privat-des-Vieux",
      "latitude": "44.14415000",
      "longitude": "4.12988000"
    },
    {
      "id": 46490,
      "name": "Saint-Quentin-la-Poterie",
      "latitude": "44.04392000",
      "longitude": "4.44432000"
    },
    {
      "id": 46531,
      "name": "Saint-Sauveur",
      "latitude": "43.74830000",
      "longitude": "1.40085000"
    },
    {
      "id": 46566,
      "name": "Saint-Sulpice-la-Pointe",
      "latitude": "43.77500000",
      "longitude": "1.68511000"
    },
    {
      "id": 46569,
      "name": "Saint-Sulpice-sur-Lèze",
      "latitude": "43.33076000",
      "longitude": "1.32091000"
    },
    {
      "id": 46580,
      "name": "Saint-Thibéry",
      "latitude": "43.39657000",
      "longitude": "3.41774000"
    },
    {
      "id": 46609,
      "name": "Saint-Victor-la-Coste",
      "latitude": "44.06295000",
      "longitude": "4.64238000"
    },
    {
      "id": 46683,
      "name": "Sainte-Foy-de-Peyrolières",
      "latitude": "43.49262000",
      "longitude": "1.14477000"
    },
    {
      "id": 46694,
      "name": "Sainte-Geneviève-sur-Argence",
      "latitude": "44.80222000",
      "longitude": "2.75954000"
    },
    {
      "id": 46709,
      "name": "Sainte-Marie-Plage",
      "latitude": "42.72498000",
      "longitude": "3.03751000"
    },
    {
      "id": 46722,
      "name": "Sainte-Radegonde",
      "latitude": "44.33743000",
      "longitude": "2.62672000"
    },
    {
      "id": 46892,
      "name": "Saïx",
      "latitude": "43.58333000",
      "longitude": "2.18333000"
    },
    {
      "id": 46744,
      "name": "Saleilles",
      "latitude": "42.65418000",
      "longitude": "2.95309000"
    },
    {
      "id": 46749,
      "name": "Salies-du-Salat",
      "latitude": "43.10074000",
      "longitude": "0.95866000"
    },
    {
      "id": 46753,
      "name": "Salindres",
      "latitude": "44.17174000",
      "longitude": "4.16020000"
    },
    {
      "id": 46762,
      "name": "Salles-Curan",
      "latitude": "44.18220000",
      "longitude": "2.78821000"
    },
    {
      "id": 46763,
      "name": "Salles-la-Source",
      "latitude": "44.43505000",
      "longitude": "2.51283000"
    },
    {
      "id": 46768,
      "name": "Salses-le-Château",
      "latitude": "42.83333000",
      "longitude": "2.91667000"
    },
    {
      "id": 46769,
      "name": "Salviac",
      "latitude": "44.68080000",
      "longitude": "1.26506000"
    },
    {
      "id": 46771,
      "name": "Samatan",
      "latitude": "43.49286000",
      "longitude": "0.92976000"
    },
    {
      "id": 46792,
      "name": "Sant Andreu de Sureda",
      "latitude": "42.55201000",
      "longitude": "2.97129000"
    },
    {
      "id": 46793,
      "name": "Sant Joan de Pladecorts",
      "latitude": "42.51069000",
      "longitude": "2.79091000"
    },
    {
      "id": 46794,
      "name": "Sant Llorenç de Cerdans",
      "latitude": "42.38473000",
      "longitude": "2.61320000"
    },
    {
      "id": 46831,
      "name": "Saubens",
      "latitude": "43.47984000",
      "longitude": "1.35189000"
    },
    {
      "id": 46854,
      "name": "Saussan",
      "latitude": "43.57220000",
      "longitude": "3.77500000"
    },
    {
      "id": 46859,
      "name": "Sauve",
      "latitude": "43.94150000",
      "longitude": "3.94903000"
    },
    {
      "id": 46861,
      "name": "Sauveterre",
      "latitude": "44.02282000",
      "longitude": "4.79347000"
    },
    {
      "id": 46864,
      "name": "Sauvian",
      "latitude": "43.29293000",
      "longitude": "3.26024000"
    },
    {
      "id": 46873,
      "name": "Saverdun",
      "latitude": "43.23526000",
      "longitude": "1.57398000"
    },
    {
      "id": 46890,
      "name": "Saze",
      "latitude": "43.94340000",
      "longitude": "4.68096000"
    },
    {
      "id": 47132,
      "name": "Sébazac-Concourès",
      "latitude": "44.40484000",
      "longitude": "2.60324000"
    },
    {
      "id": 46921,
      "name": "Seilh",
      "latitude": "43.69469000",
      "longitude": "1.35509000"
    },
    {
      "id": 46929,
      "name": "Seissan",
      "latitude": "43.49215000",
      "longitude": "0.59250000"
    },
    {
      "id": 47137,
      "name": "Sémalens",
      "latitude": "43.59225000",
      "longitude": "2.11208000"
    },
    {
      "id": 47138,
      "name": "Séméac",
      "latitude": "43.22915000",
      "longitude": "0.10602000"
    },
    {
      "id": 46949,
      "name": "Septfonds",
      "latitude": "44.17813000",
      "longitude": "1.61806000"
    },
    {
      "id": 47144,
      "name": "Sérignan",
      "latitude": "43.27873000",
      "longitude": "3.27712000"
    },
    {
      "id": 46960,
      "name": "Sernhac",
      "latitude": "43.91116000",
      "longitude": "4.55039000"
    },
    {
      "id": 46972,
      "name": "Servian",
      "latitude": "43.42716000",
      "longitude": "3.30032000"
    },
    {
      "id": 47129,
      "name": "Sète",
      "latitude": "43.40280000",
      "longitude": "3.69278000"
    },
    {
      "id": 47150,
      "name": "Sévérac-le-Château",
      "latitude": "44.32429000",
      "longitude": "3.05929000"
    },
    {
      "id": 46984,
      "name": "Seysses",
      "latitude": "43.49801000",
      "longitude": "1.31081000"
    },
    {
      "id": 46991,
      "name": "Sigean",
      "latitude": "43.02777000",
      "longitude": "2.97916000"
    },
    {
      "id": 47036,
      "name": "Sommières",
      "latitude": "43.78534000",
      "longitude": "4.08973000"
    },
    {
      "id": 47050,
      "name": "Sorède",
      "latitude": "42.53069000",
      "longitude": "2.95708000"
    },
    {
      "id": 47051,
      "name": "Sorèze",
      "latitude": "43.45241000",
      "longitude": "2.06799000"
    },
    {
      "id": 47055,
      "name": "Soual",
      "latitude": "43.55530000",
      "longitude": "2.11679000"
    },
    {
      "id": 47063,
      "name": "Soues",
      "latitude": "43.20736000",
      "longitude": "0.09874000"
    },
    {
      "id": 47067,
      "name": "Souillac",
      "latitude": "44.89720000",
      "longitude": "1.47224000"
    },
    {
      "id": 47116,
      "name": "Sumène",
      "latitude": "43.98057000",
      "longitude": "3.71575000"
    },
    {
      "id": 47126,
      "name": "Sussargues",
      "latitude": "43.71250000",
      "longitude": "4.00310000"
    },
    {
      "id": 47177,
      "name": "Tarascon-sur-Ariège",
      "latitude": "42.84545000",
      "longitude": "1.60332000"
    },
    {
      "id": 47178,
      "name": "Tarbes",
      "latitude": "43.23333000",
      "longitude": "0.08333000"
    },
    {
      "id": 47180,
      "name": "Tarn",
      "latitude": "43.78170000",
      "longitude": "2.16317000"
    },
    {
      "id": 47191,
      "name": "Tavel",
      "latitude": "44.01270000",
      "longitude": "4.69835000"
    },
    {
      "id": 47215,
      "name": "Teyran",
      "latitude": "43.68528000",
      "longitude": "3.92889000"
    },
    {
      "id": 47273,
      "name": "Théza",
      "latitude": "42.63797000",
      "longitude": "2.95108000"
    },
    {
      "id": 47274,
      "name": "Thézan-lès-Béziers",
      "latitude": "43.41667000",
      "longitude": "3.16667000"
    },
    {
      "id": 47259,
      "name": "Thuir",
      "latitude": "42.63290000",
      "longitude": "2.75471000"
    },
    {
      "id": 47304,
      "name": "Torreilles",
      "latitude": "42.75433000",
      "longitude": "2.99292000"
    },
    {
      "id": 47315,
      "name": "Toulouges",
      "latitude": "42.66961000",
      "longitude": "2.83008000"
    },
    {
      "id": 47316,
      "name": "Toulouse",
      "latitude": "43.60426000",
      "longitude": "1.44367000"
    },
    {
      "id": 47319,
      "name": "Tourbes",
      "latitude": "43.44615000",
      "longitude": "3.37852000"
    },
    {
      "id": 47323,
      "name": "Tournay",
      "latitude": "43.18438000",
      "longitude": "0.24454000"
    },
    {
      "id": 47324,
      "name": "Tournefeuille",
      "latitude": "43.58872000",
      "longitude": "1.31922000"
    },
    {
      "id": 47389,
      "name": "Trèbes",
      "latitude": "43.21064000",
      "longitude": "2.44165000"
    },
    {
      "id": 47361,
      "name": "Tresques",
      "latitude": "44.10689000",
      "longitude": "4.58739000"
    },
    {
      "id": 47370,
      "name": "Trie-sur-Baïse",
      "latitude": "43.33333000",
      "longitude": "0.36667000"
    },
    {
      "id": 47382,
      "name": "Trouillas",
      "latitude": "42.61089000",
      "longitude": "2.80821000"
    },
    {
      "id": 47420,
      "name": "Uchaud",
      "latitude": "43.75857000",
      "longitude": "4.26843000"
    },
    {
      "id": 47448,
      "name": "Uzès",
      "latitude": "44.01362000",
      "longitude": "4.41529000"
    },
    {
      "id": 47452,
      "name": "Vacquiers",
      "latitude": "43.77667000",
      "longitude": "1.48127000"
    },
    {
      "id": 47455,
      "name": "Vailhauquès",
      "latitude": "43.67159000",
      "longitude": "3.72042000"
    },
    {
      "id": 47466,
      "name": "Valady",
      "latitude": "44.45633000",
      "longitude": "2.42746000"
    },
    {
      "id": 47470,
      "name": "Valence",
      "latitude": "44.10823000",
      "longitude": "0.89101000"
    },
    {
      "id": 47472,
      "name": "Valence-d’Albigeois",
      "latitude": "44.01928000",
      "longitude": "2.40534000"
    },
    {
      "id": 47473,
      "name": "Valence-sur-Baïse",
      "latitude": "43.88270000",
      "longitude": "0.38111000"
    },
    {
      "id": 47480,
      "name": "Valergues",
      "latitude": "43.66824000",
      "longitude": "4.06124000"
    },
    {
      "id": 47484,
      "name": "Vallabrègues",
      "latitude": "43.85307000",
      "longitude": "4.62662000"
    },
    {
      "id": 47487,
      "name": "Valleraugue",
      "latitude": "44.08130000",
      "longitude": "3.64154000"
    },
    {
      "id": 47498,
      "name": "Valras-Plage",
      "latitude": "43.24808000",
      "longitude": "3.29032000"
    },
    {
      "id": 47499,
      "name": "Valros",
      "latitude": "43.41956000",
      "longitude": "3.36506000"
    },
    {
      "id": 47518,
      "name": "Varilhes",
      "latitude": "43.04514000",
      "longitude": "1.62805000"
    },
    {
      "id": 47544,
      "name": "Vauvert",
      "latitude": "43.69529000",
      "longitude": "4.27705000"
    },
    {
      "id": 47550,
      "name": "Vayrac",
      "latitude": "44.95337000",
      "longitude": "1.70358000"
    },
    {
      "id": 47566,
      "name": "Vendargues",
      "latitude": "43.65833000",
      "longitude": "3.97000000"
    },
    {
      "id": 47577,
      "name": "Vendres",
      "latitude": "43.26977000",
      "longitude": "3.22341000"
    },
    {
      "id": 47927,
      "name": "Vénéjan",
      "latitude": "44.19729000",
      "longitude": "4.65422000"
    },
    {
      "id": 47581,
      "name": "Venerque",
      "latitude": "43.43457000",
      "longitude": "1.44588000"
    },
    {
      "id": 47594,
      "name": "Verdun-sur-Garonne",
      "latitude": "43.85446000",
      "longitude": "1.23425000"
    },
    {
      "id": 47597,
      "name": "Verfeil",
      "latitude": "43.65781000",
      "longitude": "1.66340000"
    },
    {
      "id": 47601,
      "name": "Vergèze",
      "latitude": "43.74404000",
      "longitude": "4.22109000"
    },
    {
      "id": 47610,
      "name": "Vernet",
      "latitude": "43.43333000",
      "longitude": "1.41667000"
    },
    {
      "id": 47611,
      "name": "Vernet-les-Bains",
      "latitude": "42.54834000",
      "longitude": "2.38717000"
    },
    {
      "id": 47616,
      "name": "Verniolle",
      "latitude": "43.08162000",
      "longitude": "1.64904000"
    },
    {
      "id": 47631,
      "name": "Vers-Pont-du-Gard",
      "latitude": "43.96667000",
      "longitude": "4.53333000"
    },