{
  "id": 2259,
  "name": "Henan",
  "state_code": "HA",
  "latitude": "34.29043020",
  "longitude": "113.38235450",
  "type": "province",
  "cities": [
    {
      "id": 19290,
      "name": "Anyang",
      "latitude": "36.09600000",
      "longitude": "114.38278000"
    },
    {
      "id": 19291,
      "name": "Anyang Shi",
      "latitude": "36.13639000",
      "longitude": "114.33667000"
    },
    {
      "id": 19342,
      "name": "Binhe",
      "latitude": "32.68833000",
      "longitude": "112.82750000"
    },
    {
      "id": 19388,
      "name": "Chengguan",
      "latitude": "35.45861000",
      "longitude": "113.79778000"
    },
    {
      "id": 19390,
      "name": "Chengjiao",
      "latitude": "35.40495000",
      "longitude": "114.06043000"
    },
    {
      "id": 19428,
      "name": "Daokou",
      "latitude": "35.56389000",
      "longitude": "114.50583000"
    },
    {
      "id": 19456,
      "name": "Dingcheng",
      "latitude": "32.12722000",
      "longitude": "115.03944000"
    },
    {
      "id": 19594,
      "name": "Hancheng",
      "latitude": "32.51861000",
      "longitude": "112.35222000"
    },
    {
      "id": 19602,
      "name": "Hebi",
      "latitude": "35.89917000",
      "longitude": "114.19250000"
    },
    {
      "id": 19638,
      "name": "Huaidian",
      "latitude": "33.43333000",
      "longitude": "115.03333000"
    },
    {
      "id": 19670,
      "name": "Huazhou",
      "latitude": "32.68222000",
      "longitude": "112.08194000"
    },
    {
      "id": 19671,
      "name": "Huichang",
      "latitude": "34.90376000",
      "longitude": "112.78426000"
    },
    {
      "id": 19708,
      "name": "Jianshe",
      "latitude": "34.21750000",
      "longitude": "113.76889000"
    },
    {
      "id": 19712,
      "name": "Jiaozuo",
      "latitude": "35.23972000",
      "longitude": "113.23306000"
    },
    {
      "id": 19754,
      "name": "Jishui",
      "latitude": "33.73333000",
      "longitude": "115.40000000"
    },
    {
      "id": 19761,
      "name": "Jiyuan",
      "latitude": "35.09000000",
      "longitude": "112.58000000"
    },
    {
      "id": 19766,
      "name": "Kaifeng",
      "latitude": "34.79860000",
      "longitude": "114.30742000"
    },
    {
      "id": 19769,
      "name": "Kaiyuan",
      "latitude": "36.06813000",
      "longitude": "113.82209000"
    },
    {
      "id": 19839,
      "name": "Lingbao Chengguanzhen",
      "latitude": "34.51972000",
      "longitude": "110.86444000"
    },
    {
      "id": 19883,
      "name": "Luohe",
      "latitude": "33.56394000",
      "longitude": "114.04272000"
    },
    {
      "id": 19884,
      "name": "Luohe Shi",
      "latitude": "33.68806000",
      "longitude": "113.91306000"
    },
    {
      "id": 19889,
      "name": "Luoyang",
      "latitude": "34.68361000",
      "longitude": "112.45361000"
    },
    {
      "id": 19918,
      "name": "Minggang",
      "latitude": "32.45861000",
      "longitude": "114.04861000"
    },
    {
      "id": 19950,
      "name": "Nanyang",
      "latitude": "32.99472000",
      "longitude": "112.53278000"
    },
    {
      "id": 19977,
      "name": "Pingdingshan",
      "latitude": "33.73847000",
      "longitude": "113.30119000"
    },
    {
      "id": 20000,
      "name": "Puyang Chengguanzhen",
      "latitude": "35.70506000",
      "longitude": "115.01409000"
    },
    {
      "id": 20001,
      "name": "Puyang Shi",
      "latitude": "35.81333000",
      "longitude": "115.15500000"
    },
    {
      "id": 20021,
      "name": "Qingping",
      "latitude": "34.53656000",
      "longitude": "113.37526000"
    },
    {
      "id": 20045,
      "name": "Runing",
      "latitude": "33.00111000",
      "longitude": "114.35417000"
    },
    {
      "id": 20048,
      "name": "Ruzhou",
      "latitude": "34.16167000",
      "longitude": "112.82972000"
    },
    {
      "id": 20066,
      "name": "Shangqiu",
      "latitude": "34.45000000",
      "longitude": "115.65000000"
    },
    {
      "id": 20137,
      "name": "Songyang",
      "latitude": "34.45528000",
      "longitude": "113.02806000"
    },
    {
      "id": 20147,
      "name": "Suohe",
      "latitude": "34.78722000",
      "longitude": "113.35806000"
    },
    {
      "id": 20166,
      "name": "Tanbei",
      "latitude": "35.08806000",
      "longitude": "112.93944000"
    },
    {
      "id": 20205,
      "name": "Wacheng",
      "latitude": "33.78333000",
      "longitude": "114.51667000"
    },
    {
      "id": 20254,
      "name": "Xiangcheng Chengguanzhen",
      "latitude": "33.84703000",
      "longitude": "113.47780000"
    },
    {
      "id": 20289,
      "name": "Xincheng",
      "latitude": "33.63333000",
      "longitude": "115.18333000"
    },
    {
      "id": 20298,
      "name": "Xinhualu",
      "latitude": "34.39633000",
      "longitude": "113.72466000"
    },
    {
      "id": 20308,
      "name": "Xinxiang",
      "latitude": "35.19033000",
      "longitude": "113.80151000"
    },
    {
      "id": 20309,
      "name": "Xinxiang Shi",
      "latitude": "35.30861000",
      "longitude": "114.05111000"
    },
    {
      "id": 20311,
      "name": "Xinyang",
      "latitude": "32.12278000",
      "longitude": "114.06556000"
    },
    {
      "id": 20327,
      "name": "Xixiang",
      "latitude": "35.16278000",
      "longitude": "112.86500000"
    },
    {
      "id": 20331,
      "name": "Xuchang",
      "latitude": "34.03189000",
      "longitude": "113.86299000"
    },
    {
      "id": 20332,
      "name": "Xuchang Shi",
      "latitude": "34.14778000",
      "longitude": "113.71472000"
    },
    {
      "id": 20338,
      "name": "Yakou",
      "latitude": "33.29649000",
      "longitude": "113.52351000"
    },
    {
      "id": 20354,
      "name": "Yanshi Chengguanzhen",
      "latitude": "34.71601000",
      "longitude": "112.79568000"
    },
    {
      "id": 20371,
      "name": "Yigou",
      "latitude": "35.81139000",
      "longitude": "114.31667000"
    },
    {
      "id": 20373,
      "name": "Yima",
      "latitude": "34.73806000",
      "longitude": "111.88389000"
    },
    {
      "id": 20376,
      "name": "Yingchuan",
      "latitude": "34.16278000",
      "longitude": "113.46389000"
    },
    {
      "id": 20403,
      "name": "Yunyang",
      "latitude": "33.44743000",
      "longitude": "112.71422000"
    },
    {
      "id": 20439,
      "name": "Zhengzhou",
      "latitude": "34.75778000",
      "longitude": "113.64861000"
    },
    {
      "id": 20460,
      "name": "Zhoukou",
      "latitude": "33.63333000",
      "longitude": "114.63333000"
    },
    {
      "id": 20470,
      "name": "Zhumadian",
      "latitude": "32.97944000",
      "longitude": "114.02944000"
    },
    {
      "id": 20471,
      "name": "Zhumadian Shi",
      "latitude": "32.99417000",
      "longitude": "114.06167000"
    },
    {
      "id": 20480,
      "name": "Zijinglu",
      "latitude": "34.76000000",
      "longitude": "112.97139000"
    }
  ],
  "country": {
    "id": 45,
    "name": "China",
    "iso3": "CHN",
    "iso2": "CN",
    "numeric_code": "156",
    "phone_code": "86",
    "capital": "Beijing",
    "currency": "CNY",
    "currency_name": "Chinese yuan",
    "currency_symbol": "Â¥",
    "tld": ".cn",
    "native": "ä¸­å›½",
    "region": "Asia",
    "subregion": "Eastern Asia",
    "timezones": [
      {
        "zoneName": "Asia/Shanghai",
        "gmtOffset": 28800,
        "gmtOffsetName": "UTC+08:00",
        "abbreviation": "CST",
        "tzName": "China Standard Time"
      },
      {
        "zoneName": "Asia/Urumqi",
        "gmtOffset": 21600,
        "gmtOffsetName": "UTC+06:00",
        "abbreviation": "XJT",
        "tzName": "China Standard Time"
      }
    ],
    "translations": {
      "kr": "ì¤‘êµ­",
      "pt-BR": "China",
      "pt": "China",
      "nl": "China",
      "hr": "Kina",
      "fa": "Ú†ÛŒÙ†",
      "de": "China",
      "es": "China",
      "fr": "Chine",
      "ja": "ä¸­å›½",
      "it": "Cina",
      "cn": "ä¸­å›½",
      "tr": "Ã‡in"
    },
    "latitude": "35.00000000",
    "longitude": "105.00000000",
    "emoji": "ðŸ‡¨ðŸ‡³",
    "emojiU": "U+1F1E8 U+1F1F3"
  }
}