{
  "id": 3954,
  "name": "Dhi Qar",
  "state_code": "DQ",
  "latitude": "31.10422920",
  "longitude": "46.36246860",
  "type": "governorate",
  "cities": [
    {
      "id": 134500,
      "name": "Ash ShaÅ£rah",
      "latitude": "31.40906000",
      "longitude": "46.17270000"
    },
    {
      "id": 134529,
      "name": "NÄá¸©iyat al FuhÅ«d",
      "latitude": "30.96972000",
      "longitude": "46.72278000"
    },
    {
      "id": 134528,
      "name": "Nasiriyah",
      "latitude": "31.05799000",
      "longitude": "46.25726000"
    }
  ],
  "country": {
    "id": 104,
    "name": "Iraq",
    "iso3": "IRQ",
    "iso2": "IQ",
    "numeric_code": "368",
    "phone_code": "964",
    "capital": "Baghdad",
    "currency": "IQD",
    "currency_name": "Iraqi dinar",
    "currency_symbol": "Ø¯.Ø¹",
    "tld": ".iq",
    "native": "Ø§Ù„Ø¹Ø±Ø§Ù‚",
    "region": "Asia",
    "subregion": "Western Asia",
    "timezones": [
      {
        "zoneName": "Asia/Baghdad",
        "gmtOffset": 10800,
        "gmtOffsetName": "UTC+03:00",
        "abbreviation": "AST",
        "tzName": "Arabia Standard Time"
      }
    ],
    "translations": {
      "kr": "ì´ë¼í¬",
      "pt-BR": "Iraque",
      "pt": "Iraque",
      "nl": "Irak",
      "hr": "Irak",
      "fa": "Ø¹Ø±Ø§Ù‚",
      "de": "Irak",
      "es": "Irak",
      "fr": "Irak",
      "ja": "ã‚¤ãƒ©ã‚¯",
      "it": "Iraq",
      "cn": "ä¼Šæ‹‰å…‹",
      "tr": "Irak"
    },
    "latitude": "33.00000000",
    "longitude": "44.00000000",
    "emoji": "ğŸ‡®ğŸ‡¶",
    "emojiU": "U+1F1EE U+1F1F6"
  }
}