{
  "id": 2788,
  "name": "Kandy District",
  "state_code": "21",
  "latitude": "7.29315880",
  "longitude": "80.63501070",
  "type": null,
  "cities": [
    {
      "id": 146174,
      "name": "Akurana",
      "latitude": "7.36500000",
      "longitude": "80.61722200"
    },
    {
      "id": 146150,
      "name": "Alawatugoda",
      "latitude": "7.41048962",
      "longitude": "80.60918933"
    },
    {
      "id": 146149,
      "name": "Ambatenna",
      "latitude": "7.35252855",
      "longitude": "80.61378113"
    },
    {
      "id": 146148,
      "name": "Daskara",
      "latitude": "7.20902217",
      "longitude": "80.57764643"
    },
    {
      "id": 146147,
      "name": "Daulagala",
      "latitude": "7.22882494",
      "longitude": "80.57756073"
    },
    {
      "id": 146173,
      "name": "Delthota",
      "latitude": "7.18491721",
      "longitude": "80.70488697"
    },
    {
      "id": 146172,
      "name": "Doluwa",
      "latitude": "7.18518536",
      "longitude": "80.60573450"
    },
    {
      "id": 146146,
      "name": "Galagedara",
      "latitude": "7.36833300",
      "longitude": "80.52750000"
    },
    {
      "id": 146145,
      "name": "Galhinna",
      "latitude": "7.41614200",
      "longitude": "80.56884200"
    },
    {
      "id": 66472,
      "name": "Gampola",
      "latitude": "7.16430000",
      "longitude": "80.56960000"
    },
    {
      "id": 146171,
      "name": "Ganga Ihala Korale",
      "latitude": "7.11455516",
      "longitude": "80.51448810"
    },
    {
      "id": 146144,
      "name": "Hanguranketa",
      "latitude": "7.16666700",
      "longitude": "80.78333300"
    },
    {
      "id": 146143,
      "name": "Hapugastalawa",
      "latitude": "7.05872498",
      "longitude": "80.57137014"
    },
    {
      "id": 146170,
      "name": "Harispattuwa",
      "latitude": "7.33016007",
      "longitude": "80.58765149"
    },
    {
      "id": 146169,
      "name": "Hatharaliyadda",
      "latitude": "7.33032982",
      "longitude": "80.47875881"
    },
    {
      "id": 66485,
      "name": "Kadugannawa",
      "latitude": "7.25470000",
      "longitude": "80.52420000"
    },
    {
      "id": 146168,
      "name": "Kandy Four Gravets",
      "latitude": "7.28318748",
      "longitude": "80.63527585"
    },
    {
      "id": 146153,
      "name": "Katugastota",
      "latitude": "7.33333300",
      "longitude": "80.61666700"
    },
    {
      "id": 146167,
      "name": "Kundasale",
      "latitude": "7.30391594",
      "longitude": "80.71230408"
    },
    {
      "id": 146142,
      "name": "Madawala",
      "latitude": "7.32833100",
      "longitude": "80.67355200"
    },
    {
      "id": 146166,
      "name": "Medadumbara",
      "latitude": "7.30425996",
      "longitude": "80.77519844"
    },
    {
      "id": 146141,
      "name": "Menikdiwela",
      "latitude": "7.08333300",
      "longitude": "80.73333300"
    },
    {
      "id": 146165,
      "name": "Minipe",
      "latitude": "7.22638754",
      "longitude": "81.00116732"
    },
    {
      "id": 146151,
      "name": "Nawalapitiya",
      "latitude": "7.03696481",
      "longitude": "80.51626688"
    },
    {
      "id": 146152,
      "name": "Pallekele",
      "latitude": "7.28333300",
      "longitude": "80.70000000"
    },
    {
      "id": 146164,
      "name": "Panvila",
      "latitude": "7.40929750",
      "longitude": "80.73966228"
    },
    {
      "id": 146163,
      "name": "Pasbage Korale",
      "latitude": "7.01510450",
      "longitude": "80.54078073"
    },
    {
      "id": 146162,
      "name": "Pathadumbara",
      "latitude": "7.34931196",
      "longitude": "80.66303689"
    },
    {
      "id": 146161,
      "name": "Pathahewaheta",
      "latitude": "7.23139207",
      "longitude": "80.70848937"
    },
    {
      "id": 146154,
      "name": "Peradeniya",
      "latitude": "7.26666700",
      "longitude": "80.60000000"
    },
    {
      "id": 146140,
      "name": "Pilimathalawa",
      "latitude": "7.27000000",
      "longitude": "80.57000000"
    },
    {
      "id": 146160,
      "name": "Poojapitiya",
      "latitude": "7.38093796",
      "longitude": "80.58913708"
    },
    {
      "id": 146139,
      "name": "Pussellawa",
      "latitude": "7.10533300",
      "longitude": "80.63666700"
    },
    {
      "id": 146138,
      "name": "Talatuoya",
      "latitude": "7.25000000",
      "longitude": "80.68333300"
    },
    {
      "id": 146137,
      "name": "Teldeniya",
      "latitude": "7.30000000",
      "longitude": "80.76666700"
    },
    {
      "id": 146159,
      "name": "Thumpane",
      "latitude": "7.36616728",
      "longitude": "80.51587048"
    },
    {
      "id": 146133,
      "name": "Udadumbara",
      "latitude": "7.35000000",
      "longitude": "80.83333300"
    },
    {
      "id": 146158,
      "name": "Udapalatha",
      "latitude": "7.11515526",
      "longitude": "80.60248340"
    },
    {
      "id": 146157,
      "name": "Ududumbara",
      "latitude": "7.31434839",
      "longitude": "80.87707756"
    },
    {
      "id": 146156,
      "name": "Udunuwara",
      "latitude": "7.22777866",
      "longitude": "80.55894578"
    },
    {
      "id": 146136,
      "name": "Ulapane",
      "latitude": "7.10277800",
      "longitude": "80.56111100"
    },
    {
      "id": 146135,
      "name": "Watadeniya",
      "latitude": "7.19501100",
      "longitude": "80.55249400"
    },
    {
      "id": 66542,
      "name": "Wattegama",
      "latitude": "7.35027800",
      "longitude": "80.68250000"
    },
    {
      "id": 146134,
      "name": "Welamboda",
      "latitude": "7.20000000",
      "longitude": "80.55000000"
    },
    {
      "id": 146155,
      "name": "Yatinuwara",
      "latitude": "7.28584509",
      "longitude": "80.53516168"
    }
  ],
  "country": {
    "id": 208,
    "name": "Sri Lanka",
    "iso3": "LKA",
    "iso2": "LK",
    "numeric_code": "144",
    "phone_code": "94",
    "capital": "Colombo",
    "currency": "LKR",
    "currency_name": "Sri Lankan rupee",
    "currency_symbol": "Rs",
    "tld": ".lk",
    "native": "≈õrƒ´ la·πÉkƒÅva",
    "region": "Asia",
    "subregion": "Southern Asia",
    "timezones": [
      {
        "zoneName": "Asia/Colombo",
        "gmtOffset": 19800,
        "gmtOffsetName": "UTC+05:30",
        "abbreviation": "IST",
        "tzName": "Indian Standard Time"
      }
    ],
    "translations": {
      "kr": "Ïä§Î¶¨ÎûëÏπ¥",
      "pt-BR": "Sri Lanka",
      "pt": "Sri Lanka",
      "nl": "Sri Lanka",
      "hr": "≈†ri Lanka",
      "fa": "ÿ≥ÿ±€å‚ÄåŸÑÿßŸÜ⁄©ÿß",
      "de": "Sri Lanka",
      "es": "Sri Lanka",
      "fr": "Sri Lanka",
      "ja": "„Çπ„É™„É©„É≥„Ç´",
      "it": "Sri Lanka",
      "cn": "ÊñØÈáåÂÖ∞Âç°",
      "tr": "Sri Lanka"
    },
    "latitude": "7.00000000",
    "longitude": "81.00000000",
    "emoji": "üá±üá∞",
    "emojiU": "U+1F1F1 U+1F1F0"
  }
}