{
  "id": 4961,
  "name": "Oti",
  "state_code": "OT",
  "latitude": "7.90000000",
  "longitude": "0.30000000",
  "type": "region",
  "cities": [
    {
      "id": 149104,
      "name": "Biakoye",
      "latitude": "7.11698690",
      "longitude": "0.32324300"
    },
    {
      "id": 149105,
      "name": "Jasikan",
      "latitude": "7.40940880",
      "longitude": "0.44301500"
    },
    {
      "id": 149106,
      "name": "Kadjebi",
      "latitude": "7.52631920",
      "longitude": "0.46704770"
    },
    {
      "id": 149107,
      "name": "Krachi East",
      "latitude": "7.77196980",
      "longitude": "-0.07763760"
    },
    {
      "id": 149108,
      "name": "Krachi Nchumuru",
      "latitude": "8.14849800",
      "longitude": "-0.16349880"
    },
    {
      "id": 149109,
      "name": "Krachi West",
      "latitude": "7.98282160",
      "longitude": "-0.34886270"
    },
    {
      "id": 149110,
      "name": "Nkwanta North",
      "latitude": "8.35180760",
      "longitude": "0.12217620"
    },
    {
      "id": 149111,
      "name": "Nkwanta South",
      "latitude": "8.25931340",
      "longitude": "0.50185190"
    }
  ],
  "country": {
    "id": 83,
    "name": "Ghana",
    "iso3": "GHA",
    "iso2": "GH",
    "numeric_code": "288",
    "phone_code": "233",
    "capital": "Accra",
    "currency": "GHS",
    "currency_name": "Ghanaian cedi",
    "currency_symbol": "GHâ‚µ",
    "tld": ".gh",
    "native": "Ghana",
    "region": "Africa",
    "subregion": "Western Africa",
    "timezones": [
      {
        "zoneName": "Africa/Accra",
        "gmtOffset": 0,
        "gmtOffsetName": "UTCÂ±00",
        "abbreviation": "GMT",
        "tzName": "Greenwich Mean Time"
      }
    ],
    "translations": {
      "kr": "ê°€ë‚˜",
      "pt-BR": "Gana",
      "pt": "Gana",
      "nl": "Ghana",
      "hr": "Gana",
      "fa": "ØºÙ†Ø§",
      "de": "Ghana",
      "es": "Ghana",
      "fr": "Ghana",
      "ja": "ã‚¬ãƒ¼ãƒŠ",
      "it": "Ghana",
      "cn": "åŠ çº³",
      "tr": "Gana"
    },
    "latitude": "8.00000000",
    "longitude": "-2.00000000",
    "emoji": "ðŸ‡¬ðŸ‡­",
    "emojiU": "U+1F1EC U+1F1ED"
  }
}