{
  "id": 2612,
  "name": "North Holland",
  "state_code": "NH",
  "latitude": "52.52058690",
  "longitude": "4.78847400",
  "type": "province",
  "cities": [
    {
      "id": 149826,
      "name": "'s-Graveland",
      "latitude": "52.24420000",
      "longitude": "5.12110000"
    },
    {
      "id": 149827,
      "name": "'t Horntje",
      "latitude": "53.00560000",
      "longitude": "4.78610000"
    },
    {
      "id": 149828,
      "name": "'t Kabel",
      "latitude": "52.25610000",
      "longitude": "4.64970000"
    },
    {
      "id": 149829,
      "name": "'t Nopeind",
      "latitude": "52.41000000",
      "longitude": "4.96360000"
    },
    {
      "id": 149830,
      "name": "'t Veld",
      "latitude": "52.73920000",
      "longitude": "4.85560000"
    },
    {
      "id": 77303,
      "name": "'t Zand",
      "latitude": "52.83667000",
      "longitude": "4.75556000"
    },
    {
      "id": 149831,
      "name": "Aagtdorp",
      "latitude": "52.68890000",
      "longitude": "4.70190000"
    },
    {
      "id": 77307,
      "name": "Aalsmeer",
      "latitude": "52.25917000",
      "longitude": "4.75972000"
    },
    {
      "id": 149832,
      "name": "Aalsmeerderbrug",
      "latitude": "52.27580000",
      "longitude": "4.75000000"
    },
    {
      "id": 149833,
      "name": "Aartswoud",
      "latitude": "52.74440000",
      "longitude": "4.95360000"
    },
    {
      "id": 77313,
      "name": "Abbekerk",
      "latitude": "52.73167000",
      "longitude": "5.01806000"
    },
    {
      "id": 149834,
      "name": "Abbenes",
      "latitude": "52.23390000",
      "longitude": "4.58940000"
    },
    {
      "id": 149835,
      "name": "Akersloot",
      "latitude": "52.56030000",
      "longitude": "4.72830000"
    },
    {
      "id": 77325,
      "name": "Alkmaar",
      "latitude": "52.63167000",
      "longitude": "4.74861000"
    },
    {
      "id": 77338,
      "name": "Amstelveen",
      "latitude": "52.30083000",
      "longitude": "4.86389000"
    },
    {
      "id": 77340,
      "name": "Amsterdam",
      "latitude": "52.37403000",
      "longitude": "4.88969000"
    },
    {
      "id": 77341,
      "name": "Amsterdam-Zuidoost",
      "latitude": "52.30750000",
      "longitude": "4.97222000"
    },
    {
      "id": 149836,
      "name": "Andijk",
      "latitude": "52.75000000",
      "longitude": "5.22000000"
    },
    {
      "id": 149837,
      "name": "Ankeveen",
      "latitude": "52.26530000",
      "longitude": "5.09890000"
    },
    {
      "id": 77347,
      "name": "Ankeveense Rade",
      "latitude": "52.25891000",
      "longitude": "5.10160000"
    },
    {
      "id": 149838,
      "name": "Assendelft",
      "latitude": "52.46666667",
      "longitude": "4.75000000"
    },
    {
      "id": 77361,
      "name": "Avenhorn",
      "latitude": "52.61750000",
      "longitude": "4.95139000"
    },
    {
      "id": 149839,
      "name": "Badhoevedorp",
      "latitude": "52.33810000",
      "longitude": "4.78030000"
    },
    {
      "id": 149840,
      "name": "Bakkum",
      "latitude": "52.55830000",
      "longitude": "4.65670000"
    },
    {
      "id": 77377,
      "name": "Bangert",
      "latitude": "52.73582000",
      "longitude": "5.18010000"
    },
    {
      "id": 149841,
      "name": "Bargen",
      "latitude": "53.08416667",
      "longitude": "4.83472222"
    },
    {
      "id": 149842,
      "name": "Barsingerhorn",
      "latitude": "52.78527778",
      "longitude": "4.84166667"
    },
    {
      "id": 149843,
      "name": "Beemster",
      "latitude": "52.55000000",
      "longitude": "4.92780000"
    },
    {
      "id": 149844,
      "name": "Beets",
      "latitude": "52.58920000",
      "longitude": "4.97750000"
    },
    {
      "id": 149845,
      "name": "Beinsdorp",
      "latitude": "52.28720000",
      "longitude": "4.59440000"
    },
    {
      "id": 149846,
      "name": "Belt",
      "latitude": "52.90420000",
      "longitude": "4.95390000"
    },
    {
      "id": 77401,
      "name": "Bennebroek",
      "latitude": "52.32083000",
      "longitude": "4.59861000"
    },
    {
      "id": 149847,
      "name": "Benningbroek",
      "latitude": "52.70310000",
      "longitude": "5.00970000"
    },
    {
      "id": 149848,
      "name": "Bentveld",
      "latitude": "52.36580000",
      "longitude": "4.57170000"
    },
    {
      "id": 149849,
      "name": "Bergen",
      "latitude": "52.67030000",
      "longitude": "4.70540000"
    },
    {
      "id": 77417,
      "name": "Berkhout",
      "latitude": "52.64083000",
      "longitude": "5.00139000"
    },
    {
      "id": 149850,
      "name": "Berkmeer",
      "latitude": "52.68560000",
      "longitude": "4.89830000"
    },
    {
      "id": 77426,
      "name": "Beverwijk",
      "latitude": "52.48333000",
      "longitude": "4.65694000"
    },
    {
      "id": 149851,
      "name": "Bijlmermeer",
      "latitude": "52.31861000",
      "longitude": "4.96528000"
    },
    {
      "id": 77430,
      "name": "Bijvanck",
      "latitude": "52.28585000",
      "longitude": "5.26534000"
    },
    {
      "id": 149852,
      "name": "Binnenstad",
      "latitude": "52.37200000",
      "longitude": "4.89600000"
    },
    {
      "id": 77437,
      "name": "Blaricum",
      "latitude": "52.27250000",
      "longitude": "5.24167000"
    },
    {
      "id": 149853,
      "name": "Blauwe Keet",
      "latitude": "52.89560000",
      "longitude": "4.78190000"
    },
    {
      "id": 77443,
      "name": "Bloemendaal",
      "latitude": "52.40250000",
      "longitude": "4.62222000"
    },
    {
      "id": 78515,
      "name": "Blokker",
      "latitude": "52.66917000",
      "longitude": "5.11806000"
    },
    {
      "id": 149854,
      "name": "Bobeldijk",
      "latitude": "52.65360000",
      "longitude": "5.00440000"
    },
    {
      "id": 149855,
      "name": "Boekel",
      "latitude": "52.59000000",
      "longitude": "4.75330000"
    },
    {
      "id": 149856,
      "name": "Boesingheliede",
      "latitude": "52.35830000",
      "longitude": "4.72830000"
    },
    {
      "id": 149857,
      "name": "Bos en Lommer",
      "latitude": "52.37865000",
      "longitude": "4.85050700"
    },
    {
      "id": 149858,
      "name": "Bovenkarspel",
      "latitude": "52.70000000",
      "longitude": "5.25000000"
    },
    {
      "id": 77476,
      "name": "Breezand",
      "latitude": "52.89000000",
      "longitude": "4.80417000"
    },
    {
      "id": 149859,
      "name": "Bregtdorp",
      "latitude": "52.71666667",
      "longitude": "4.68333333"
    },
    {
      "id": 149860,
      "name": "Breukeleveen",
      "latitude": "52.17810000",
      "longitude": "5.06920000"
    },
    {
      "id": 77482,
      "name": "Broek in Waterland",
      "latitude": "52.43417000",
      "longitude": "4.99583000"
    },
    {
      "id": 77483,
      "name": "Broek op Langedijk",
      "latitude": "52.67417000",
      "longitude": "4.80556000"
    },
    {
      "id": 149861,
      "name": "Buiksloot",
      "latitude": "52.39890000",
      "longitude": "4.92210000"
    },
    {
      "id": 149862,
      "name": "Buikslotermeer",
      "latitude": "52.40350000",
      "longitude": "4.93740000"
    },
    {
      "id": 149863,
      "name": "Buitenkaag",
      "latitude": "52.21970000",
      "longitude": "4.56080000"
    },
    {
      "id": 149864,
      "name": "Buitenveldert",
      "latitude": "52.33000000",
      "longitude": "4.87420000"
    },
    {
      "id": 149865,
      "name": "Burgerbrug",
      "latitude": "52.74810000",
      "longitude": "4.70220000"
    },
    {
      "id": 149866,
      "name": "Burgerveen",
      "latitude": "52.24030000",
      "longitude": "4.68220000"
    },
    {
      "id": 149867,
      "name": "Burgervlotbrug",
      "latitude": "52.75390000",
      "longitude": "4.68190000"
    },
    {
      "id": 77508,
      "name": "Bussum",
      "latitude": "52.27333000",
      "longitude": "5.16111000"
    },
    {
      "id": 149868,
      "name": "Butterhuizen",
      "latitude": "52.64970000",
      "longitude": "4.81670000"
    },
    {
      "id": 77509,
      "name": "Callantsoog",
      "latitude": "52.84000000",
      "longitude": "4.69583000"
    },
    {
      "id": 149869,
      "name": "Calslagen",
      "latitude": "52.23330000",
      "longitude": "4.73080000"
    },
    {
      "id": 149870,
      "name": "Camperduin",
      "latitude": "52.73333333",
      "longitude": "4.65000000"
    },
    {
      "id": 77514,
      "name": "Castricum",
      "latitude": "52.54833000",
      "longitude": "4.66944000"
    },
    {
      "id": 149871,
      "name": "Catrijp",
      "latitude": "52.71390000",
      "longitude": "4.68170000"
    },
    {
      "id": 77521,
      "name": "Commandeurs",
      "latitude": "52.50902000",
      "longitude": "4.65843000"
    },
    {
      "id": 149872,
      "name": "Cruquius",
      "latitude": "52.33333333",
      "longitude": "4.63333333"
    },
    {
      "id": 149873,
      "name": "De Aker",
      "latitude": "52.35140000",
      "longitude": "4.77920000"
    },
    {
      "id": 149874,
      "name": "De Cocksdorp",
      "latitude": "53.15500000",
      "longitude": "4.86670000"
    },
    {
      "id": 77539,
      "name": "De Glip",
      "latitude": "52.33083000",
      "longitude": "4.61111000"
    },
    {
      "id": 77540,
      "name": "De Goorn",
      "latitude": "52.62583000",
      "longitude": "4.94722000"
    },
    {
      "id": 149875,
      "name": "De Haukes",
      "latitude": "52.88830000",
      "longitude": "4.93610000"
    },
    {
      "id": 149876,
      "name": "De Hulk",
      "latitude": "52.63610000",
      "longitude": "5.02220000"
    },
    {
      "id": 77549,
      "name": "De Koog",
      "latitude": "53.09750000",
      "longitude": "4.76111000"
    },
    {
      "id": 149877,
      "name": "De Kooy",
      "latitude": "52.91440000",
      "longitude": "4.78580000"
    },
    {
      "id": 149878,
      "name": "De Kwakel",
      "latitude": "52.24080000",
      "longitude": "4.79080000"
    },
    {
      "id": 77553,
      "name": "De Maer",
      "latitude": "52.51901000",
      "longitude": "4.68171000"
    },
    {
      "id": 77555,
      "name": "De Noord",
      "latitude": "52.70750000",
      "longitude": "4.85139000"
    },
    {
      "id": 149879,
      "name": "De Pijp",
      "latitude": "52.35310000",
      "longitude": "4.89610000"
    },
    {
      "id": 77558,
      "name": "De Rijp",
      "latitude": "52.55667000",
      "longitude": "4.84583000"
    },
    {
      "id": 149880,
      "name": "De Stolpen",
      "latitude": "52.81220000",
      "longitude": "4.72970000"
    },
    {
      "id": 149881,
      "name": "De Waal",
      "latitude": "53.07190000",
      "longitude": "4.82280000"
    },
    {
      "id": 149882,
      "name": "De Wallen",
      "latitude": "52.37348000",
      "longitude": "4.89806000"
    },
    {
      "id": 149883,
      "name": "De Weere 00",
      "latitude": "52.77444444",
      "longitude": "4.86694444",
      "index": 87
    },
    {
      "id": 149884,
      "name": "De Weere 01",
      "latitude": "52.72280000",
      "longitude": "4.99860000",
      "index": 88
    },
    {
      "id": 149885,
      "name": "De Woude",
      "latitude": "52.54667000",
      "longitude": "4.77361000"
    },
    {
      "id": 77570,
      "name": "Den Burg",
      "latitude": "53.05417000",
      "longitude": "4.79722000"
    },
    {
      "id": 77573,
      "name": "Den Helder",
      "latitude": "52.95988000",
      "longitude": "4.75933000"
    },
    {
      "id": 149886,
      "name": "Den Hoorn",
      "latitude": "53.02500000",
      "longitude": "4.75110000"
    },
    {
      "id": 149887,
      "name": "Den Ilp",
      "latitude": "52.45030000",
      "longitude": "4.90750000"
    },
    {
      "id": 77574,
      "name": "Den Oever",
      "latitude": "52.93353000",
      "longitude": "5.03079000"
    },
    {
      "id": 77577,
      "name": "Diemen",
      "latitude": "52.33964000",
      "longitude": "4.96256000"
    },
    {
      "id": 77583,
      "name": "Dirkshorn",
      "latitude": "52.75000000",
      "longitude": "4.77500000"
    },
    {
      "id": 149888,
      "name": "Drechterland",
      "latitude": "52.66454000",
      "longitude": "5.16569000"
    },
    {
      "id": 149889,
      "name": "Driehuis",
      "latitude": "52.44720000",
      "longitude": "4.63670000"
    },
    {
      "id": 149890,
      "name": "Driehuizen 00",
      "latitude": "52.57890000",
      "longitude": "4.80890000",
      "index": 99
    },
    {
      "id": 149891,
      "name": "Driehuizen 01",
      "latitude": "53.04666667",
      "longitude": "4.77611111",
      "index": 100
    },
    {
      "id": 77609,
      "name": "Driemond",
      "latitude": "52.30583000",
      "longitude": "5.01667000"
    },
    {
      "id": 77618,
      "name": "Duivendrecht",
      "latitude": "52.32941000",
      "longitude": "4.93964000"
    },
    {
      "id": 149892,
      "name": "Durgerdam",
      "latitude": "52.37770000",
      "longitude": "4.98908000"
    },
    {
      "id": 77624,
      "name": "Edam",
      "latitude": "52.51215000",
      "longitude": "5.04805000"
    },
    {
      "id": 149893,
      "name": "Edam-Volendam",
      "latitude": "52.50190000",
      "longitude": "5.06140000"
    },
    {
      "id": 149894,
      "name": "Eenigenburg",
      "latitude": "52.74250000",
      "longitude": "4.72560000"
    },
    {
      "id": 149895,
      "name": "Egmond aan den Hoef",
      "latitude": "52.62190000",
      "longitude": "4.65310000"
    },
    {
      "id": 77637,
      "name": "Egmond aan Zee",
      "latitude": "52.62040000",
      "longitude": "4.62705000"
    },
    {
      "id": 77638,
      "name": "Egmond-Binnen",
      "latitude": "52.59583000",
      "longitude": "4.65556000"
    },
    {
      "id": 77660,
      "name": "Enkhuizen",
      "latitude": "52.70333000",
      "longitude": "5.29167000"
    },
    {
      "id": 149896,
      "name": "Etersheim",
      "latitude": "52.58500000",
      "longitude": "5.02220000"
    },
    {
      "id": 149897,
      "name": "Friese Buurt",
      "latitude": "52.92140000",
      "longitude": "4.76670000"
    },
    {
      "id": 149898,
      "name": "Geuzenveld",
      "latitude": "52.37790000",
      "longitude": "4.79965000"
    },
    {
      "id": 78039,
      "name": "Gooise Meren",
      "latitude": "52.29735000",
      "longitude": "5.13371000"
    },
    {
      "id": 149899,
      "name": "Gouwe",
      "latitude": "52.72940000",
      "longitude": "4.96250000"
    },
    {
      "id": 149900,
      "name": "Graft",
      "latitude": "52.56080000",
      "longitude": "4.83390000"
    },
    {
      "id": 149901,
      "name": "Grootebroek",
      "latitude": "52.69890000",
      "longitude": "5.21890000"
    },
    {
      "id": 149902,
      "name": "Grootschermer",
      "latitude": "52.58080000",
      "longitude": "4.85170000"
    },
    {
      "id": 149903,
      "name": "Grosthuizen",
      "latitude": "52.61666667",
      "longitude": "4.98333333"
    },
    {
      "id": 78081,
      "name": "Haarlem",
      "latitude": "52.38084000",
      "longitude": "4.63683000"
    },
    {
      "id": 149904,
      "name": "Haarlemmerliede",
      "latitude": "52.38810000",
      "longitude": "4.68750000"
    },
    {
      "id": 149905,
      "name": "Haarlemmermeer",
      "latitude": "52.30080000",
      "longitude": "4.66530000"
    },
    {
      "id": 149906,
      "name": "Hakkelaarsbrug",
      "latitude": "52.31920000",
      "longitude": "5.10220000"
    },
    {
      "id": 78085,
      "name": "Halfweg",
      "latitude": "52.38250000",
      "longitude": "4.75417000"
    },
    {
      "id": 149907,
      "name": "Harderwijk",
      "latitude": "52.73833333",
      "longitude": "4.99333333"
    },
    {
      "id": 78094,
      "name": "Harenkarspel",
      "latitude": "52.73416000",
      "longitude": "4.77682000"
    },
    {
      "id": 149908,
      "name": "Hargen",
      "latitude": "52.72167000",
      "longitude": "4.66250000"
    },
    {
      "id": 149909,
      "name": "Haringhuizen",
      "latitude": "52.77330000",
      "longitude": "4.82890000"
    },
    {
      "id": 149910,
      "name": "Hauwert",
      "latitude": "52.70750000",
      "longitude": "5.09890000"
    },
    {
      "id": 78110,
      "name": "Heemskerk",
      "latitude": "52.51108000",
      "longitude": "4.67165000"
    },
    {
      "id": 78111,
      "name": "Heemstede",
      "latitude": "52.34992000",
      "longitude": "4.62301000"
    },
    {
      "id": 78116,
      "name": "Heerhugowaard",
      "latitude": "52.67144000",
      "longitude": "4.84862000"
    },
    {
      "id": 78130,
      "name": "Heiloo",
      "latitude": "52.60252000",
      "longitude": "4.68815000"
    },
    {
      "id": 78138,
      "name": "Hem",
      "latitude": "52.66083000",
      "longitude": "5.18333000"
    },
    {
      "id": 78144,
      "name": "Hensbroek",
      "latitude": "52.65833000",
      "longitude": "4.88472000"
    },
    {
      "id": 78159,
      "name": "Hilversum",
      "latitude": "52.22333000",
      "longitude": "5.17639000"
    },
    {
      "id": 78160,
      "name": "Hilversumse Meent",
      "latitude": "52.27115000",
      "longitude": "5.13729000"
    },
    {
      "id": 149911,
      "name": "Hinderdam",
      "latitude": "52.28280000",
      "longitude": "5.05690000"
    },
    {
      "id": 78161,
      "name": "Hippolytushoef",
      "latitude": "52.90750000",
      "longitude": "4.96250000"
    },
    {
      "id": 149912,
      "name": "Hobrede",
      "latitude": "52.54500000",
      "longitude": "4.98080000"
    },
    {
      "id": 78166,
      "name": "Hofgeest",
      "latitude": "52.44333000",
      "longitude": "4.65833000"
    },
    {
      "id": 149913,
      "name": "Hollands Kroon",
      "latitude": "52.87830000",
      "longitude": "4.81140000"
    },
    {
      "id": 149914,
      "name": "Holysloot",
      "latitude": "52.41310000",
      "longitude": "5.02530000"
    },
    {
      "id": 78175,
      "name": "Hoofddorp",
      "latitude": "52.30250000",
      "longitude": "4.68889000"
    },
    {
      "id": 149915,
      "name": "Hoogkarspel",
      "latitude": "52.69470000",
      "longitude": "5.17780000"
    },
    {
      "id": 78185,
      "name": "Hoogwoud",
      "latitude": "52.71583000",
      "longitude": "4.93889000"
    },
    {
      "id": 78186,
      "name": "Hoorn",
      "latitude": "52.64250000",
      "longitude": "5.05972000"
    },
    {
      "id": 149916,
      "name": "Horstermeer",
      "latitude": "52.24970000",
      "longitude": "5.07420000"
    },
    {
      "id": 149917,
      "name": "Huigsloot",
      "latitude": "52.21667000",
      "longitude": "4.59722000"
    },
    {
      "id": 149918,
      "name": "Huisduinen",
      "latitude": "52.95330000",
      "longitude": "4.72500000"
    },
    {
      "id": 78192,
      "name": "Huizen",
      "latitude": "52.29917000",
      "longitude": "5.24167000"
    },
    {
      "id": 149919,
      "name": "IJburg",
      "latitude": "52.35500000",
      "longitude": "4.99778000"
    },
    {
      "id": 149920,
      "name": "IJmuiden",
      "latitude": "52.45860000",
      "longitude": "4.61940000"
    },
    {
      "id": 78203,
      "name": "Ilpendam",
      "latitude": "52.46333000",
      "longitude": "4.95000000"
    },
    {
      "id": 149921,
      "name": "Jisp",
      "latitude": "52.50670000",
      "longitude": "4.84890000"
    },
    {
      "id": 149922,
      "name": "Jordaan",
      "latitude": "52.37917000",
      "longitude": "4.88028000"
    },
    {
      "id": 149923,
      "name": "Julianadorp",
      "latitude": "52.89060000",
      "longitude": "4.73890000"
    },
    {
      "id": 78210,
      "name": "Kadoelen",
      "latitude": "52.41750000",
      "longitude": "4.90561000"
    },
    {
      "id": 149924,
      "name": "Kalverdijk",
      "latitude": "52.73250000",
      "longitude": "4.76806000"
    },
    {
      "id": 149925,
      "name": "Kapel",
      "latitude": "52.58333333",
      "longitude": "4.69305556"
    },
    {
      "id": 149926,
      "name": "Katwoude",
      "latitude": "52.46940000",
      "longitude": "5.05060000"
    },
    {
      "id": 149927,
      "name": "Kerkbuurt",
      "latitude": "52.73996100",
      "longitude": "4.75877500"
    },
    {
      "id": 78227,
      "name": "Kerkelanden",
      "latitude": "52.21755000",
      "longitude": "5.13575000"
    },
    {
      "id": 149928,
      "name": "Koedijk",
      "latitude": "52.67500000",
      "longitude": "4.74830000"
    },
    {
      "id": 149929,
      "name": "Koggenland",
      "latitude": "52.63333333",
      "longitude": "4.95000000"
    },
    {
      "id": 149930,
      "name": "Kolhorn",
      "latitude": "52.79280000",
      "longitude": "4.88890000"
    },
    {
      "id": 149931,
      "name": "Koog aan de Zaan",
      "latitude": "52.46666667",
      "longitude": "4.80000000"
    },
    {
      "id": 78251,
      "name": "Kortenhoef",
      "latitude": "52.23917000",
      "longitude": "5.10694000"
    },
    {
      "id": 149932,
      "name": "Krabbendam",
      "latitude": "52.73220000",
      "longitude": "4.70250000"
    },
    {
      "id": 149933,
      "name": "Kreileroord",
      "latitude": "52.84220000",
      "longitude": "5.08140000"
    },
    {
      "id": 149934,
      "name": "Krommenie",
      "latitude": "52.50000000",
      "longitude": "4.76666667"
    },
    {
      "id": 78261,
      "name": "Kudelstaart",
      "latitude": "52.23417000",
      "longitude": "4.75139000"
    },
    {
      "id": 149935,
      "name": "Kwadijk",
      "latitude": "52.52750000",
      "longitude": "4.98110000"
    },
    {
      "id": 149936,
      "name": "Lambertschaag",
      "latitude": "52.74580000",
      "longitude": "5.01670000"
    },
    {
      "id": 78268,
      "name": "Landsmeer",
      "latitude": "52.43083000",
      "longitude": "4.91528000"
    },
    {
      "id": 149937,
      "name": "Langedijk",
      "latitude": "52.69360000",
      "longitude": "4.79440000"
    },
    {
      "id": 78269,
      "name": "Langeheit",
      "latitude": "52.49200000",
      "longitude": "4.75849000"
    },
    {
      "id": 149938,
      "name": "Langereis",
      "latitude": "52.71111111",
      "longitude": "4.90361111"
    },
    {
      "id": 78274,
      "name": "Laren",
      "latitude": "52.25667000",
      "longitude": "5.22778000"
    },
    {
      "id": 149939,
      "name": "Leimuiderbrug",
      "latitude": "52.23083000",
      "longitude": "4.66806000"
    },
    {
      "id": 149940,
      "name": "Lijnden",
      "latitude": "52.35220000",
      "longitude": "4.75970000"
    },
    {
      "id": 78307,
      "name": "Limmen",
      "latitude": "52.56917000",
      "longitude": "4.69444000"
    },
    {
      "id": 78313,
      "name": "Lisserbroek",
      "latitude": "52.25667000",
      "longitude": "4.57222000"
    },
    {
      "id": 149941,
      "name": "Loosdrecht",
      "latitude": "52.20000000",
      "longitude": "5.13333333"
    },
    {
      "id": 78328,
      "name": "Lutjebroek",
      "latitude": "52.69750000",
      "longitude": "5.20417000"
    },
    {
      "id": 149942,
      "name": "Lutjewinkel",
      "latitude": "52.76890000",
      "longitude": "4.88280000"
    },
    {
      "id": 78352,
      "name": "Marken",
      "latitude": "52.45833000",
      "longitude": "5.10278000"
    },
    {
      "id": 149943,
      "name": "Markenbinnen",
      "latitude": "52.53080000",
      "longitude": "4.78060000"
    },
    {
      "id": 78365,
      "name": "Medemblik",
      "latitude": "52.77167000",
      "longitude": "5.10556000"
    },
    {
      "id": 149944,
      "name": "Middelie",
      "latitude": "52.53220000",
      "longitude": "5.01720000"
    },
    {
      "id": 78394,
      "name": "Middenbeemster",
      "latitude": "52.54917000",
      "longitude": "4.91250000"
    },
    {
      "id": 78395,
      "name": "Middenmeer",
      "latitude": "52.80667000",
      "longitude": "4.99861000"
    },
    {
      "id": 78397,
      "name": "Midwoud",
      "latitude": "52.71667000",
      "longitude": "5.07500000"
    },
    {
      "id": 149945,
      "name": "Moerbeek",
      "latitude": "52.76310000",
      "longitude": "4.85280000"
    },
    {
      "id": 78407,
      "name": "Monnickendam",
      "latitude": "52.45833000",
      "longitude": "5.03750000"
    },
    {
      "id": 78412,
      "name": "Muiden",
      "latitude": "52.33000000",
      "longitude": "5.06944000"
    },
    {
      "id": 78413,
      "name": "Muiderberg",
      "latitude": "52.32583000",
      "longitude": "5.12083000"
    },
    {
      "id": 149946,
      "name": "Muyeveld",
      "latitude": "52.18640000",
      "longitude": "5.07170000"
    },
    {
      "id": 78417,
      "name": "Naarden",
      "latitude": "52.29583000",
      "longitude": "5.16250000"
    },
    {
      "id": 149947,
      "name": "Neck",
      "latitude": "52.50830000",
      "longitude": "4.91250000"
    },
    {
      "id": 149948,
      "name": "Nederhorst den Berg",
      "latitude": "52.25670000",
      "longitude": "5.04580000"
    },
    {
      "id": 149949,
      "name": "Nes aan de Amstel",
      "latitude": "52.25940000",
      "longitude": "4.87030000"
    },
    {
      "id": 149950,
      "name": "Nibbixwoud",
      "latitude": "52.69280000",
      "longitude": "5.05530000"
    },
    {
      "id": 78434,
      "name": "Nieuw-Loosdrecht",
      "latitude": "52.19917000",
      "longitude": "5.13889000"
    },
    {
      "id": 149951,
      "name": "Nieuw-Vennep",
      "latitude": "52.26390000",
      "longitude": "4.63750000"
    },
    {
      "id": 149952,
      "name": "Nieuwe Meer",
      "latitude": "52.32640000",
      "longitude": "4.81530000"
    },
    {
      "id": 78440,
      "name": "Nieuwe Niedorp",
      "latitude": "52.74000000",
      "longitude": "4.89861000"
    },
    {
      "id": 149953,
      "name": "Nieuwebrug",
      "latitude": "52.37220000",
      "longitude": "4.67360000"
    },
    {
      "id": 149954,
      "name": "Nieuwendam",
      "latitude": "52.39150000",
      "longitude": "4.93410000"
    },
    {
      "id": 149955,
      "name": "Nieuwesluis",
      "latitude": "52.83560000",
      "longitude": "4.89080000"
    },
    {
      "id": 78462,
      "name": "Noord-Scharwoude",
      "latitude": "52.69833000",
      "longitude": "4.81111000"
    },
    {
      "id": 149956,
      "name": "Noordbeemster",
      "latitude": "52.58250000",
      "longitude": "4.93670000"
    },
    {
      "id": 149957,
      "name": "Noordburen",
      "latitude": "52.91940000",
      "longitude": "4.96280000"
    },
    {
      "id": 149958,
      "name": "Noorddijk",
      "latitude": "52.63333333",
      "longitude": "4.91666667"
    },
    {
      "id": 149959,
      "name": "Noordeinde",
      "latitude": "52.57190000",
      "longitude": "4.83610000"
    },
    {
      "id": 78479,
      "name": "Obdam",
      "latitude": "52.67583000",
      "longitude": "4.90694000"
    },
    {
      "id": 149960,
      "name": "Omval",
      "latitude": "52.34310000",
      "longitude": "4.91640000"
    },
    {
      "id": 78502,
      "name": "Onderdijk",
      "latitude": "52.74333000",
      "longitude": "5.13750000"
    },
    {
      "id": 149961,
      "name": "Oost-Graftdijk",
      "latitude": "52.54640000",
      "longitude": "4.81470000"
    },
    {
      "id": 78511,
      "name": "Oosteinde",
      "latitude": "52.27917000",
      "longitude": "4.79583000"
    },
    {
      "id": 149962,
      "name": "Oosterdijk",
      "latitude": "52.74470000",
      "longitude": "5.26890000"
    },
    {
      "id": 149963,
      "name": "Oosterend",
      "latitude": "53.08640000",
      "longitude": "4.87610000"
    },
    {
      "id": 149964,
      "name": "Oosterland",
      "latitude": "52.92920000",
      "longitude": "5.01140000"
    },
    {
      "id": 149965,
      "name": "Oosterleek",
      "latitude": "52.63830000",
      "longitude": "5.19750000"
    },
    {
      "id": 78525,
      "name": "Oosterzij",
      "latitude": "52.58500000",
      "longitude": "4.70556000"
    },
    {
      "id": 78526,
      "name": "Oosthuizen",
      "latitude": "52.57250000",
      "longitude": "4.99583000"
    },
    {
      "id": 149966,
      "name": "Oostknollendam",
      "latitude": "52.51720000",
      "longitude": "4.79030000"
    },
    {
      "id": 149967,
      "name": "Oostwoud",
      "latitude": "52.72440000",
      "longitude": "5.09030000"
    },
    {
      "id": 149968,
      "name": "Oostzaan",
      "latitude": "52.44060000",
      "longitude": "4.87890000"
    },
    {
      "id": 78538,
      "name": "Opmeer",
      "latitude": "52.70667000",
      "longitude": "4.94444000"
    },
    {
      "id": 78540,
      "name": "Opperdoes",
      "latitude": "52.75915000",
      "longitude": "5.07534000"
    },
    {
      "id": 149969,
      "name": "Osdorp",
      "latitude": "52.35694000",
      "longitude": "4.80077000"
    },
    {
      "id": 149970,
      "name": "Oterleek",
      "latitude": "52.63333333",
      "longitude": "4.84166667"
    },
    {
      "id": 78554,
      "name": "Oud-Loosdrecht",
      "latitude": "52.20667000",
      "longitude": "5.08056000"
    },
    {
      "id": 149971,
      "name": "Oude Meer",
      "latitude": "52.28750000",
      "longitude": "4.78220000"
    },
    {
      "id": 149972,
      "name": "Oude Niedorp",
      "latitude": "52.71780000",
      "longitude": "4.87190000"
    },
    {
      "id": 149973,
      "name": "Oudendijk",
      "latitude": "52.60000000",
      "longitude": "4.96666667"
    },
    {
      "id": 149974,
      "name": "Ouder-Amstel",
      "latitude": "52.29060000",
      "longitude": "4.91170000"
    },
    {
      "id": 78563,
      "name": "Ouderkerk aan de Amstel",
      "latitude": "52.29504000",
      "longitude": "4.90746000"
    },
    {
      "id": 78565,
      "name": "Oudeschild",
      "latitude": "53.03917000",
      "longitude": "4.84722000"
    },
    {
      "id": 149975,
      "name": "Oudesluis",
      "latitude": "52.83530000",
      "longitude": "4.80640000"
    },
    {
      "id": 78568,
      "name": "Oudkarspel",
      "latitude": "52.71583000",
      "longitude": "4.80556000"
    },
    {
      "id": 149976,
      "name": "Oudorp",
      "latitude": "52.63310000",
      "longitude": "4.77360000"
    },
    {
      "id": 149977,
      "name": "Overleek",
      "latitude": "52.45360000",
      "longitude": "4.99580000"
    },
    {
      "id": 149978,
      "name": "Overmeer",
      "latitude": "52.25420000",
      "longitude": "5.04640000"
    },
    {
      "id": 78574,
      "name": "Overveen",
      "latitude": "52.39167000",
      "longitude": "4.61389000"
    },
    {
      "id": 149979,
      "name": "Penningsveer",
      "latitude": "52.39280000",
      "longitude": "4.67610000"
    },
    {
      "id": 78588,
      "name": "Petten",
      "latitude": "52.76667000",
      "longitude": "4.66111000"
    },
    {
      "id": 78599,
      "name": "Purmerend",
      "latitude": "52.50500000",
      "longitude": "4.95972000"
    },
    {
      "id": 149980,
      "name": "Purmerland",
      "latitude": "52.47810000",
      "longitude": "4.92170000"
    },
    {
      "id": 149981,
      "name": "Ransdorp",
      "latitude": "52.39310000",
      "longitude": "4.99420000"
    },
    {
      "id": 149982,
      "name": "Rijsenhout",
      "latitude": "52.26060000",
      "longitude": "4.71000000"
    },
    {
      "id": 149983,
      "name": "Risdam",
      "latitude": "52.66139200",
      "longitude": "5.05250900"
    },
    {
      "id": 149984,
      "name": "Ruigoord",
      "latitude": "52.40920000",
      "longitude": "4.74890000"
    },
    {
      "id": 149985,
      "name": "Rustenburg",
      "latitude": "52.63470000",
      "longitude": "4.87670000"
    },
    {
      "id": 149986,
      "name": "Santpoort",
      "latitude": "52.42250000",
      "longitude": "4.62610000"
    },
    {
      "id": 78655,
      "name": "Schagen",
      "latitude": "52.78750000",
      "longitude": "4.79861000"
    },
    {
      "id": 78656,
      "name": "Schagerbrug",
      "latitude": "52.80250000",
      "longitude": "4.75833000"
    },
    {
      "id": 149987,
      "name": "Schalkwijk",
      "latitude": "52.35890000",
      "longitude": "4.65560000"
    },
    {
      "id": 149988,
      "name": "Schardam",
      "latitude": "52.59690000",
      "longitude": "5.01690000"
    },
    {
      "id": 149989,
      "name": "Scharwoude",
      "latitude": "52.62250000",
      "longitude": "5.00810000"
    },
    {
      "id": 149990,
      "name": "Schellingwoude",
      "latitude": "52.38440000",
      "longitude": "4.96610000"
    },
    {
      "id": 149991,
      "name": "Schellinkhout",
      "latitude": "52.63420000",
      "longitude": "5.12030000"
    },
    {
      "id": 78664,
      "name": "Schermerhorn",
      "latitude": "52.60083000",
      "longitude": "4.89167000"
    },
    {
      "id": 149992,
      "name": "Schiphol-Rijk",
      "latitude": "52.28000000",
      "longitude": "4.75670000"
    },
    {
      "id": 149993,
      "name": "Schoorl",
      "latitude": "52.70140000",
      "longitude": "4.69440000"
    },
    {
      "id": 149994,
      "name": "Schoorldam",
      "latitude": "52.70000000",
      "longitude": "4.71666667"
    },
    {
      "id": 149995,
      "name": "Sijbekarspel",
      "latitude": "52.70861111",
      "longitude": "4.99055556"
    },
    {
      "id": 149996,
      "name": "Sint Maartenszee",
      "latitude": "52.79250000",
      "longitude": "4.68970000"
    },
    {
      "id": 78702,
      "name": "Sint Pancras",
      "latitude": "52.66000000",
      "longitude": "4.78333000"
    },
    {
      "id": 78713,
      "name": "Slootdorp",
      "latitude": "52.84250000",
      "longitude": "4.97222000"
    },
    {
      "id": 149997,
      "name": "Sloten",
      "latitude": "52.34277778",
      "longitude": "4.79638889"
    },
    {
      "id": 149998,
      "name": "Sloterdijk",
      "latitude": "52.38722222",
      "longitude": "4.84638889"
    },
    {
      "id": 149999,
      "name": "Slotermeer",
      "latitude": "52.37832000",
      "longitude": "4.82231000"
    },
    {
      "id": 150000,
      "name": "Slotervaart (former borough)",
      "latitude": "52.35100000",
      "longitude": "4.83400000"
    },
    {
      "id": 150001,
      "name": "Spaarndam-Oost",
      "latitude": "52.41388889",
      "longitude": "4.69000000"
    },
    {
      "id": 150002,
      "name": "Spaarndam-West",
      "latitude": "52.41500000",
      "longitude": "4.67690000"
    },
    {
      "id": 150003,
      "name": "Spaarnwoude",
      "latitude": "52.40388889",
      "longitude": "4.69416667"
    },
    {
      "id": 150004,
      "name": "Spanbroek",
      "latitude": "52.69810000",
      "longitude": "4.96080000"
    },
    {
      "id": 78731,
      "name": "Spierdijk",
      "latitude": "52.65083000",
      "longitude": "4.94306000"
    },
    {
      "id": 150005,
      "name": "Spijkerboor",
      "latitude": "52.53830000",
      "longitude": "4.83330000"
    },
    {
      "id": 150006,
      "name": "Starnmeer",
      "latitude": "52.54190000",
      "longitude": "4.79330000"
    },
    {
      "id": 150007,
      "name": "Stede Broec",
      "latitude": "52.70060000",
      "longitude": "5.22530000"
    },
    {
      "id": 150008,
      "name": "Stierop",
      "latitude": "52.53330000",
      "longitude": "4.77530000"
    },
    {
      "id": 78761,
      "name": "Stompetoren",
      "latitude": "52.61333000",
      "longitude": "4.82083000"
    },
    {
      "id": 150009,
      "name": "Stroe",
      "latitude": "52.93333333",
      "longitude": "4.98333333"
    },
    {
      "id": 150010,
      "name": "Stroet",
      "latitude": "52.75000000",
      "longitude": "4.75000000"
    },
    {
      "id": 150011,
      "name": "Terdiek",
      "latitude": "52.72690000",
      "longitude": "4.89690000"
    },
    {
      "id": 150012,
      "name": "Texel",
      "latitude": "53.06666667",
      "longitude": "4.80000000"
    },
    {
      "id": 150013,
      "name": "Tuindorp Oostzaan",
      "latitude": "52.41135000",
      "longitude": "4.89291100"
    },
    {
      "id": 150014,
      "name": "Tuitjenhorn",
      "latitude": "52.73333333",
      "longitude": "4.75000000"
    },
    {
      "id": 78801,
      "name": "Twisk",
      "latitude": "52.74083000",
      "longitude": "5.05278000"
    },
    {
      "id": 150015,
      "name": "Uitdam",
      "latitude": "52.41917000",
      "longitude": "5.07083000"
    },
    {
      "id": 78811,
      "name": "Uitgeest",
      "latitude": "52.52917000",
      "longitude": "4.70972000"
    },
    {
      "id": 78812,
      "name": "Uithoorn",
      "latitude": "52.23750000",
      "longitude": "4.82639000"
    },
    {
      "id": 150016,
      "name": "Ursem",
      "latitude": "52.62720000",
      "longitude": "4.89170000"
    },
    {
      "id": 150017,
      "name": "Valkkoog",
      "latitude": "52.78333333",
      "longitude": "4.76666667"
    },
    {
      "id": 150018,
      "name": "Van Ewijcksluis",
      "latitude": "52.88330000",
      "longitude": "4.87330000"
    },
    {
      "id": 150019,
      "name": "Vatrop",
      "latitude": "52.93390000",
      "longitude": "5.00530000"
    },
    {
      "id": 150020,
      "name": "Veenhuizen",
      "latitude": "52.70250000",
      "longitude": "4.89030000"
    },
    {
      "id": 150021,
      "name": "Velsen",
      "latitude": "52.46666667",
      "longitude": "4.61666667"
    },
    {
      "id": 78843,
      "name": "Velsen-Zuid",
      "latitude": "52.46000000",
      "longitude": "4.65000000"
    },
    {
      "id": 150022,
      "name": "Velserbroek",
      "latitude": "52.43500000",
      "longitude": "4.65720000"
    },
    {
      "id": 150023,
      "name": "Venhuizen",
      "latitude": "52.66666667",
      "longitude": "5.21666667"
    },
    {
      "id": 78851,
      "name": "Vijfhuizen",
      "latitude": "52.35083000",
      "longitude": "4.67778000"
    },
    {
      "id": 150024,
      "name": "Vinkebrug",
      "latitude": "52.38670000",
      "longitude": "4.72030000"
    },
    {
      "id": 78866,
      "name": "Vogelenzang",
      "latitude": "52.31917000",
      "longitude": "4.57778000"
    },
    {
      "id": 78870,
      "name": "Volendam",
      "latitude": "52.49500000",
      "longitude": "5.07083000"
    },
    {
      "id": 78896,
      "name": "Waarland",
      "latitude": "52.72667000",
      "longitude": "4.83194000"
    },
    {
      "id": 150025,
      "name": "Wadway",
      "latitude": "52.69170000",
      "longitude": "4.97970000"
    },
    {
      "id": 150026,
      "name": "Warder",
      "latitude": "52.56410000",
      "longitude": "5.03110000"
    },
    {
      "id": 150027,
      "name": "Warmenhuizen",
      "latitude": "52.72250000",
      "longitude": "4.73970000"
    },
    {
      "id": 78910,
      "name": "Waterakkers",
      "latitude": "52.50440000",
      "longitude": "4.65608000"
    },
    {
      "id": 150028,
      "name": "Watergang",
      "latitude": "52.43333333",
      "longitude": "4.95000000"
    },
    {
      "id": 150029,
      "name": "Watergraafsmeer",
      "latitude": "52.34900000",
      "longitude": "4.93800000"
    },
    {
      "id": 150030,
      "name": "Wateringskant",
      "latitude": "52.76111111",
      "longitude": "4.87361111"
    },
    {
      "id": 150031,
      "name": "Waterland",
      "latitude": "52.45110000",
      "longitude": "5.02000000"
    },
    {
      "id": 150032,
      "name": "Waver",
      "latitude": "52.25290000",
      "longitude": "4.90780000"
    },
    {
      "id": 78915,
      "name": "Weesp",
      "latitude": "52.30750000",
      "longitude": "5.04167000"
    },
    {
      "id": 150033,
      "name": "Weidevenne",
      "latitude": "52.49716700",
      "longitude": "4.93883300"
    },
    {
      "id": 150034,
      "name": "Wervershoof",
      "latitude": "52.73470000",
      "longitude": "5.14920000"
    },
    {
      "id": 150035,
      "name": "West-Graftdijk",
      "latitude": "52.55390000",
      "longitude": "4.79610000"
    },
    {
      "id": 150036,
      "name": "West-Knollendam",
      "latitude": "52.51780000",
      "longitude": "4.78640000"
    },
    {
      "id": 150037,
      "name": "Westbeemster",
      "latitude": "52.57440000",
      "longitude": "4.89860000"
    },
    {
      "id": 150038,
      "name": "Westerland",
      "latitude": "52.89420000",
      "longitude": "4.93080000"
    },
    {
      "id": 78945,
      "name": "Westwoud",
      "latitude": "52.68500000",
      "longitude": "5.13472000"
    },
    {
      "id": 150039,
      "name": "Westzaan",
      "latitude": "52.46666667",
      "longitude": "4.76666667"
    },
    {
      "id": 150040,
      "name": "Weteringbrug",
      "latitude": "52.22250000",
      "longitude": "4.64390000"
    },
    {
      "id": 78947,
      "name": "Wieringerwaard",
      "latitude": "52.83583000",
      "longitude": "4.86528000"
    },
    {
      "id": 78948,
      "name": "Wieringerwerf",
      "latitude": "52.85083000",
      "longitude": "5.02639000"
    },
    {
      "id": 150041,
      "name": "Wijdemeren",
      "latitude": "52.23000000",
      "longitude": "5.12000000"
    },
    {
      "id": 78951,
      "name": "Wijdenes",
      "latitude": "52.63500000",
      "longitude": "5.15694000"
    },
    {
      "id": 150042,
      "name": "Wijdewormer",
      "latitude": "52.50024000",
      "longitude": "4.89244000"
    },
    {
      "id": 78953,
      "name": "Wijk aan Zee",
      "latitude": "52.49360000",
      "longitude": "4.59409000"
    },
    {
      "id": 150043,
      "name": "Wimmenum",
      "latitude": "52.63920000",
      "longitude": "4.65580000"
    },
    {
      "id": 78961,
      "name": "Winkel",
      "latitude": "52.75417000",
      "longitude": "4.90278000"
    },
    {
      "id": 150044,
      "name": "Wognum",
      "latitude": "52.68420000",
      "longitude": "5.02080000"
    },
    {
      "id": 150045,
      "name": "Wormerland",
      "latitude": "52.50860000",
      "longitude": "4.87140000"
    },
    {
      "id": 150046,
      "name": "Wormerveer",
      "latitude": "52.48333333",
      "longitude": "4.78333333"
    },
    {
      "id": 78993,
      "name": "Zaandam",
      "latitude": "52.43854000",
      "longitude": "4.82643000"
    },
    {
      "id": 78994,
      "name": "Zaandijk",
      "latitude": "52.47494000",
      "longitude": "4.80686000"
    },
    {
      "id": 78995,
      "name": "Zaanstad",
      "latitude": "52.45313000",
      "longitude": "4.81356000"
    },
    {
      "id": 78998,
      "name": "Zandvoort",
      "latitude": "52.37125000",
      "longitude": "4.53306000"
    },
    {
      "id": 79024,
      "name": "Zuid-Scharwoude",
      "latitude": "52.68667000",
      "longitude": "4.80833000"
    },
    {
      "id": 150047,
      "name": "Zuidermeer",
      "latitude": "52.66560000",
      "longitude": "4.97580000"
    },
    {
      "id": 150048,
      "name": "Zwaag",
      "latitude": "52.66860000",
      "longitude": "5.07530000"
    },
    {
      "id": 79033,
      "name": "Zwaagdijk-Oost",
      "latitude": "52.70750000",
      "longitude": "5.14028000"
    },
    {
      "id": 150049,
      "name": "Zwaagdijk-West",
      "latitude": "52.67580000",
      "longitude": "5.05920000"
    },
    {
      "id": 79034,
      "name": "Zwaanshoek",
      "latitude": "52.31250000",
      "longitude": "4.61667000"
    }
  ],
  "country": {
    "id": 156,
    "name": "Netherlands",
    "iso3": "NLD",
    "iso2": "NL",
    "numeric_code": "528",
    "phone_code": "31",
    "capital": "Amsterdam",
    "currency": "EUR",
    "currency_name": "Euro",
    "currency_symbol": "‚Ç¨",
    "tld": ".nl",
    "native": "Nederland",
    "region": "Europe",
    "subregion": "Western Europe",
    "timezones": [
      {
        "zoneName": "Europe/Amsterdam",
        "gmtOffset": 3600,
        "gmtOffsetName": "UTC+01:00",
        "abbreviation": "CET",
        "tzName": "Central European Time"
      }
    ],
    "translations": {
      "kr": "ÎÑ§ÎçúÎûÄÎìú ",
      "pt-BR": "Holanda",
      "pt": "Pa√≠ses Baixos",
      "nl": "Nederland",
      "hr": "Nizozemska",
      "fa": "ŸæÿßÿØÿ¥ÿßŸá€å ŸáŸÑŸÜÿØ",
      "de": "Niederlande",
      "es": "Pa√≠ses Bajos",
      "fr": "Pays-Bas",
      "ja": "„Ç™„É©„É≥„ÉÄ",
      "it": "Paesi Bassi",
      "cn": "Ëç∑ÂÖ∞",
      "tr": "Hollanda"
    },
    "latitude": "52.50000000",
    "longitude": "5.75000000",
    "emoji": "üá≥üá±",
    "emojiU": "U+1F1F3 U+1F1F1"
  }
}