{
  "id": 3021,
  "name": "Saxony",
  "state_code": "SN",
  "latitude": "51.10454070",
  "longitude": "13.20173840",
  "type": null,
  "cities": [
    {
      "id": 23493,
      "name": "Adorf",
      "latitude": "50.32011000",
      "longitude": "12.25986000"
    },
    {
      "id": 23537,
      "name": "Albertstadt",
      "latitude": "51.08333000",
      "longitude": "13.76667000"
    },
    {
      "id": 23593,
      "name": "Altenberg",
      "latitude": "50.76556000",
      "longitude": "13.75334000"
    },
    {
      "id": 23629,
      "name": "Altmittweida",
      "latitude": "50.96667000",
      "longitude": "12.95000000"
    },
    {
      "id": 23661,
      "name": "Annaberg-Buchholz",
      "latitude": "50.57953000",
      "longitude": "13.00627000"
    },
    {
      "id": 23696,
      "name": "Arzberg",
      "latitude": "51.52887000",
      "longitude": "13.12565000"
    },
    {
      "id": 23724,
      "name": "Aue",
      "latitude": "50.59034000",
      "longitude": "12.70657000"
    },
    {
      "id": 23726,
      "name": "Auerbach",
      "latitude": "50.51155000",
      "longitude": "12.40083000"
    },
    {
      "id": 23733,
      "name": "Augustusburg",
      "latitude": "50.81192000",
      "longitude": "13.10197000"
    },
    {
      "id": 23775,
      "name": "Bad Brambach",
      "latitude": "50.21667000",
      "longitude": "12.31667000"
    },
    {
      "id": 23784,
      "name": "Bad Düben",
      "latitude": "51.59174000",
      "longitude": "12.58492000"
    },
    {
      "id": 23789,
      "name": "Bad Elster",
      "latitude": "50.28192000",
      "longitude": "12.23430000"
    },
    {
      "id": 23826,
      "name": "Bad Lausick",
      "latitude": "51.14495000",
      "longitude": "12.64449000"
    },
    {
      "id": 23836,
      "name": "Bad Muskau",
      "latitude": "51.55051000",
      "longitude": "14.71240000"
    },
    {
      "id": 23860,
      "name": "Bad Schandau",
      "latitude": "50.91743000",
      "longitude": "14.15494000"
    },
    {
      "id": 23861,
      "name": "Bad Schlema",
      "latitude": "50.60257000",
      "longitude": "12.67288000"
    },
    {
      "id": 23921,
      "name": "Bannewitz",
      "latitude": "50.99291000",
      "longitude": "13.71712000"
    },
    {
      "id": 24459,
      "name": "Bärenstein",
      "latitude": "50.50000000",
      "longitude": "13.03333000"
    },
    {
      "id": 23963,
      "name": "Bautzen",
      "latitude": "51.18035000",
      "longitude": "14.43494000"
    },
    {
      "id": 23992,
      "name": "Beierfeld",
      "latitude": "50.56529000",
      "longitude": "12.79049000"
    },
    {
      "id": 23993,
      "name": "Beiersdorf",
      "latitude": "51.07405000",
      "longitude": "14.53828000"
    },
    {
      "id": 23994,
      "name": "Beilrode",
      "latitude": "51.56667000",
      "longitude": "13.06667000"
    },
    {
      "id": 23998,
      "name": "Belgern",
      "latitude": "51.48263000",
      "longitude": "13.12382000"
    },
    {
      "id": 23999,
      "name": "Belgershain",
      "latitude": "51.23333000",
      "longitude": "12.55000000"
    },
    {
      "id": 24012,
      "name": "Bennewitz",
      "latitude": "51.36074000",
      "longitude": "12.71376000"
    },
    {
      "id": 24034,
      "name": "Bergen",
      "latitude": "50.47100000",
      "longitude": "12.27448000"
    },
    {
      "id": 24069,
      "name": "Bernsbach",
      "latitude": "50.57624000",
      "longitude": "12.76751000"
    },
    {
      "id": 24070,
      "name": "Bernsdorf",
      "latitude": "51.37350000",
      "longitude": "14.06886000"
    },
    {
      "id": 24071,
      "name": "Bernstadt",
      "latitude": "51.04736000",
      "longitude": "14.82784000"
    },
    {
      "id": 24075,
      "name": "Berthelsdorf",
      "latitude": "51.04679000",
      "longitude": "14.22197000"
    },
    {
      "id": 24076,
      "name": "Bertsdorf-Hörnitz",
      "latitude": "50.88593000",
      "longitude": "14.73696000"
    },
    {
      "id": 24150,
      "name": "Bischofswerda",
      "latitude": "51.12771000",
      "longitude": "14.17974000"
    },
    {
      "id": 24195,
      "name": "Bockau",
      "latitude": "50.54209000",
      "longitude": "12.68639000"
    },
    {
      "id": 24196,
      "name": "Bockelwitz",
      "latitude": "51.19942000",
      "longitude": "12.95618000"
    },
    {
      "id": 24466,
      "name": "Böhlen",
      "latitude": "51.20061000",
      "longitude": "12.38622000"
    },
    {
      "id": 24250,
      "name": "Borna",
      "latitude": "51.12416000",
      "longitude": "12.49639000"
    },
    {
      "id": 24474,
      "name": "Börnichen",
      "latitude": "50.75010000",
      "longitude": "13.14075000"
    },
    {
      "id": 24257,
      "name": "Borsdorf",
      "latitude": "51.35000000",
      "longitude": "12.53333000"
    },
    {
      "id": 24260,
      "name": "Borstendorf",
      "latitude": "50.77323000",
      "longitude": "13.17918000"
    },
    {
      "id": 24480,
      "name": "Bösenbrunn",
      "latitude": "50.39703000",
      "longitude": "12.09998000"
    },
    {
      "id": 24267,
      "name": "Boxberg",
      "latitude": "51.40373000",
      "longitude": "14.57598000"
    },
    {
      "id": 24278,
      "name": "Brand-Erbisdorf",
      "latitude": "50.86643000",
      "longitude": "13.32285000"
    },
    {
      "id": 24281,
      "name": "Brandis",
      "latitude": "51.33597000",
      "longitude": "12.61024000"
    },
    {
      "id": 24308,
      "name": "Breitenbrunn",
      "latitude": "50.47553000",
      "longitude": "12.76649000"
    },
    {
      "id": 24435,
      "name": "Burgstädt",
      "latitude": "50.91333000",
      "longitude": "12.80600000"
    },
    {
      "id": 24441,
      "name": "Burkau",
      "latitude": "51.17579000",
      "longitude": "14.17329000"
    },
    {
      "id": 24442,
      "name": "Burkhardtsdorf",
      "latitude": "50.73333000",
      "longitude": "12.91667000"
    },
    {
      "id": 24517,
      "name": "Callenberg",
      "latitude": "50.85000000",
      "longitude": "12.63333000"
    },
    {
      "id": 24527,
      "name": "Cavertitz",
      "latitude": "51.38333000",
      "longitude": "13.13333000"
    },
    {
      "id": 24533,
      "name": "Chemnitz",
      "latitude": "50.83570000",
      "longitude": "12.92922000"
    },
    {
      "id": 24539,
      "name": "Claußnitz",
      "latitude": "50.93333000",
      "longitude": "12.88333000"
    },
    {
      "id": 24549,
      "name": "Colditz",
      "latitude": "51.12821000",
      "longitude": "12.80295000"
    },
    {
      "id": 24554,
      "name": "Coswig",
      "latitude": "51.13204000",
      "longitude": "13.58312000"
    },
    {
      "id": 24563,
      "name": "Crimmitschau",
      "latitude": "50.81644000",
      "longitude": "12.39045000"
    },
    {
      "id": 24566,
      "name": "Crostau",
      "latitude": "51.08462000",
      "longitude": "14.45589000"
    },
    {
      "id": 24567,
      "name": "Crostwitz",
      "latitude": "51.23832000",
      "longitude": "14.24338000"
    },
    {
      "id": 24568,
      "name": "Crottendorf",
      "latitude": "50.51667000",
      "longitude": "12.95000000"
    },
    {
      "id": 24569,
      "name": "Cunewalde",
      "latitude": "51.10000000",
      "longitude": "14.51667000"
    },
    {
      "id": 24579,
      "name": "Dahlen",
      "latitude": "51.36495000",
      "longitude": "12.99881000"
    },
    {
      "id": 24623,
      "name": "Delitzsch",
      "latitude": "51.52546000",
      "longitude": "12.34284000"
    },
    {
      "id": 24628,
      "name": "Demitz-Thumitz",
      "latitude": "51.14149000",
      "longitude": "14.24719000"
    },
    {
      "id": 24633,
      "name": "Dennheritz",
      "latitude": "50.81412000",
      "longitude": "12.46519000"
    },
    {
      "id": 24660,
      "name": "Deutzen",
      "latitude": "51.11217000",
      "longitude": "12.42541000"
    },
    {
      "id": 24701,
      "name": "Dippoldiswalde",
      "latitude": "50.89621000",
      "longitude": "13.66905000"
    },
    {
      "id": 24792,
      "name": "Döbeln",
      "latitude": "51.12210000",
      "longitude": "13.11027000"
    },
    {
      "id": 24793,
      "name": "Döbernitz",
      "latitude": "51.51241000",
      "longitude": "12.34753000"
    },
    {
      "id": 24714,
      "name": "Doberschütz",
      "latitude": "51.49870000",
      "longitude": "12.74792000"
    },
    {
      "id": 24718,
      "name": "Dohma",
      "latitude": "50.91667000",
      "longitude": "13.93333000"
    },
    {
      "id": 24719,
      "name": "Dohna",
      "latitude": "50.95621000",
      "longitude": "13.85839000"
    },
    {
      "id": 24727,
      "name": "Dommitzsch",
      "latitude": "51.64071000",
      "longitude": "12.87940000"
    },
    {
      "id": 24734,
      "name": "Dorfchemnitz",
      "latitude": "50.66363000",
      "longitude": "12.83651000"
    },
    {
      "id": 24736,
      "name": "Dorfhain",
      "latitude": "50.93333000",
      "longitude": "13.56667000"
    },
    {
      "id": 24757,
      "name": "Drebach",
      "latitude": "50.67583000",
      "longitude": "13.01620000"
    },
    {
      "id": 24768,
      "name": "Dresden",
      "latitude": "51.05089000",
      "longitude": "13.73832000"
    },
    {
      "id": 24813,
      "name": "Dürrhennersdorf",
      "latitude": "51.04863000",
      "longitude": "14.60383000"
    },
    {
      "id": 24815,
      "name": "Dürrröhrsdorf",
      "latitude": "51.03395000",
      "longitude": "13.99718000"
    },
    {
      "id": 24832,
      "name": "Ebersbach",
      "latitude": "51.00762000",
      "longitude": "14.58621000"
    },
    {
      "id": 24893,
      "name": "Ehrenfriedersdorf",
      "latitude": "50.64934000",
      "longitude": "12.97009000"
    },
    {
      "id": 24895,
      "name": "Eibau",
      "latitude": "50.98272000",
      "longitude": "14.66214000"
    },
    {
      "id": 24897,
      "name": "Eibenstock",
      "latitude": "50.49431000",
      "longitude": "12.59978000"
    },
    {
      "id": 24904,
      "name": "Eichigt",
      "latitude": "50.35000000",
      "longitude": "12.16667000"
    },
    {
      "id": 24913,
      "name": "Eilenburg",
      "latitude": "51.45984000",
      "longitude": "12.63338000"
    },
    {
      "id": 24946,
      "name": "Ellefeld",
      "latitude": "50.48367000",
      "longitude": "12.38880000"
    },
    {
      "id": 24968,
      "name": "Elsnig",
      "latitude": "51.61024000",
      "longitude": "12.92833000"
    },
    {
      "id": 24970,
      "name": "Elsterberg",
      "latitude": "50.60841000",
      "longitude": "12.16787000"
    },
    {
      "id": 24971,
      "name": "Elstertrebnitz",
      "latitude": "51.15000000",
      "longitude": "12.23333000"
    },
    {
      "id": 24973,
      "name": "Elstra",
      "latitude": "51.22172000",
      "longitude": "14.13201000"
    },
    {
      "id": 24974,
      "name": "Elterlein",
      "latitude": "50.57663000",
      "longitude": "12.86836000"
    },
    {
      "id": 25022,
      "name": "Eppendorf",
      "latitude": "50.80000000",
      "longitude": "13.23333000"
    },
    {
      "id": 25053,
      "name": "Erlau",
      "latitude": "51.00938000",
      "longitude": "12.94549000"
    },
    {
      "id": 25054,
      "name": "Erlbach",
      "latitude": "50.31667000",
      "longitude": "12.36667000"
    },
    {
      "id": 25091,
      "name": "Espenhain",
      "latitude": "51.18926000",
      "longitude": "12.47885000"
    },
    {
      "id": 25131,
      "name": "Falkenau",
      "latitude": "50.85559000",
      "longitude": "13.11718000"
    },
    {
      "id": 25137,
      "name": "Falkenhain",
      "latitude": "51.39888000",
      "longitude": "12.87083000"
    },
    {
      "id": 25139,
      "name": "Falkenstein",
      "latitude": "50.47788000",
      "longitude": "12.37129000"
    },
    {
      "id": 25199,
      "name": "Flöha",
      "latitude": "50.85613000",
      "longitude": "13.07407000"
    },
    {
      "id": 25214,
      "name": "Frankenberg",
      "latitude": "50.91297000",
      "longitude": "13.04011000"
    },
    {
      "id": 25216,
      "name": "Frankenstein",
      "latitude": "50.90064000",
      "longitude": "13.20933000"
    },
    {
      "id": 25219,
      "name": "Frankenthal",
      "latitude": "51.13129000",
      "longitude": "14.10893000"
    },
    {
      "id": 25230,
      "name": "Frauenstein",
      "latitude": "50.80279000",
      "longitude": "13.53790000"
    },
    {
      "id": 25233,
      "name": "Fraureuth",
      "latitude": "50.70000000",
      "longitude": "12.35000000"
    },
    {
      "id": 25238,
      "name": "Freiberg",
      "latitude": "50.91089000",
      "longitude": "13.33881000"
    },
    {
      "id": 25252,
      "name": "Freital",
      "latitude": "51.00166000",
      "longitude": "13.64880000"
    },
    {
      "id": 25277,
      "name": "Friedersdorf",
      "latitude": "51.02416000",
      "longitude": "14.56246000"
    },
    {
      "id": 25304,
      "name": "Frohburg",
      "latitude": "51.05719000",
      "longitude": "12.55746000"
    },
    {
      "id": 25340,
      "name": "Gablenz",
      "latitude": "51.53333000",
      "longitude": "14.66667000"
    },
    {
      "id": 25404,
      "name": "Geising",
      "latitude": "50.75742000",
      "longitude": "13.79278000"
    },
    {
      "id": 25410,
      "name": "Geithain",
      "latitude": "51.05528000",
      "longitude": "12.69674000"
    },
    {
      "id": 25414,
      "name": "Gelenau",
      "latitude": "50.71151000",
      "longitude": "12.96666000"
    },
    {
      "id": 25443,
      "name": "Geringswalde",
      "latitude": "51.07677000",
      "longitude": "12.90725000"
    },
    {
      "id": 25458,
      "name": "Gersdorf",
      "latitude": "51.11220000",
      "longitude": "12.93889000"
    },
    {
      "id": 25479,
      "name": "Geyer",
      "latitude": "50.62632000",
      "longitude": "12.92074000"
    },
    {
      "id": 25503,
      "name": "Glashütte",
      "latitude": "50.85196000",
      "longitude": "13.77977000"
    },
    {
      "id": 25508,
      "name": "Glaubitz",
      "latitude": "51.32498000",
      "longitude": "13.37817000"
    },
    {
      "id": 25510,
      "name": "Glauchau",
      "latitude": "50.81987000",
      "longitude": "12.54493000"
    },
    {
      "id": 25775,
      "name": "Göda",
      "latitude": "51.17800000",
      "longitude": "14.31951000"
    },
    {
      "id": 25781,
      "name": "Görlitz",
      "latitude": "51.15518000",
      "longitude": "14.98853000"
    },
    {
      "id": 25543,
      "name": "Gornau",
      "latitude": "50.75901000",
      "longitude": "13.03731000"
    },
    {
      "id": 25544,
      "name": "Gornsdorf",
      "latitude": "50.70000000",
      "longitude": "12.88333000"
    },
    {
      "id": 25610,
      "name": "Grimma",
      "latitude": "51.23367000",
      "longitude": "12.71959000"
    },
    {
      "id": 25612,
      "name": "Groitzsch",
      "latitude": "51.15536000",
      "longitude": "12.28279000"
    },
    {
      "id": 25621,
      "name": "Groß Düben",
      "latitude": "51.56667000",
      "longitude": "14.56667000"
    },
    {
      "id": 25650,
      "name": "Großbardau",
      "latitude": "51.20419000",
      "longitude": "12.69848000"
    },
    {
      "id": 25656,
      "name": "Großbothen",
      "latitude": "51.18784000",
      "longitude": "12.75101000"
    },
    {
      "id": 25659,
      "name": "Großdubrau",
      "latitude": "51.25422000",
      "longitude": "14.45897000"
    },
    {
      "id": 25664,
      "name": "Großenhain",
      "latitude": "51.28951000",
      "longitude": "13.53350000"
    },
    {
      "id": 25675,
      "name": "Großharthau",
      "latitude": "51.10694000",
      "longitude": "14.09911000"
    },
    {
      "id": 25676,
      "name": "Großhartmannsdorf",
      "latitude": "50.80000000",
      "longitude": "13.33333000"
    },
    {
      "id": 25678,
      "name": "Großhennersdorf",
      "latitude": "50.98597000",
      "longitude": "14.78776000"
    },
    {
      "id": 25689,
      "name": "Großlehna",
      "latitude": "51.30687000",
      "longitude": "12.17190000"
    },
    {
      "id": 25693,
      "name": "Großnaundorf",
      "latitude": "51.20000000",
      "longitude": "13.93333000"
    },
    {
      "id": 25695,
      "name": "Großolbersdorf",
      "latitude": "50.70000000",
      "longitude": "13.08333000"
    },
    {
      "id": 25698,
      "name": "Großpösna",
      "latitude": "51.26667000",
      "longitude": "12.50000000"
    },
    {
      "id": 25697,
      "name": "Großpostwitz",
      "latitude": "51.12083000",
      "longitude": "14.44065000"
    },
    {
      "id": 25704,
      "name": "Großröhrsdorf",
      "latitude": "51.14528000",
      "longitude": "14.01917000"
    },
    {
      "id": 25705,
      "name": "Großrückerswalde",
      "latitude": "50.63333000",
      "longitude": "13.11667000"
    },
    {
      "id": 25706,
      "name": "Großschirma",
      "latitude": "50.96602000",
      "longitude": "13.28590000"
    },
    {
      "id": 25708,
      "name": "Großschönau",
      "latitude": "50.90000000",
      "longitude": "14.68333000"
    },
    {
      "id": 25707,
      "name": "Großschweidnitz",
      "latitude": "51.06939000",
      "longitude": "14.64297000"
    },
    {
      "id": 25713,
      "name": "Großweitzschen",
      "latitude": "51.15845000",
      "longitude": "13.04517000"
    },
    {
      "id": 25735,
      "name": "Grünbach",
      "latitude": "50.44995000",
      "longitude": "12.36186000"
    },
    {
      "id": 25739,
      "name": "Grünhain",
      "latitude": "50.58019000",
      "longitude": "12.80695000"
    },
    {
      "id": 25740,
      "name": "Grünhainichen",
      "latitude": "50.76720000",
      "longitude": "13.15366000"
    },
    {
      "id": 25770,
      "name": "Guttau",
      "latitude": "51.25904000",
      "longitude": "14.56132000"
    },
    {
      "id": 26295,
      "name": "Hähnichen",
      "latitude": "51.36540000",
      "longitude": "14.86098000"
    },
    {
      "id": 25837,
      "name": "Hainewalde",
      "latitude": "50.91014000",
      "longitude": "14.70387000"
    },
    {
      "id": 25838,
      "name": "Hainichen",
      "latitude": "50.97044000",
      "longitude": "13.12287000"
    },
    {
      "id": 25858,
      "name": "Halsbrücke",
      "latitude": "50.95000000",
      "longitude": "13.35000000"
    },
    {
      "id": 25878,
      "name": "Hammerbrücke",
      "latitude": "50.43504000",
      "longitude": "12.41500000"
    },
    {
      "id": 25913,
      "name": "Hartenstein",
      "latitude": "50.66236000",
      "longitude": "12.66966000"
    },
    {
      "id": 25914,
      "name": "Hartha",
      "latitude": "51.09863000",
      "longitude": "12.97391000"
    },
    {
      "id": 25917,
      "name": "Hartmannsdorf",
      "latitude": "50.75804000",
      "longitude": "12.42687000"
    },
    {
      "id": 25924,
      "name": "Haselbachtal",
      "latitude": "51.23570000",
      "longitude": "14.02576000"
    },
    {
      "id": 25954,
      "name": "Hauswalde",
      "latitude": "51.15212000",
      "longitude": "14.08630000"
    },
    {
      "id": 25985,
      "name": "Heidenau",
      "latitude": "50.97221000",
      "longitude": "13.86741000"
    },
    {
      "id": 26081,
      "name": "Hermsdorf",
      "latitude": "50.92338000",
      "longitude": "13.73480000"
    },
    {
      "id": 26090,
      "name": "Herrnhut",
      "latitude": "51.01624000",
      "longitude": "14.74381000"
    },
    {
      "id": 26132,
      "name": "Hilbersdorf",
      "latitude": "50.85400000",
      "longitude": "12.94776000"
    },
    {
      "id": 26165,
      "name": "Hirschfeld",
      "latitude": "50.62453000",
      "longitude": "12.45722000"
    },
    {
      "id": 26167,
      "name": "Hirschfelde",
      "latitude": "50.94437000",
      "longitude": "14.88510000"
    },
    {
      "id": 26177,
      "name": "Hochkirch",
      "latitude": "51.14898000",
      "longitude": "14.57063000"
    },
    {
      "id": 26305,
      "name": "Höckendorf",
      "latitude": "51.22423000",
      "longitude": "13.90935000"
    },
    {
      "id": 26194,
      "name": "Hohburg",
      "latitude": "51.41168000",
      "longitude": "12.80508000"
    },
    {
      "id": 26215,
      "name": "Hohenstein-Ernstthal",
      "latitude": "50.80064000",
      "longitude": "12.71287000"
    },
    {
      "id": 26224,
      "name": "Hohndorf",
      "latitude": "50.74044000",
      "longitude": "12.68058000"
    },
    {
      "id": 26226,
      "name": "Hohnstein",
      "latitude": "50.97991000",
      "longitude": "14.11408000"
    },
    {
      "id": 26262,
      "name": "Horka",
      "latitude": "51.26342000",
      "longitude": "14.25523000"
    },
    {
      "id": 26263,
      "name": "Hormersdorf",
      "latitude": "50.67406000",
      "longitude": "12.88194000"
    },
    {
      "id": 26277,
      "name": "Hoyerswerda",
      "latitude": "51.43787000",
      "longitude": "14.23549000"
    },
    {
      "id": 26427,
      "name": "Jahnsdorf",
      "latitude": "50.74509000",
      "longitude": "12.85414000"
    },
    {
      "id": 26443,
      "name": "Jesewitz",
      "latitude": "51.42276000",
      "longitude": "12.56312000"
    },
    {
      "id": 26455,
      "name": "Johanngeorgenstadt",
      "latitude": "50.43254000",
      "longitude": "12.71140000"
    },
    {
      "id": 26467,
      "name": "Jöhstadt",
      "latitude": "50.51229000",
      "longitude": "13.09460000"
    },
    {
      "id": 26500,
      "name": "Kamenz",
      "latitude": "51.26798000",
      "longitude": "14.09374000"
    },
    {
      "id": 26595,
      "name": "Kirchberg",
      "latitude": "50.62190000",
      "longitude": "12.52449000"
    },
    {
      "id": 26644,
      "name": "Kirschau",
      "latitude": "51.09317000",
      "longitude": "14.42840000"
    },
    {
      "id": 26651,
      "name": "Kitzen",
      "latitude": "51.22172000",
      "longitude": "12.22349000"
    },
    {
      "id": 26653,
      "name": "Kitzscher",
      "latitude": "51.16444000",
      "longitude": "12.55260000"
    },
    {
      "id": 26689,
      "name": "Klingenthal",
      "latitude": "50.35963000",
      "longitude": "12.46463000"
    },
    {
      "id": 26691,
      "name": "Klipphausen",
      "latitude": "51.06841000",
      "longitude": "13.51374000"
    },
    {
      "id": 26692,
      "name": "Klitten",
      "latitude": "51.35109000",
      "longitude": "14.60526000"
    },
    {
      "id": 26707,
      "name": "Kodersdorf",
      "latitude": "51.24272000",
      "longitude": "14.89336000"
    },
    {
      "id": 26826,
      "name": "Königsbrück",
      "latitude": "51.26451000",
      "longitude": "13.90540000"
    },
    {
      "id": 26829,
      "name": "Königsfeld",
      "latitude": "51.06667000",
      "longitude": "12.75000000"
    },
    {
      "id": 26832,
      "name": "Königshain",
      "latitude": "51.18333000",
      "longitude": "14.86667000"
    },
    {
      "id": 26834,
      "name": "Königstein",
      "latitude": "50.91570000",
      "longitude": "14.07186000"
    },
    {
      "id": 26837,
      "name": "Königswalde",
      "latitude": "50.55000000",
      "longitude": "13.05000000"
    },
    {
      "id": 26838,
      "name": "Königswartha",
      "latitude": "51.31028000",
      "longitude": "14.32797000"
    },
    {
      "id": 26729,
      "name": "Kossa",
      "latitude": "51.61707000",
      "longitude": "12.68197000"
    },
    {
      "id": 26742,
      "name": "Krauschwitz",
      "latitude": "51.52153000",
      "longitude": "14.71211000"
    },
    {
      "id": 26748,
      "name": "Kreischa",
      "latitude": "50.94534000",
      "longitude": "13.75514000"
    },
    {
      "id": 26761,
      "name": "Kriebstein",
      "latitude": "51.05000000",
      "longitude": "13.01667000"
    },
    {
      "id": 26776,
      "name": "Krostitz",
      "latitude": "51.46208000",
      "longitude": "12.45360000"
    },
    {
      "id": 26788,
      "name": "Kubschütz",
      "latitude": "51.16667000",
      "longitude": "14.50000000"
    },
    {
      "id": 26801,
      "name": "Kurort Gohrisch",
      "latitude": "50.91234000",
      "longitude": "14.10687000"
    },
    {
      "id": 26802,
      "name": "Kurort Jonsdorf",
      "latitude": "50.85751000",
      "longitude": "14.70922000"
    },
    {
      "id": 26803,
      "name": "Kurort Oberwiesenthal",
      "latitude": "50.41943000",
      "longitude": "12.96836000"
    },
    {
      "id": 26804,
      "name": "Kurort Oybin",
      "latitude": "50.84105000",
      "longitude": "14.74124000"
    },
    {
      "id": 26886,
      "name": "Lampertswalde",
      "latitude": "51.31108000",
      "longitude": "13.67694000"
    },
    {
      "id": 26910,
      "name": "Langenbernsdorf",
      "latitude": "50.75583000",
      "longitude": "12.32669000"
    },
    {
      "id": 26991,
      "name": "Laußig",
      "latitude": "51.54676000",
      "longitude": "12.62930000"
    },
    {
      "id": 26992,
      "name": "Laußnitz",
      "latitude": "51.25000000",
      "longitude": "13.88333000"
    },
    {
      "id": 26982,
      "name": "Lauter",
      "latitude": "50.56264000",
      "longitude": "12.73513000"
    },
    {
      "id": 26993,
      "name": "Lawalde",
      "latitude": "51.08333000",
      "longitude": "14.60000000"
    },
    {
      "id": 27028,
      "name": "Leipzig",
      "latitude": "51.33962000",
      "longitude": "12.37129000"
    },
    {
      "id": 27029,
      "name": "Leisnig",
      "latitude": "51.15743000",
      "longitude": "12.92790000"
    },
    {
      "id": 27040,
      "name": "Lengefeld",
      "latitude": "50.71911000",
      "longitude": "13.19290000"
    },
    {
      "id": 27041,
      "name": "Lengenfeld",
      "latitude": "50.56940000",
      "longitude": "12.36408000"
    },
    {
      "id": 27057,
      "name": "Leubnitz",
      "latitude": "50.72313000",
      "longitude": "12.35660000"
    },
    {
      "id": 27058,
      "name": "Leubsdorf",
      "latitude": "50.80000000",
      "longitude": "13.16667000"
    },
    {
      "id": 27067,
      "name": "Leutersdorf",
      "latitude": "50.95000000",
      "longitude": "14.65000000"
    },
    {
      "id": 27080,
      "name": "Lichtenberg",
      "latitude": "50.83492000",
      "longitude": "13.42478000"
    },
    {
      "id": 27083,
      "name": "Lichtenstein",
      "latitude": "50.75659000",
      "longitude": "12.63025000"
    },
    {
      "id": 27084,
      "name": "Lichtentanne",
      "latitude": "50.69255000",
      "longitude": "12.42585000"
    },
    {
      "id": 27091,
      "name": "Liebstadt",
      "latitude": "50.86417000",
      "longitude": "13.85694000"
    },
    {
      "id": 27097,
      "name": "Limbach",
      "latitude": "50.58333000",
      "longitude": "12.25000000"
    },
    {
      "id": 27098,
      "name": "Limbach-Oberfrohna",
      "latitude": "50.85882000",
      "longitude": "12.76165000"
    },
    {
      "id": 27185,
      "name": "Löbau",
      "latitude": "51.09954000",
      "longitude": "14.66738000"
    },
    {
      "id": 27189,
      "name": "Löbnitz",
      "latitude": "51.59238000",
      "longitude": "12.46347000"
    },
    {
      "id": 27125,
      "name": "Lobstädt",
      "latitude": "51.13361000",
      "longitude": "12.44861000"
    },
    {
      "id": 27134,
      "name": "Lohmen",
      "latitude": "50.98831000",
      "longitude": "14.00268000"
    },
    {
      "id": 27138,
      "name": "Lohsa",
      "latitude": "51.38333000",
      "longitude": "14.40000000"
    },
    {
      "id": 27142,
      "name": "Lommatzsch",
      "latitude": "51.19537000",
      "longitude": "13.30917000"
    },
    {
      "id": 27200,
      "name": "Lößnitz",
      "latitude": "50.62181000",
      "longitude": "12.73147000"
    },
    {
      "id": 27169,
      "name": "Lugau",
      "latitude": "50.73843000",
      "longitude": "12.74861000"
    },
    {
      "id": 27176,
      "name": "Lunzenau",
      "latitude": "50.96269000",
      "longitude": "12.75594000"
    },
    {
      "id": 27227,
      "name": "Machern",
      "latitude": "51.36667000",
      "longitude": "12.63333000"
    },
    {
      "id": 27257,
      "name": "Malschwitz",
      "latitude": "51.23759000",
      "longitude": "14.52163000"
    },
    {
      "id": 27273,
      "name": "Marienberg",
      "latitude": "50.65051000",
      "longitude": "13.16122000"
    },
    {
      "id": 27284,
      "name": "Markersbach",
      "latitude": "50.53545000",
      "longitude": "12.86149000"
    },
    {
      "id": 27285,
      "name": "Markersdorf",
      "latitude": "51.13333000",
      "longitude": "14.88333000"
    },
    {
      "id": 27287,
      "name": "Markkleeberg",
      "latitude": "51.27550000",
      "longitude": "12.36906000"
    },
    {
      "id": 27290,
      "name": "Markneukirchen",
      "latitude": "50.31144000",
      "longitude": "12.32951000"
    },
    {
      "id": 27291,
      "name": "Markranstädt",
      "latitude": "51.30146000",
      "longitude": "12.22020000"
    },
    {
      "id": 27365,
      "name": "Meerane",
      "latitude": "50.84688000",
      "longitude": "12.46473000"
    },
    {
      "id": 27373,
      "name": "Mehltheuer",
      "latitude": "50.54530000",
      "longitude": "12.03700000"
    },
    {
      "id": 27385,
      "name": "Meissen",
      "latitude": "51.16158000",
      "longitude": "13.47370000"
    },
    {
      "id": 27465,
      "name": "Mildenau",
      "latitude": "50.58689000",
      "longitude": "13.07263000"
    },
    {
      "id": 27482,
      "name": "Mittelherwigsdorf",
      "latitude": "50.91667000",
      "longitude": "14.76667000"
    },
    {
      "id": 27493,
      "name": "Mittweida",
      "latitude": "50.98622000",
      "longitude": "12.97537000"
    },
    {
      "id": 27497,
      "name": "Mochau",
      "latitude": "51.13333000",
      "longitude": "13.18333000"
    },
    {
      "id": 27498,
      "name": "Mockrehna",
      "latitude": "51.50757000",
      "longitude": "12.81418000"
    },
    {
      "id": 27525,
      "name": "Moritzburg",
      "latitude": "51.15922000",
      "longitude": "13.68021000"
    },
    {
      "id": 27584,
      "name": "Mücka",
      "latitude": "51.31667000",
      "longitude": "14.70000000"
    },
    {
      "id": 27586,
      "name": "Mügeln",
      "latitude": "51.23619000",
      "longitude": "13.04567000"
    },
    {
      "id": 27591,
      "name": "Mühlau",
      "latitude": "50.90000000",
      "longitude": "12.76667000"
    },
    {
      "id": 27603,
      "name": "Mühltroff",
      "latitude": "50.53919000",
      "longitude": "11.92828000"
    },
    {
      "id": 27535,
      "name": "Mulda",
      "latitude": "50.80789000",
      "longitude": "13.41477000"
    },
    {
      "id": 27608,
      "name": "Mülsen",
      "latitude": "50.75000000",
      "longitude": "12.56667000"
    },
    {
      "id": 27551,
      "name": "Mutzschen",
      "latitude": "51.26159000",
      "longitude": "12.89125000"
    },
    {
      "id": 27552,
      "name": "Mylau",
      "latitude": "50.61861000",
      "longitude": "12.26535000"
    },
    {
      "id": 27643,
      "name": "Narsdorf",
      "latitude": "51.01667000",
      "longitude": "12.71667000"
    },
    {
      "id": 27651,
      "name": "Naundorf",
      "latitude": "51.25718000",
      "longitude": "13.10810000"
    },
    {
      "id": 27652,
      "name": "Naunhof",
      "latitude": "51.27770000",
      "longitude": "12.58827000"
    },
    {
      "id": 27655,
      "name": "Nauwalde",
      "latitude": "51.41837000",
      "longitude": "13.40974000"
    },
    {
      "id": 27656,
      "name": "Nebelschütz",
      "latitude": "51.26227000",
      "longitude": "14.15849000"
    },
    {
      "id": 27677,
      "name": "Nerchau",
      "latitude": "51.27094000",
      "longitude": "12.78912000"
    },
    {
      "id": 27680,
      "name": "Neschwitz",
      "latitude": "51.27056000",
      "longitude": "14.32900000"
    },
    {
      "id": 27686,
      "name": "Netzschkau",
      "latitude": "50.61411000",
      "longitude": "12.24382000"
    },
    {
      "id": 27726,
      "name": "Neuensalz",
      "latitude": "50.50000000",
      "longitude": "12.21667000"
    },
    {
      "id": 27736,
      "name": "Neugersdorf",
      "latitude": "50.97729000",
      "longitude": "14.60881000"
    },
    {
      "id": 27745,
      "name": "Neuhausen",
      "latitude": "50.67647000",
      "longitude": "13.46750000"
    },
    {
      "id": 27755,
      "name": "Neukieritzsch",
      "latitude": "51.14995000",
      "longitude": "12.41090000"
    },
    {
      "id": 27756,
      "name": "Neukirch",
      "latitude": "51.28333000",
      "longitude": "13.98333000"
    },
    {
      "id": 27758,
      "name": "Neukirch/Lausitz",
      "latitude": "51.09727000",
      "longitude": "14.30789000"
    },
    {
      "id": 27762,
      "name": "Neukirchen",
      "latitude": "50.77955000",
      "longitude": "12.86755000"
    },
    {
      "id": 27770,
      "name": "Neumark",
      "latitude": "50.66010000",
      "longitude": "12.35619000"
    },
    {
      "id": 27788,
      "name": "Neusalza-Spremberg",
      "latitude": "51.03945000",
      "longitude": "14.53560000"
    },
    {
      "id": 27806,
      "name": "Neustadt in Sachsen",
      "latitude": "51.02844000",
      "longitude": "14.21785000"
    },
    {
      "id": 27796,
      "name": "Neustadt Vogtland",
      "latitude": "50.46100000",
      "longitude": "12.33224000"
    },
    {
      "id": 27831,
      "name": "Niederau",
      "latitude": "51.17730000",
      "longitude": "13.54563000"
    },
    {
      "id": 27836,
      "name": "Niedercunnersdorf",
      "latitude": "51.05398000",
      "longitude": "14.65830000"
    },
    {
      "id": 27837,
      "name": "Niederdorf",
      "latitude": "50.72623000",
      "longitude": "12.78587000"
    },
    {
      "id": 27847,
      "name": "Niederfrohna",
      "latitude": "50.90000000",
      "longitude": "12.71667000"
    },
    {
      "id": 27871,
      "name": "Niederschöna",
      "latitude": "50.96671000",
      "longitude": "13.41910000"
    },
    {
      "id": 27877,
      "name": "Niederstriegis",
      "latitude": "51.08243000",
      "longitude": "13.14925000"
    },
    {
      "id": 27883,
      "name": "Niederwiesa",
      "latitude": "50.86667000",
      "longitude": "13.01667000"
    },
    {
      "id": 27898,
      "name": "Niesky",
      "latitude": "51.29241000",
      "longitude": "14.82107000"
    },
    {
      "id": 27934,
      "name": "Nossen",
      "latitude": "51.05798000",
      "longitude": "13.29652000"
    },
    {
      "id": 27953,
      "name": "Nünchritz",
      "latitude": "51.29993000",
      "longitude": "13.38555000"
    },
    {
      "id": 27969,
      "name": "Obercunnersdorf",
      "latitude": "50.91711000",
      "longitude": "13.56015000"
    },
    {
      "id": 27979,
      "name": "Obergurig",
      "latitude": "51.13294000",
      "longitude": "14.40488000"
    },
    {
      "id": 27993,
      "name": "Oberlichtenau",
      "latitude": "51.21875000",
      "longitude": "13.98992000"
    },
    {
      "id": 27994,
      "name": "Oberlungwitz",
      "latitude": "50.78230000",
      "longitude": "12.70789000"
    },
    {
      "id": 28033,
      "name": "Oberschöna",
      "latitude": "50.89759000",
      "longitude": "13.25379000"
    },
    {
      "id": 28055,
      "name": "Oberwiera",
      "latitude": "50.88913000",
      "longitude": "12.54415000"
    },
    {
      "id": 28073,
      "name": "Oederan",
      "latitude": "50.86064000",
      "longitude": "13.17164000"
    },
    {
      "id": 28078,
      "name": "Oelsnitz",
      "latitude": "50.41470000",
      "longitude": "12.16950000"
    },
    {
      "id": 28101,
      "name": "Ohorn",
      "latitude": "51.17199000",
      "longitude": "14.04669000"
    },
    {
      "id": 28102,
      "name": "Olbernhau",
      "latitude": "50.65870000",
      "longitude": "13.34250000"
    },
    {
      "id": 28103,
      "name": "Olbersdorf",
      "latitude": "50.87304000",
      "longitude": "14.77035000"
    },
    {
      "id": 28117,
      "name": "Oppach",
      "latitude": "51.06667000",
      "longitude": "14.50000000"
    },
    {
      "id": 28136,
      "name": "Oschatz",
      "latitude": "51.30001000",
      "longitude": "13.10984000"
    },
    {
      "id": 28206,
      "name": "Oßling",
      "latitude": "51.35999000",
      "longitude": "14.16567000"
    },
    {
      "id": 28165,
      "name": "Ostrau",
      "latitude": "51.20639000",
      "longitude": "12.88421000"
    },
    {
      "id": 28167,
      "name": "Ostritz",
      "latitude": "51.01451000",
      "longitude": "14.93059000"
    },
    {
      "id": 28178,
      "name": "Ottendorf-Okrilla",
      "latitude": "51.18333000",
      "longitude": "13.83333000"
    },
    {
      "id": 28193,
      "name": "Otterwisch",
      "latitude": "51.20000000",
      "longitude": "12.61667000"
    },
    {
      "id": 28217,
      "name": "Panschwitz-Kuckau",
      "latitude": "51.23395000",
      "longitude": "14.19791000"
    },
    {
      "id": 28238,
      "name": "Pausa",
      "latitude": "50.58172000",
      "longitude": "11.99732000"
    },
    {
      "id": 28240,
      "name": "Pegau",
      "latitude": "51.16715000",
      "longitude": "12.25144000"
    },
    {
      "id": 28251,
      "name": "Penig",
      "latitude": "50.93336000",
      "longitude": "12.70422000"
    },
    {
      "id": 28278,
      "name": "Pfaffroda",
      "latitude": "50.86134000",
      "longitude": "12.51497000"
    },
    {
      "id": 28309,
      "name": "Pirna",
      "latitude": "50.95843000",
      "longitude": "13.93702000"
    },
    {
      "id": 28319,
      "name": "Plauen",
      "latitude": "50.49730000",
      "longitude": "12.13782000"
    },
    {
      "id": 28336,
      "name": "Pobershau",
      "latitude": "50.64079000",
      "longitude": "13.21776000"
    },
    {
      "id": 28337,
      "name": "Pockau",
      "latitude": "50.70000000",
      "longitude": "13.23333000"
    },
    {
      "id": 28414,
      "name": "Pöhl",
      "latitude": "50.39311000",
      "longitude": "12.32908000"
    },
    {
      "id": 28415,
      "name": "Pöhla",
      "latitude": "50.51143000",
      "longitude": "12.81889000"
    },
    {
      "id": 28355,
      "name": "Porschdorf",
      "latitude": "50.94180000",
      "longitude": "14.12687000"
    },
    {
      "id": 28383,
      "name": "Pretzschendorf",
      "latitude": "50.87385000",
      "longitude": "13.52499000"
    },
    {
      "id": 28388,
      "name": "Priestewitz",
      "latitude": "51.25000000",
      "longitude": "13.51667000"
    },
    {
      "id": 28407,
      "name": "Puschwitz",
      "latitude": "51.25501000",
      "longitude": "14.30111000"
    },
    {
      "id": 28434,
      "name": "Quitzdorf",
      "latitude": "51.28333000",
      "longitude": "14.76667000"
    },
    {
      "id": 28436,
      "name": "Rabenau",
      "latitude": "50.96484000",
      "longitude": "13.64305000"
    },
    {
      "id": 28772,
      "name": "Räckelwitz",
      "latitude": "51.25000000",
      "longitude": "14.23333000"
    },
    {
      "id": 28438,
      "name": "Rackwitz",
      "latitude": "51.43333000",
      "longitude": "12.38333000"
    },
    {
      "id": 28441,
      "name": "Radeberg",
      "latitude": "51.11112000",
      "longitude": "13.91199000"
    },
    {
      "id": 28442,
      "name": "Radebeul",
      "latitude": "51.10654000",
      "longitude": "13.66047000"
    },
    {
      "id": 28443,
      "name": "Radeburg",
      "latitude": "51.21516000",
      "longitude": "13.72810000"
    },
    {
      "id": 28446,
      "name": "Radibor",
      "latitude": "51.24481000",
      "longitude": "14.39842000"
    },
    {
      "id": 28462,
      "name": "Rammenau",
      "latitude": "51.15000000",
      "longitude": "14.13333000"
    },
    {
      "id": 28477,
      "name": "Raschau",
      "latitude": "50.53127000",
      "longitude": "12.83312000"
    },
    {
      "id": 28486,
      "name": "Rathmannsdorf",
      "latitude": "50.92993000",
      "longitude": "14.14224000"
    },
    {
      "id": 28501,
      "name": "Rechenberg-Bienenmühle",
      "latitude": "50.73777000",
      "longitude": "13.53502000"
    },
    {
      "id": 28526,
      "name": "Regis-Breitingen",
      "latitude": "51.08883000",
      "longitude": "12.43841000"
    },
    {
      "id": 28540,
      "name": "Reichenbach",
      "latitude": "51.14144000",
      "longitude": "14.80270000"
    },
    {
      "id": 28543,
      "name": "Reichenbach/Vogtland",
      "latitude": "50.62279000",
      "longitude": "12.30344000"
    },
    {
      "id": 28559,
      "name": "Reinhardtsgrimma",
      "latitude": "50.89270000",
      "longitude": "13.75534000"
    },
    {
      "id": 28563,
      "name": "Reinsberg",
      "latitude": "51.00823000",
      "longitude": "13.36542000"
    },
    {
      "id": 28564,
      "name": "Reinsdorf",
      "latitude": "50.69775000",
      "longitude": "12.55555000"
    },
    {
      "id": 28577,
      "name": "Remse",
      "latitude": "50.85000000",
      "longitude": "12.56667000"
    },
    {
      "id": 28594,
      "name": "Reuth",
      "latitude": "50.61667000",
      "longitude": "12.21667000"
    },
    {
      "id": 28645,
      "name": "Riesa",
      "latitude": "51.30777000",
      "longitude": "13.29168000"
    },
    {
      "id": 28653,
      "name": "Rietschen",
      "latitude": "51.40000000",
      "longitude": "14.78333000"
    },
    {
      "id": 28669,
      "name": "Rittersgrün",
      "latitude": "50.48031000",
      "longitude": "12.79336000"
    },
    {
      "id": 28670,
      "name": "Rochlitz",
      "latitude": "51.05007000",
      "longitude": "12.79754000"
    },
    {
      "id": 28678,
      "name": "Rodewisch",
      "latitude": "50.53083000",
      "longitude": "12.41329000"
    },
    {
      "id": 28713,
      "name": "Rossau",
      "latitude": "51.00000000",
      "longitude": "13.06667000"
    },
    {
      "id": 28747,
      "name": "Roßwein",
      "latitude": "51.06589000",
      "longitude": "13.18308000"
    },
    {
      "id": 28789,
      "name": "Rötha",
      "latitude": "51.19783000",
      "longitude": "12.41447000"
    },
    {
      "id": 28724,
      "name": "Rothenburg",
      "latitude": "51.33400000",
      "longitude": "14.96874000"
    },
    {
      "id": 28863,
      "name": "Sankt Egidien",
      "latitude": "50.78617000",
      "longitude": "12.62395000"
    },
    {
      "id": 28899,
      "name": "Sayda",
      "latitude": "50.71123000",
      "longitude": "13.42172000"
    },
    {
      "id": 28911,
      "name": "Scharfenstein",
      "latitude": "50.70405000",
      "longitude": "13.05654000"
    },
    {
      "id": 28921,
      "name": "Scheibenberg",
      "latitude": "50.54023000",
      "longitude": "12.91215000"
    },
    {
      "id": 28945,
      "name": "Schildau",
      "latitude": "51.45721000",
      "longitude": "12.93024000"
    },
    {
      "id": 28952,
      "name": "Schirgiswalde",
      "latitude": "51.07641000",
      "longitude": "14.42834000"
    },
    {
      "id": 28955,
      "name": "Schkeuditz",
      "latitude": "51.39678000",
      "longitude": "12.22141000"
    },
    {
      "id": 28966,
      "name": "Schlegel",
      "latitude": "50.97775000",
      "longitude": "14.87686000"
    },
    {
      "id": 28970,
      "name": "Schleife",
      "latitude": "51.53333000",
      "longitude": "14.53333000"
    },
    {
      "id": 28973,
      "name": "Schlettau",
      "latitude": "50.55882000",
      "longitude": "12.95269000"
    },
    {
      "id": 28994,
      "name": "Schmiedeberg",
      "latitude": "50.83644000",
      "longitude": "13.67622000"
    },
    {
      "id": 29004,
      "name": "Schneeberg",
      "latitude": "50.59465000",
      "longitude": "12.64139000"
    },
    {
      "id": 29109,
      "name": "Schönau-Berzdorf",
      "latitude": "51.06402000",
      "longitude": "14.88402000"
    },
    {
      "id": 29110,
      "name": "Schönbach",
      "latitude": "51.06667000",
      "longitude": "14.56667000"
    },
    {
      "id": 29112,
      "name": "Schönberg",
      "latitude": "50.86752000",
      "longitude": "12.49126000"
    },
    {
      "id": 29117,
      "name": "Schöneck",
      "latitude": "50.39052000",
      "longitude": "12.32731000"
    },
    {
      "id": 29123,
      "name": "Schönfeld",
      "latitude": "51.30000000",
      "longitude": "13.70000000"
    },
    {
      "id": 29126,
      "name": "Schönheide",
      "latitude": "50.50458000",
      "longitude": "12.52158000"
    },
    {
      "id": 29070,
      "name": "Schwarzenberg",
      "latitude": "50.53791000",
      "longitude": "12.78522000"
    },
    {
      "id": 29089,
      "name": "Schwepnitz",
      "latitude": "51.32809000",
      "longitude": "13.95772000"
    },
    {
      "id": 29139,
      "name": "Sebnitz",
      "latitude": "50.97540000",
      "longitude": "14.27579000"
    },
    {
      "id": 29159,
      "name": "Seelitz",
      "latitude": "51.03333000",
      "longitude": "12.81667000"
    },
    {
      "id": 29172,
      "name": "Seiffen",
      "latitude": "50.65000000",
      "longitude": "13.45000000"
    },
    {
      "id": 29173,
      "name": "Seifhennersdorf",
      "latitude": "50.93492000",
      "longitude": "14.60194000"
    },
    {
      "id": 29255,
      "name": "Sohland",
      "latitude": "51.04089000",
      "longitude": "14.41897000"
    },
    {
      "id": 29256,
      "name": "Sohland am Rotstein",
      "latitude": "51.11643000",
      "longitude": "14.78372000"
    },
    {
      "id": 29280,
      "name": "Sosa",
      "latitude": "50.49917000",
      "longitude": "12.65120000"
    },
    {
      "id": 29318,
      "name": "Stadt Wehlen",
      "latitude": "50.95821000",
      "longitude": "14.03091000"
    },
    {
      "id": 29342,
      "name": "Stauchitz",
      "latitude": "51.24350000",
      "longitude": "13.21437000"
    },
    {
      "id": 29358,
      "name": "Steina",
      "latitude": "51.20000000",
      "longitude": "14.05000000"
    },
    {
      "id": 29386,
      "name": "Steinigtwolmsdorf",
      "latitude": "51.06314000",
      "longitude": "14.34540000"
    },
    {
      "id": 29417,
      "name": "Stollberg",
      "latitude": "50.70999000",
      "longitude": "12.78034000"
    },
    {
      "id": 29419,
      "name": "Stolpen",
      "latitude": "51.04901000",
      "longitude": "14.07943000"
    },
    {
      "id": 29435,
      "name": "Strehla",
      "latitude": "51.35248000",
      "longitude": "13.22660000"
    },
    {
      "id": 29438,
      "name": "Struppen",
      "latitude": "50.93333000",
      "longitude": "14.01667000"
    },
    {
      "id": 29456,
      "name": "Stützengrün",
      "latitude": "50.53333000",
      "longitude": "12.53333000"
    },
    {
      "id": 29488,
      "name": "Syrau",
      "latitude": "50.54297000",
      "longitude": "12.07933000"
    },
    {
      "id": 29523,
      "name": "Tannenberg",
      "latitude": "50.60738000",
      "longitude": "12.93798000"
    },
    {
      "id": 29524,
      "name": "Tannenbergsthal",
      "latitude": "50.43665000",
      "longitude": "12.45754000"
    },
    {
      "id": 29534,
      "name": "Taucha",
      "latitude": "51.38333000",
      "longitude": "12.48333000"
    },
    {
      "id": 29538,
      "name": "Taura",
      "latitude": "50.91667000",
      "longitude": "12.85000000"
    },
    {
      "id": 29539,
      "name": "Tauscha",
      "latitude": "51.26667000",
      "longitude": "13.80000000"
    },
    {
      "id": 29579,
      "name": "Thalheim",
      "latitude": "50.70077000",
      "longitude": "12.84996000"
    },
    {
      "id": 29580,
      "name": "Thallwitz",
      "latitude": "51.43333000",
      "longitude": "12.68333000"
    },
    {
      "id": 29585,
      "name": "Tharandt",
      "latitude": "50.98525000",
      "longitude": "13.58035000"
    },
    {
      "id": 29591,
      "name": "Theuma",
      "latitude": "50.47007000",
      "longitude": "12.22195000"
    },
    {
      "id": 29592,
      "name": "Thiendorf",
      "latitude": "51.29375000",
      "longitude": "13.74124000"
    },
    {
      "id": 29600,
      "name": "Thum",
      "latitude": "50.67081000",
      "longitude": "12.95091000"
    },
    {
      "id": 29617,
      "name": "Tirpersdorf",
      "latitude": "50.43333000",
      "longitude": "12.25000000"
    },
    {
      "id": 29632,
      "name": "Torgau",
      "latitude": "51.56016000",
      "longitude": "12.99617000"
    },
    {
      "id": 29649,
      "name": "Trebendorf",
      "latitude": "51.53333000",
      "longitude": "14.56667000"
    },
    {
      "id": 29652,
      "name": "Trebsen",
      "latitude": "51.28898000",
      "longitude": "12.75496000"
    },
    {
      "id": 29662,
      "name": "Treuen",
      "latitude": "50.54247000",
      "longitude": "12.30339000"
    },
    {
      "id": 29666,
      "name": "Triebel",
      "latitude": "50.37153000",
      "longitude": "12.12118000"
    },
    {
      "id": 29680,
      "name": "Trossin",
      "latitude": "51.61667000",
      "longitude": "12.81667000"
    },
    {
      "id": 29735,
      "name": "Uhyst",
      "latitude": "51.36469000",
      "longitude": "14.50600000"
    },
    {
      "id": 29833,
      "name": "Venusberg",
      "latitude": "50.69918000",
      "longitude": "13.01854000"
    },
    {
      "id": 29900,
      "name": "Wachau",
      "latitude": "51.16172000",
      "longitude": "13.90651000"
    },
    {
      "id": 29946,
      "name": "Waldenburg",
      "latitude": "50.87653000",
      "longitude": "12.59919000"
    },
    {
      "id": 29952,
      "name": "Waldheim",
      "latitude": "51.07282000",
      "longitude": "13.02004000"
    },
    {
      "id": 29955,
      "name": "Waldkirchen",
      "latitude": "50.59667000",
      "longitude": "12.37994000"
    },
    {
      "id": 30045,
      "name": "Wechselburg",
      "latitude": "51.00214000",
      "longitude": "12.77661000"
    },
    {
      "id": 30098,
      "name": "Weinböhla",
      "latitude": "51.16667000",
      "longitude": "13.56667000"
    },
    {
      "id": 30105,
      "name": "Weischlitz",
      "latitude": "50.45000000",
      "longitude": "12.06667000"
    },
    {
      "id": 30124,
      "name": "Weißenberg",
      "latitude": "51.19644000",
      "longitude": "14.65874000"
    },
    {
      "id": 30126,
      "name": "Weißenborn",
      "latitude": "50.73952000",
      "longitude": "12.47051000"
    },
    {
      "id": 30138,
      "name": "Weißig",
      "latitude": "51.29192000",
      "longitude": "13.44117000"
    },
    {
      "id": 30139,
      "name": "Weißkeißel",
      "latitude": "51.49405000",
      "longitude": "14.71515000"
    },
    {
      "id": 30140,
      "name": "Weißwasser",
      "latitude": "51.50403000",
      "longitude": "14.64017000"
    },
    {
      "id": 30168,
      "name": "Werda",
      "latitude": "50.43811000",
      "longitude": "12.30473000"
    },
    {
      "id": 30169,
      "name": "Werdau",
      "latitude": "50.73604000",
      "longitude": "12.37534000"
    },
    {
      "id": 30177,
      "name": "Wermsdorf",
      "latitude": "51.28333000",
      "longitude": "12.95000000"
    },
    {
      "id": 30239,
      "name": "Wiedemar",
      "latitude": "51.46667000",
      "longitude": "12.20000000"
    },
    {
      "id": 30243,
      "name": "Wiednitz",
      "latitude": "51.38608000",
      "longitude": "14.02683000"
    },
    {
      "id": 30252,
      "name": "Wiesa",
      "latitude": "50.61114000",
      "longitude": "13.01377000"
    },
    {
      "id": 30276,
      "name": "Wildenfels",
      "latitude": "50.66784000",
      "longitude": "12.60886000"
    },
    {
      "id": 30277,
      "name": "Wildenhain",
      "latitude": "51.30760000",
      "longitude": "13.47678000"
    },
    {
      "id": 30291,
      "name": "Wilkau-Haßlau",
      "latitude": "50.67504000",
      "longitude": "12.51482000"
    },
    {
      "id": 30301,
      "name": "Wilsdruff",
      "latitude": "51.05199000",
      "longitude": "13.53657000"
    },
    {
      "id": 30305,
      "name": "Wilthen",
      "latitude": "51.09745000",
      "longitude": "14.39290000"
    },
    {
      "id": 30357,
      "name": "Wittgensdorf",
      "latitude": "50.88316000",
      "longitude": "12.87031000"
    },
    {
      "id": 30358,
      "name": "Wittichenau",
      "latitude": "51.38496000",
      "longitude": "14.24403000"
    },
    {
      "id": 30391,
      "name": "Wolkenstein",
      "latitude": "50.65552000",
      "longitude": "13.07132000"
    },
    {
      "id": 30455,
      "name": "Wülknitz",
      "latitude": "51.36667000",
      "longitude": "13.40000000"
    },
    {
      "id": 30426,
      "name": "Wurzen",
      "latitude": "51.37070000",
      "longitude": "12.73939000"
    },
    {
      "id": 30462,
      "name": "Zabeltitz",
      "latitude": "51.35147000",
      "longitude": "13.50462000"
    },
    {
      "id": 30479,
      "name": "Zeithain",
      "latitude": "51.33356000",
      "longitude": "13.33809000"
    },
    {
      "id": 30510,
      "name": "Zinna",
      "latitude": "51.56790000",
      "longitude": "12.95354000"
    },
    {
      "id": 30512,
      "name": "Zittau",
      "latitude": "50.89772000",
      "longitude": "14.80764000"
    },
    {
      "id": 30541,
      "name": "Zöblitz",
      "latitude": "50.65912000",
      "longitude": "13.22981000"
    },
    {
      "id": 30518,
      "name": "Zschadrass",
      "latitude": "51.13828000",
      "longitude": "12.81848000"
    },
    {
      "id": 30519,
      "name": "Zschepplin",
      "latitude": "51.50000000",
      "longitude": "12.60000000"
    },
    {
      "id": 30522,
      "name": "Zschopau",
      "latitude": "50.74818000",
      "longitude": "13.07691000"
    },
    {
      "id": 30523,
      "name": "Zschorlau",
      "latitude": "50.56667000",
      "longitude": "12.65000000"
    },
    {
      "id": 30525,
      "name": "Zschortau",
      "latitude": "51.47930000",
      "longitude": "12.35893000"
    },
    {
      "id": 30533,
      "name": "Zwenkau",
      "latitude": "51.21872000",
      "longitude": "12.33008000"
    },
    {
      "id": 30534,
      "name": "Zwickau",
      "latitude": "50.72724000",
      "longitude": "12.48839000"
    },
    {
      "id": 30538,
      "name": "Zwochau",
      "latitude": "51.46467000",
      "longitude": "12.26844000"
    },
    {
      "id": 30540,
      "name": "Zwönitz",
      "latitude": "50.63027000",
      "longitude": "12.80999000"
    },
    {
      "id": 30539,
      "name": "Zwota",
      "latitude": "50.35103000",
      "longitude": "12.42241000"
    }
  ],
  "country": {
    "id": 82,
    "name": "Germany",
    "iso3": "DEU",
    "iso2": "DE",
    "numeric_code": "276",
    "phone_code": "49",
    "capital": "Berlin",
    "currency": "EUR",
    "currency_name": "Euro",
    "currency_symbol": "€",
    "tld": ".de",
    "native": "Deutschland",
    "region": "Europe",
    "subregion": "Western Europe",
    "timezones": [
      {
        "zoneName": "Europe/Berlin",
        "gmtOffset": 3600,
        "gmtOffsetName": "UTC+01:00",
        "abbreviation": "CET",
        "tzName": "Central European Time"
      },
      {
        "zoneName": "Europe/Busingen",
        "gmtOffset": 3600,
        "gmtOffsetName": "UTC+01:00",
        "abbreviation": "CET",
        "tzName": "Central European Time"
      }
    ],
    "translations": {
      "kr": "독일",
      "pt-BR": "Alemanha",
      "pt": "Alemanha",
      "nl": "Duitsland",
      "hr": "Njemačka",
      "fa": "آلمان",
      "de": "Deutschland",
      "es": "Alemania",
      "fr": "Allemagne",
      "ja": "ドイツ",
      "it": "Germania",
      "cn": "德国",
      "tr": "Almanya"
    },
    "latitude": "51.00000000",
    "longitude": "9.00000000",
    "emoji": "🇩🇪",
    "emojiU": "U+1F1E9 U+1F1EA"
  }
}