{
  "id": 3065,
  "name": "North-West District",
  "state_code": "NW",
  "latitude": "39.34463070",
  "longitude": "-76.68542830",
  "type": null,
  "cities": [
    {
      "id": 15764,
      "name": "Maun",
      "latitude": "-19.98333000",
      "longitude": "23.41667000"
    },
    {
      "id": 15780,
      "name": "Nokaneng",
      "latitude": "-19.66667000",
      "longitude": "22.26667000"
    },
    {
      "id": 15784,
      "name": "Pandamatenga",
      "latitude": "-18.52779000",
      "longitude": "25.62698000"
    },
    {
      "id": 15793,
      "name": "Sehithwa",
      "latitude": "-20.46667000",
      "longitude": "22.71667000"
    },
    {
      "id": 15796,
      "name": "Shakawe",
      "latitude": "-18.36536000",
      "longitude": "21.84219000"
    }
  ],
  "country": {
    "id": 29,
    "name": "Botswana",
    "iso3": "BWA",
    "iso2": "BW",
    "numeric_code": "072",
    "phone_code": "267",
    "capital": "Gaborone",
    "currency": "BWP",
    "currency_name": "Botswana pula",
    "currency_symbol": "P",
    "tld": ".bw",
    "native": "Botswana",
    "region": "Africa",
    "subregion": "Southern Africa",
    "timezones": [
      {
        "zoneName": "Africa/Gaborone",
        "gmtOffset": 7200,
        "gmtOffsetName": "UTC+02:00",
        "abbreviation": "CAT",
        "tzName": "Central Africa Time"
      }
    ],
    "translations": {
      "kr": "Î≥¥Ï∏†ÏôÄÎÇò",
      "pt-BR": "Botsuana",
      "pt": "Botsuana",
      "nl": "Botswana",
      "hr": "Bocvana",
      "fa": "ÿ®Ÿàÿ™ÿ≥ŸàÿßŸÜÿß",
      "de": "Botswana",
      "es": "Botswana",
      "fr": "Botswana",
      "ja": "„Éú„ÉÑ„ÉØ„Éä",
      "it": "Botswana",
      "cn": "ÂçöËå®Áì¶Á∫≥",
      "tr": "Botsvana"
    },
    "latitude": "-22.00000000",
    "longitude": "24.00000000",
    "emoji": "üáßüáº",
    "emojiU": "U+1F1E7 U+1F1FC"
  }
}