{
  "id": 3068,
  "name": "North-East District",
  "state_code": "NE",
  "latitude": "37.58844610",
  "longitude": "-94.68637820",
  "type": null,
  "cities": [
    {
      "id": 15732,
      "name": "Dukwe",
      "latitude": "-20.58333000",
      "longitude": "26.41667000"
    },
    {
      "id": 15756,
      "name": "Makaleng",
      "latitude": "-20.90000000",
      "longitude": "27.28333000"
    },
    {
      "id": 15760,
      "name": "Masunga",
      "latitude": "-20.62455000",
      "longitude": "27.44875000"
    },
    {
      "id": 15791,
      "name": "Sebina",
      "latitude": "-20.86667000",
      "longitude": "27.25000000"
    }
  ],
  "country": {
    "id": 29,
    "name": "Botswana",
    "iso3": "BWA",
    "iso2": "BW",
    "numeric_code": "072",
    "phone_code": "267",
    "capital": "Gaborone",
    "currency": "BWP",
    "currency_name": "Botswana pula",
    "currency_symbol": "P",
    "tld": ".bw",
    "native": "Botswana",
    "region": "Africa",
    "subregion": "Southern Africa",
    "timezones": [
      {
        "zoneName": "Africa/Gaborone",
        "gmtOffset": 7200,
        "gmtOffsetName": "UTC+02:00",
        "abbreviation": "CAT",
        "tzName": "Central Africa Time"
      }
    ],
    "translations": {
      "kr": "ë³´ì¸ ì™€ë‚˜",
      "pt-BR": "Botsuana",
      "pt": "Botsuana",
      "nl": "Botswana",
      "hr": "Bocvana",
      "fa": "Ø¨ÙˆØªØ³ÙˆØ§Ù†Ø§",
      "de": "Botswana",
      "es": "Botswana",
      "fr": "Botswana",
      "ja": "ãƒœãƒ„ãƒ¯ãƒŠ",
      "it": "Botswana",
      "cn": "åšèŒ¨ç“¦çº³",
      "tr": "Botsvana"
    },
    "latitude": "-22.00000000",
    "longitude": "24.00000000",
    "emoji": "ğŸ‡§ğŸ‡¼",
    "emojiU": "U+1F1E7 U+1F1FC"
  }
}