{
  "id": 2065,
  "name": "Lower Austria",
  "state_code": "3",
  "latitude": "48.10807700",
  "longitude": "15.80495580",
  "type": null,
  "cities": [
    {
      "id": 1602,
      "name": "Absdorf",
      "latitude": "48.40021000",
      "longitude": "15.97874000"
    },
    {
      "id": 1606,
      "name": "Achau",
      "latitude": "48.08026000",
      "longitude": "16.38611000"
    },
    {
      "id": 1608,
      "name": "Aderklaa",
      "latitude": "48.28333000",
      "longitude": "16.53333000"
    },
    {
      "id": 1614,
      "name": "Aggsbach",
      "latitude": "48.29404000",
      "longitude": "15.40382000"
    },
    {
      "id": 1627,
      "name": "Alland",
      "latitude": "48.05829000",
      "longitude": "16.07901000"
    },
    {
      "id": 1628,
      "name": "Allentsteig",
      "latitude": "48.69725000",
      "longitude": "15.32756000"
    },
    {
      "id": 1633,
      "name": "Allhartsberg",
      "latitude": "48.02633000",
      "longitude": "14.79009000"
    },
    {
      "id": 1638,
      "name": "Altenburg",
      "latitude": "48.64765000",
      "longitude": "15.59295000"
    },
    {
      "id": 1639,
      "name": "Altendorf",
      "latitude": "47.65000000",
      "longitude": "16.01667000"
    },
    {
      "id": 1641,
      "name": "Altenmarkt an der Triesting",
      "latitude": "48.01553000",
      "longitude": "15.99661000"
    },
    {
      "id": 1647,
      "name": "Altlengbach",
      "latitude": "48.15355000",
      "longitude": "15.92606000"
    },
    {
      "id": 1649,
      "name": "Altlichtenwarth",
      "latitude": "48.64442000",
      "longitude": "16.79664000"
    },
    {
      "id": 1650,
      "name": "Altmelon",
      "latitude": "48.46222000",
      "longitude": "14.96552000"
    },
    {
      "id": 1656,
      "name": "Amstetten",
      "latitude": "48.12290000",
      "longitude": "14.87206000"
    },
    {
      "id": 1659,
      "name": "Andlersdorf",
      "latitude": "48.18333000",
      "longitude": "16.66667000"
    },
    {
      "id": 1666,
      "name": "Angern an der March",
      "latitude": "48.37778000",
      "longitude": "16.82806000"
    },
    {
      "id": 1675,
      "name": "Arbesbach",
      "latitude": "48.49337000",
      "longitude": "14.95308000"
    },
    {
      "id": 1676,
      "name": "Ardagger Stift",
      "latitude": "48.15000000",
      "longitude": "14.83333000"
    },
    {
      "id": 1689,
      "name": "Aschbach Markt",
      "latitude": "48.07234000",
      "longitude": "14.75395000"
    },
    {
      "id": 1690,
      "name": "Aspang Markt",
      "latitude": "47.55000000",
      "longitude": "16.08333000"
    },
    {
      "id": 1691,
      "name": "Asparn an der Zaya",
      "latitude": "48.58333000",
      "longitude": "16.50000000"
    },
    {
      "id": 1692,
      "name": "Asperhofen",
      "latitude": "48.24583000",
      "longitude": "15.92606000"
    },
    {
      "id": 1699,
      "name": "Atzenbrugg",
      "latitude": "48.29119000",
      "longitude": "15.90614000"
    },
    {
      "id": 1703,
      "name": "Au am Leithaberge",
      "latitude": "47.92296000",
      "longitude": "16.55794000"
    },
    {
      "id": 1708,
      "name": "Auersthal",
      "latitude": "48.37373000",
      "longitude": "16.63596000"
    },
    {
      "id": 1718,
      "name": "Bad Deutsch-Altenburg",
      "latitude": "48.13425000",
      "longitude": "16.90624000"
    },
    {
      "id": 1719,
      "name": "Bad Erlach",
      "latitude": "47.72722000",
      "longitude": "16.21444000"
    },
    {
      "id": 1720,
      "name": "Bad Fischau",
      "latitude": "47.83137000",
      "longitude": "16.16707000"
    },
    {
      "id": 1731,
      "name": "Bad Pirawarth",
      "latitude": "48.45194000",
      "longitude": "16.59833000"
    },
    {
      "id": 1736,
      "name": "Bad Schönau",
      "latitude": "47.49473000",
      "longitude": "16.23410000"
    },
    {
      "id": 1738,
      "name": "Bad Traunstein",
      "latitude": "48.43850000",
      "longitude": "15.11712000"
    },
    {
      "id": 1739,
      "name": "Bad Vöslau",
      "latitude": "47.96533000",
      "longitude": "16.21359000"
    },
    {
      "id": 1742,
      "name": "Baden",
      "latitude": "48.00543000",
      "longitude": "16.23264000"
    },
    {
      "id": 1824,
      "name": "Bärnkopf",
      "latitude": "48.39046000",
      "longitude": "15.00479000"
    },
    {
      "id": 1752,
      "name": "Behamberg",
      "latitude": "48.01667000",
      "longitude": "14.48333000"
    },
    {
      "id": 1753,
      "name": "Berg",
      "latitude": "48.10147000",
      "longitude": "17.03842000"
    },
    {
      "id": 1759,
      "name": "Bergland",
      "latitude": "48.15595000",
      "longitude": "15.18553000"
    },
    {
      "id": 1761,
      "name": "Berndorf",
      "latitude": "47.94567000",
      "longitude": "16.10973000"
    },
    {
      "id": 1764,
      "name": "Bernhardsthal",
      "latitude": "48.69158000",
      "longitude": "16.86951000"
    },
    {
      "id": 1768,
      "name": "Biberbach",
      "latitude": "48.03006000",
      "longitude": "14.70795000"
    },
    {
      "id": 1771,
      "name": "Biedermannsdorf",
      "latitude": "48.08393000",
      "longitude": "16.34542000"
    },
    {
      "id": 1776,
      "name": "Bisamberg",
      "latitude": "48.33333000",
      "longitude": "16.35000000"
    },
    {
      "id": 1778,
      "name": "Bischofstetten",
      "latitude": "48.12222000",
      "longitude": "15.46909000"
    },
    {
      "id": 1782,
      "name": "Blindenmarkt",
      "latitude": "48.12749000",
      "longitude": "14.98647000"
    },
    {
      "id": 1786,
      "name": "Bockfließ",
      "latitude": "48.36000000",
      "longitude": "16.60389000"
    },
    {
      "id": 1825,
      "name": "Böheimkirchen",
      "latitude": "48.19779000",
      "longitude": "15.76178000"
    },
    {
      "id": 1796,
      "name": "Breitenau",
      "latitude": "47.73355000",
      "longitude": "16.14338000"
    },
    {
      "id": 1801,
      "name": "Breitenfurt bei Wien",
      "latitude": "48.13333000",
      "longitude": "16.15000000"
    },
    {
      "id": 1806,
      "name": "Bromberg",
      "latitude": "47.66539000",
      "longitude": "16.20990000"
    },
    {
      "id": 1809,
      "name": "Bruck an der Leitha",
      "latitude": "48.01667000",
      "longitude": "16.76667000"
    },
    {
      "id": 1813,
      "name": "Brunn am Gebirge",
      "latitude": "48.10697000",
      "longitude": "16.28466000"
    },
    {
      "id": 1814,
      "name": "Brunn an der Schneebergbahn",
      "latitude": "47.82376000",
      "longitude": "16.15934000"
    },
    {
      "id": 1815,
      "name": "Brunn an der Wild",
      "latitude": "48.69425000",
      "longitude": "15.52008000"
    },
    {
      "id": 1818,
      "name": "Buchbach",
      "latitude": "47.69648000",
      "longitude": "15.98425000"
    },
    {
      "id": 1841,
      "name": "Deutsch-Wagram",
      "latitude": "48.29972000",
      "longitude": "16.56667000"
    },
    {
      "id": 1855,
      "name": "Dobersberg",
      "latitude": "48.91510000",
      "longitude": "15.32188000"
    },
    {
      "id": 1864,
      "name": "Dorfstetten",
      "latitude": "48.32573000",
      "longitude": "14.98218000"
    },
    {
      "id": 1867,
      "name": "Drasenhofen",
      "latitude": "48.75000000",
      "longitude": "16.65000000"
    },
    {
      "id": 1870,
      "name": "Drösing",
      "latitude": "48.53900000",
      "longitude": "16.90264000"
    },
    {
      "id": 1869,
      "name": "Droß",
      "latitude": "48.46393000",
      "longitude": "15.57561000"
    },
    {
      "id": 1877,
      "name": "Dürnkrut",
      "latitude": "48.47315000",
      "longitude": "16.85062000"
    },
    {
      "id": 1878,
      "name": "Dürnstein",
      "latitude": "48.39582000",
      "longitude": "15.51973000"
    },
    {
      "id": 1884,
      "name": "Ebenfurth",
      "latitude": "47.87738000",
      "longitude": "16.36731000"
    },
    {
      "id": 1887,
      "name": "Ebenthal",
      "latitude": "48.43333000",
      "longitude": "16.78333000"
    },
    {
      "id": 1889,
      "name": "Ebergassing",
      "latitude": "48.04567000",
      "longitude": "16.51709000"
    },
    {
      "id": 1895,
      "name": "Ebreichsdorf",
      "latitude": "47.95579000",
      "longitude": "16.40705000"
    },
    {
      "id": 1897,
      "name": "Echsenbach",
      "latitude": "48.71667000",
      "longitude": "15.21667000"
    },
    {
      "id": 1898,
      "name": "Eckartsau",
      "latitude": "48.14507000",
      "longitude": "16.79737000"
    },
    {
      "id": 1904,
      "name": "Edlitz",
      "latitude": "47.59797000",
      "longitude": "16.14052000"
    },
    {
      "id": 1909,
      "name": "Eggenburg",
      "latitude": "48.63892000",
      "longitude": "15.81903000"
    },
    {
      "id": 1910,
      "name": "Eggendorf",
      "latitude": "47.85809000",
      "longitude": "16.32182000"
    },
    {
      "id": 1911,
      "name": "Eggern",
      "latitude": "48.90829000",
      "longitude": "15.14877000"
    },
    {
      "id": 1920,
      "name": "Eichgraben",
      "latitude": "48.17204000",
      "longitude": "15.98391000"
    },
    {
      "id": 1927,
      "name": "Eisgarn",
      "latitude": "48.91675000",
      "longitude": "15.10320000"
    },
    {
      "id": 1935,
      "name": "Emmersdorf an der Donau",
      "latitude": "48.24140000",
      "longitude": "15.33721000"
    },
    {
      "id": 1938,
      "name": "Engelhartstetten",
      "latitude": "48.18160000",
      "longitude": "16.88367000"
    },
    {
      "id": 1941,
      "name": "Ennsdorf",
      "latitude": "48.21181000",
      "longitude": "14.50290000"
    },
    {
      "id": 1942,
      "name": "Enzenreith",
      "latitude": "47.66839000",
      "longitude": "15.95249000"
    },
    {
      "id": 1943,
      "name": "Enzersdorf an der Fischa",
      "latitude": "48.08502000",
      "longitude": "16.60832000"
    },
    {
      "id": 1944,
      "name": "Enzersfeld",
      "latitude": "48.36338000",
      "longitude": "16.42387000"
    },
    {
      "id": 1947,
      "name": "Erlauf",
      "latitude": "48.18333000",
      "longitude": "15.18333000"
    },
    {
      "id": 1948,
      "name": "Ernstbrunn",
      "latitude": "48.53333000",
      "longitude": "16.35000000"
    },
    {
      "id": 1949,
      "name": "Ernsthofen",
      "latitude": "48.12915000",
      "longitude": "14.48058000"
    },
    {
      "id": 1950,
      "name": "Erpersdorf",
      "latitude": "48.34210000",
      "longitude": "15.91747000"
    },
    {
      "id": 1952,
      "name": "Ertl",
      "latitude": "47.97704000",
      "longitude": "14.63134000"
    },
    {
      "id": 1954,
      "name": "Eschenau",
      "latitude": "48.04825000",
      "longitude": "15.56694000"
    },
    {
      "id": 1956,
      "name": "Euratsfeld",
      "latitude": "48.08181000",
      "longitude": "14.93154000"
    },
    {
      "id": 1960,
      "name": "Falkenstein",
      "latitude": "48.71667000",
      "longitude": "16.58333000"
    },
    {
      "id": 1961,
      "name": "Fallbach",
      "latitude": "48.65000000",
      "longitude": "16.41667000"
    },
    {
      "id": 1965,
      "name": "Feistritz am Wechsel",
      "latitude": "47.60000000",
      "longitude": "16.05000000"
    },
    {
      "id": 1977,
      "name": "Felixdorf",
      "latitude": "47.88159000",
      "longitude": "16.24208000"
    },
    {
      "id": 1978,
      "name": "Fels am Wagram",
      "latitude": "48.43333000",
      "longitude": "15.81667000"
    },
    {
      "id": 1983,
      "name": "Ferschnitz",
      "latitude": "48.09419000",
      "longitude": "14.98454000"
    },
    {
      "id": 1990,
      "name": "Fischamend-Markt",
      "latitude": "48.11667000",
      "longitude": "16.60000000"
    },
    {
      "id": 2009,
      "name": "Frankenfels",
      "latitude": "47.98234000",
      "longitude": "15.32593000"
    },
    {
      "id": 2027,
      "name": "Frohsdorf",
      "latitude": "47.73333000",
      "longitude": "16.25000000"
    },
    {
      "id": 2029,
      "name": "Furth an der Triesting",
      "latitude": "47.97326000",
      "longitude": "15.97326000"
    },
    {
      "id": 2030,
      "name": "Furth bei Göttweig",
      "latitude": "48.37385000",
      "longitude": "15.61408000"
    },
    {
      "id": 2038,
      "name": "Gaaden",
      "latitude": "48.05364000",
      "longitude": "16.20003000"
    },
    {
      "id": 2041,
      "name": "Gablitz",
      "latitude": "48.22856000",
      "longitude": "16.15437000"
    },
    {
      "id": 2044,
      "name": "Gainfarn",
      "latitude": "47.96280000",
      "longitude": "16.19368000"
    },
    {
      "id": 2052,
      "name": "Gaming",
      "latitude": "47.92900000",
      "longitude": "15.08818000"
    },
    {
      "id": 2183,
      "name": "Gänserndorf",
      "latitude": "48.33925000",
      "longitude": "16.72016000"
    },
    {
      "id": 2058,
      "name": "Gars am Kamp",
      "latitude": "48.58899000",
      "longitude": "15.65363000"
    },
    {
      "id": 2063,
      "name": "Gastern",
      "latitude": "48.89446000",
      "longitude": "15.22027000"
    },
    {
      "id": 2065,
      "name": "Gaubitsch",
      "latitude": "48.65000000",
      "longitude": "16.38333000"
    },
    {
      "id": 2067,
      "name": "Gaweinstal",
      "latitude": "48.48003000",
      "longitude": "16.58790000"
    },
    {
      "id": 2069,
      "name": "Gedersdorf",
      "latitude": "48.43319000",
      "longitude": "15.68865000"
    },
    {
      "id": 2073,
      "name": "Geras",
      "latitude": "48.79725000",
      "longitude": "15.67268000"
    },
    {
      "id": 2074,
      "name": "Gerasdorf bei Wien",
      "latitude": "48.29447000",
      "longitude": "16.46765000"
    },
    {
      "id": 2075,
      "name": "Gerersdorf",
      "latitude": "48.20088000",
      "longitude": "15.55613000"
    },
    {
      "id": 2078,
      "name": "Gerolding",
      "latitude": "48.25000000",
      "longitude": "15.41667000"
    },
    {
      "id": 2080,
      "name": "Gföhl",
      "latitude": "48.51667000",
      "longitude": "15.48333000"
    },
    {
      "id": 2081,
      "name": "Gießhübl",
      "latitude": "48.09780000",
      "longitude": "16.23479000"
    },
    {
      "id": 2087,
      "name": "Glinzendorf",
      "latitude": "48.24605000",
      "longitude": "16.64060000"
    },
    {
      "id": 2089,
      "name": "Gloggnitz",
      "latitude": "47.67487000",
      "longitude": "15.93893000"
    },
    {
      "id": 2094,
      "name": "Gmünd",
      "latitude": "48.76830000",
      "longitude": "14.98080000"
    },
    {
      "id": 2095,
      "name": "Gnadendorf",
      "latitude": "48.61667000",
      "longitude": "16.40000000"
    },
    {
      "id": 2098,
      "name": "Gneixendorf",
      "latitude": "48.43751000",
      "longitude": "15.61810000"
    },
    {
      "id": 2185,
      "name": "Göllersdorf",
      "latitude": "48.49357000",
      "longitude": "16.11943000"
    },
    {
      "id": 2186,
      "name": "Göpfritz an der Wild",
      "latitude": "48.72497000",
      "longitude": "15.40236000"
    },
    {
      "id": 2191,
      "name": "Göstling an der Ybbs",
      "latitude": "47.80664000",
      "longitude": "14.93797000"
    },
    {
      "id": 2193,
      "name": "Götzendorf an der Leitha",
      "latitude": "48.01667000",
      "longitude": "16.58333000"
    },
    {
      "id": 2110,
      "name": "Grafenegg",
      "latitude": "48.43040000",
      "longitude": "15.74907000"
    },
    {
      "id": 2112,
      "name": "Grafenschlag",
      "latitude": "48.50000000",
      "longitude": "15.16667000"
    },
    {
      "id": 2114,
      "name": "Grafenwörth",
      "latitude": "48.40790000",
      "longitude": "15.77826000"
    },
    {
      "id": 2118,
      "name": "Gramatneusiedl",
      "latitude": "48.03040000",
      "longitude": "16.48936000"
    },
    {
      "id": 2126,
      "name": "Greinsfurth",
      "latitude": "48.10846000",
      "longitude": "14.84390000"
    },
    {
      "id": 2129,
      "name": "Gresten",
      "latitude": "47.98521000",
      "longitude": "15.02552000"
    },
    {
      "id": 2136,
      "name": "Grimmenstein",
      "latitude": "47.61635000",
      "longitude": "16.12724000"
    },
    {
      "id": 2146,
      "name": "Groß-Engersdorf",
      "latitude": "48.35873000",
      "longitude": "16.56610000"
    },
    {
      "id": 2147,
      "name": "Groß-Enzersdorf",
      "latitude": "48.20278000",
      "longitude": "16.55083000"
    },
    {
      "id": 2148,
      "name": "Groß-Gerungs",
      "latitude": "48.57422000",
      "longitude": "14.95789000"
    },
    {
      "id": 2149,
      "name": "Groß-Schweinbarth",
      "latitude": "48.41472000",
      "longitude": "16.63194000"
    },
    {
      "id": 2150,
      "name": "Groß-Siegharts",
      "latitude": "48.79180000",
      "longitude": "15.40429000"
    },
    {
      "id": 2152,
      "name": "Großebersdorf",
      "latitude": "48.36405000",
      "longitude": "16.47076000"
    },
    {
      "id": 2153,
      "name": "Großharras",
      "latitude": "48.66389000",
      "longitude": "16.24556000"
    },
    {
      "id": 2154,
      "name": "Großhofen",
      "latitude": "48.25834000",
      "longitude": "16.61940000"
    },
    {
      "id": 2157,
      "name": "Großkrut",
      "latitude": "48.64389000",
      "longitude": "16.72361000"
    },
    {
      "id": 2159,
      "name": "Großmugl",
      "latitude": "48.49917000",
      "longitude": "16.23056000"
    },
    {
      "id": 2160,
      "name": "Großriedenthal",
      "latitude": "48.48333000",
      "longitude": "15.86667000"
    },
    {
      "id": 2161,
      "name": "Großrußbach",
      "latitude": "48.47412000",
      "longitude": "16.41649000"
    },
    {
      "id": 2163,
      "name": "Großweikersdorf",
      "latitude": "48.47123000",
      "longitude": "15.98251000"
    },
    {
      "id": 2168,
      "name": "Grünbach am Schneeberg",
      "latitude": "47.79747000",
      "longitude": "15.98785000"
    },
    {
      "id": 2172,
      "name": "Gugging",
      "latitude": "48.31385000",
      "longitude": "16.24852000"
    },
    {
      "id": 2173,
      "name": "Gumpoldskirchen",
      "latitude": "48.04538000",
      "longitude": "16.27710000"
    },
    {
      "id": 2196,
      "name": "Günselsdorf",
      "latitude": "47.94395000",
      "longitude": "16.26062000"
    },
    {
      "id": 2176,
      "name": "Guntersdorf",
      "latitude": "48.65000000",
      "longitude": "16.05000000"
    },
    {
      "id": 2177,
      "name": "Guntramsdorf",
      "latitude": "48.04687000",
      "longitude": "16.31384000"
    },
    {
      "id": 2180,
      "name": "Gutenbrunn",
      "latitude": "48.36520000",
      "longitude": "15.11899000"
    },
    {
      "id": 2181,
      "name": "Gutenstein",
      "latitude": "47.87600000",
      "longitude": "15.88881000"
    },
    {
      "id": 2200,
      "name": "Haag",
      "latitude": "48.11362000",
      "longitude": "14.56753000"
    },
    {
      "id": 2204,
      "name": "Hadersdorf am Kamp",
      "latitude": "48.45000000",
      "longitude": "15.71667000"
    },
    {
      "id": 2205,
      "name": "Hadres",
      "latitude": "48.70965000",
      "longitude": "16.13038000"
    },
    {
      "id": 2207,
      "name": "Hafnerbach",
      "latitude": "48.21667000",
      "longitude": "15.48333000"
    },
    {
      "id": 2209,
      "name": "Hagenbrunn",
      "latitude": "48.33333000",
      "longitude": "16.40000000"
    },
    {
      "id": 2213,
      "name": "Haidershofen",
      "latitude": "48.07579000",
      "longitude": "14.46131000"
    },
    {
      "id": 2216,
      "name": "Hainburg an der Donau",
      "latitude": "48.14627000",
      "longitude": "16.94504000"
    },
    {
      "id": 2218,
      "name": "Hainfeld",
      "latitude": "48.03390000",
      "longitude": "15.77414000"
    },
    {
      "id": 2230,
      "name": "Hardegg",
      "latitude": "48.85000000",
      "longitude": "15.85000000"
    },
    {
      "id": 2231,
      "name": "Haringsee",
      "latitude": "48.19270000",
      "longitude": "16.78741000"
    },
    {
      "id": 2232,
      "name": "Harland",
      "latitude": "48.16162000",
      "longitude": "15.63835000"
    },
    {
      "id": 2233,
      "name": "Harmannsdorf",
      "latitude": "48.39724000",
      "longitude": "16.37220000"
    },
    {
      "id": 2235,
      "name": "Hart",
      "latitude": "48.15320000",
      "longitude": "15.61569000"
    },
    {
      "id": 2247,
      "name": "Haugschlag",
      "latitude": "48.98333000",
      "longitude": "15.05000000"
    },
    {
      "id": 2248,
      "name": "Haugsdorf",
      "latitude": "48.70762000",
      "longitude": "16.07656000"
    },
    {
      "id": 2249,
      "name": "Haunoldstein",
      "latitude": "48.20000000",
      "longitude": "15.45000000"
    },
    {
      "id": 2252,
      "name": "Hausbrunn",
      "latitude": "48.62602000",
      "longitude": "16.82844000"
    },
    {
      "id": 2253,
      "name": "Hauskirchen",
      "latitude": "48.60000000",
      "longitude": "16.76667000"
    },
    {
      "id": 2254,
      "name": "Hausleiten",
      "latitude": "48.38333000",
      "longitude": "16.10000000"
    },
    {
      "id": 2256,
      "name": "Hausmening",
      "latitude": "48.07074000",
      "longitude": "14.81438000"
    },
    {
      "id": 2257,
      "name": "Heidenreichstein",
      "latitude": "48.86667000",
      "longitude": "15.11667000"
    },
    {
      "id": 2260,
      "name": "Heiligeneich",
      "latitude": "48.29964000",
      "longitude": "15.89413000"
    },
    {
      "id": 2261,
      "name": "Heiligenkreuz",
      "latitude": "48.05559000",
      "longitude": "16.12493000"
    },
    {
      "id": 2270,
      "name": "Hennersdorf",
      "latitude": "48.11173000",
      "longitude": "16.36311000"
    },
    {
      "id": 2273,
      "name": "Hernstein",
      "latitude": "47.89465000",
      "longitude": "16.10561000"
    },
    {
      "id": 2274,
      "name": "Herrnbaumgarten",
      "latitude": "48.69606000",
      "longitude": "16.68283000"
    },
    {
      "id": 2275,
      "name": "Herzogenburg",
      "latitude": "48.28137000",
      "longitude": "15.69431000"
    },
    {
      "id": 2281,
      "name": "Himberg",
      "latitude": "48.08333000",
      "longitude": "16.43333000"
    },
    {
      "id": 2285,
      "name": "Hinterbrühl",
      "latitude": "48.08611000",
      "longitude": "16.24809000"
    },
    {
      "id": 2287,
      "name": "Hinterleiten",
      "latitude": "48.16513000",
      "longitude": "15.96654000"
    },
    {
      "id": 2292,
      "name": "Hirschbach",
      "latitude": "48.74329000",
      "longitude": "15.12521000"
    },
    {
      "id": 2294,
      "name": "Hirtenberg",
      "latitude": "47.93095000",
      "longitude": "16.17908000"
    },
    {
      "id": 2299,
      "name": "Hochleithen",
      "latitude": "48.45317000",
      "longitude": "16.53090000"
    },
    {
      "id": 2302,
      "name": "Hochwolkersdorf",
      "latitude": "47.66127000",
      "longitude": "16.28072000"
    },
    {
      "id": 2305,
      "name": "Hof am Leithaberge",
      "latitude": "47.95000000",
      "longitude": "16.58333000"
    },
    {
      "id": 2308,
      "name": "Hofamt Priel",
      "latitude": "48.19581000",
      "longitude": "15.07746000"
    },
    {
      "id": 2339,
      "name": "Höflein",
      "latitude": "48.06667000",
      "longitude": "16.78333000"
    },
    {
      "id": 2340,
      "name": "Höfling",
      "latitude": "48.05444000",
      "longitude": "15.03672000"
    },
    {
      "id": 2310,
      "name": "Hofstetten",
      "latitude": "48.09711000",
      "longitude": "15.51149000"
    },
    {
      "id": 2312,
      "name": "Hohenau",
      "latitude": "48.60420000",
      "longitude": "16.90470000"
    },
    {
      "id": 2314,
      "name": "Hohenberg",
      "latitude": "47.90679000",
      "longitude": "15.61998000"
    },
    {
      "id": 2315,
      "name": "Hoheneich",
      "latitude": "48.77195000",
      "longitude": "15.02857000"
    },
    {
      "id": 2317,
      "name": "Hohenruppersdorf",
      "latitude": "48.46439000",
      "longitude": "16.65244000"
    },
    {
      "id": 2321,
      "name": "Hollabrunn",
      "latitude": "48.55000000",
      "longitude": "16.08333000"
    },
    {
      "id": 2323,
      "name": "Hollenstein an der Ybbs",
      "latitude": "47.80305000",
      "longitude": "14.77312000"
    },
    {
      "id": 2324,
      "name": "Hollenthon",
      "latitude": "47.58938000",
      "longitude": "16.26131000"
    },
    {
      "id": 2331,
      "name": "Horn",
      "latitude": "48.66274000",
      "longitude": "15.65663000"
    },
    {
      "id": 2333,
      "name": "Hundsheim",
      "latitude": "48.11749000",
      "longitude": "16.93581000"
    },
    {
      "id": 2346,
      "name": "Hürm",
      "latitude": "48.15601000",
      "longitude": "15.41262000"
    },
    {
      "id": 2334,
      "name": "Hutten",
      "latitude": "48.17856000",
      "longitude": "15.98579000"
    },
    {
      "id": 2372,
      "name": "Jaidhof",
      "latitude": "48.53333000",
      "longitude": "15.48333000"
    },
    {
      "id": 2374,
      "name": "Japons",
      "latitude": "48.79250000",
      "longitude": "15.56831000"
    },
    {
      "id": 2375,
      "name": "Jedenspeigen",
      "latitude": "48.49807000",
      "longitude": "16.87225000"
    },
    {
      "id": 2394,
      "name": "Kaltenleutgeben",
      "latitude": "48.11646000",
      "longitude": "16.19956000"
    },
    {
      "id": 2398,
      "name": "Kapelln",
      "latitude": "48.25817000",
      "longitude": "15.75731000"
    },
    {
      "id": 2405,
      "name": "Karlstetten",
      "latitude": "48.25920000",
      "longitude": "15.56544000"
    },
    {
      "id": 2409,
      "name": "Kasten bei Böheimkirchen",
      "latitude": "48.15320000",
      "longitude": "15.77946000"
    },
    {
      "id": 2411,
      "name": "Katzelsdorf",
      "latitude": "47.78055000",
      "longitude": "16.26985000"
    },
    {
      "id": 2412,
      "name": "Kaumberg",
      "latitude": "48.02415000",
      "longitude": "15.89842000"
    },
    {
      "id": 2414,
      "name": "Kautzen",
      "latitude": "48.93000000",
      "longitude": "15.23932000"
    },
    {
      "id": 2416,
      "name": "Kematen an der Ybbs",
      "latitude": "48.02541000",
      "longitude": "14.76468000"
    },
    {
      "id": 2421,
      "name": "Kierling",
      "latitude": "48.30997000",
      "longitude": "16.27616000"
    },
    {
      "id": 2422,
      "name": "Kilb",
      "latitude": "48.10101000",
      "longitude": "15.40850000"
    },
    {
      "id": 2426,
      "name": "Kirchberg am Wagram",
      "latitude": "48.43182000",
      "longitude": "15.89692000"
    },
    {
      "id": 2427,
      "name": "Kirchberg am Walde",
      "latitude": "48.72477000",
      "longitude": "15.08826000"
    },
    {
      "id": 2428,
      "name": "Kirchberg am Wechsel",
      "latitude": "47.60738000",
      "longitude": "15.99103000"
    },
    {
      "id": 2429,
      "name": "Kirchberg an der Pielach",
      "latitude": "48.02690000",
      "longitude": "15.42875000"
    },
    {
      "id": 2437,
      "name": "Kirchschlag",
      "latitude": "48.39345000",
      "longitude": "15.22285000"
    },
    {
      "id": 2439,
      "name": "Kirchschlag in der Buckligen Welt",
      "latitude": "47.50000000",
      "longitude": "16.28333000"
    },
    {
      "id": 2440,
      "name": "Kirchstetten",
      "latitude": "48.18333000",
      "longitude": "15.81667000"
    },
    {
      "id": 2441,
      "name": "Kirnberg an der Mank",
      "latitude": "48.07246000",
      "longitude": "15.32232000"
    },
    {
      "id": 2448,
      "name": "Klausen-Leopoldsdorf",
      "latitude": "48.08771000",
      "longitude": "16.01686000"
    },
    {
      "id": 2450,
      "name": "Klein-Neusiedl",
      "latitude": "48.09379000",
      "longitude": "16.60661000"
    },
    {
      "id": 2451,
      "name": "Klein-Pöchlarn",
      "latitude": "48.21667000",
      "longitude": "15.21667000"
    },
    {
      "id": 2459,
      "name": "Kleinzell",
      "latitude": "47.97993000",
      "longitude": "15.73620000"
    },
    {
      "id": 2462,
      "name": "Klosterneuburg",
      "latitude": "48.30521000",
      "longitude": "16.32522000"
    },
    {
      "id": 2510,
      "name": "Königstetten",
      "latitude": "48.30198000",
      "longitude": "16.14492000"
    },
    {
      "id": 2476,
      "name": "Korneuburg",
      "latitude": "48.35000000",
      "longitude": "16.33333000"
    },
    {
      "id": 2477,
      "name": "Kottingbrunn",
      "latitude": "47.95096000",
      "longitude": "16.22715000"
    },
    {
      "id": 2483,
      "name": "Krems an der Donau",
      "latitude": "48.40921000",
      "longitude": "15.61415000"
    },
    {
      "id": 2484,
      "name": "Krems an der Donau Stadt",
      "latitude": "48.41040000",
      "longitude": "15.60574000"
    },
    {
      "id": 2491,
      "name": "Kritzendorf",
      "latitude": "48.32932000",
      "longitude": "16.30011000"
    },
    {
      "id": 2495,
      "name": "Krumau am Kamp",
      "latitude": "48.58879000",
      "longitude": "15.44914000"
    },
    {
      "id": 2497,
      "name": "Krumbach Markt",
      "latitude": "47.51667000",
      "longitude": "16.18333000"
    },
    {
      "id": 2499,
      "name": "Krumnussbaum",
      "latitude": "48.20877000",
      "longitude": "15.16212000"
    },
    {
      "id": 2517,
      "name": "Laa an der Thaya",
      "latitude": "48.71667000",
      "longitude": "16.38333000"
    },
    {
      "id": 2519,
      "name": "Laab im Walde",
      "latitude": "48.15486000",
      "longitude": "16.17359000"
    },
    {
      "id": 2525,
      "name": "Ladendorf",
      "latitude": "48.53333000",
      "longitude": "16.48333000"
    },
    {
      "id": 2531,
      "name": "Landegg",
      "latitude": "47.90000000",
      "longitude": "16.40000000"
    },
    {
      "id": 2535,
      "name": "Langau",
      "latitude": "48.83207000",
      "longitude": "15.71560000"
    },
    {
      "id": 2539,
      "name": "Langenlebarn-Oberaigen",
      "latitude": "48.33023000",
      "longitude": "16.11059000"
    },
    {
      "id": 2540,
      "name": "Langenlois",
      "latitude": "48.46667000",
      "longitude": "15.66667000"
    },
    {
      "id": 2541,
      "name": "Langenrohr",
      "latitude": "48.30489000",
      "longitude": "16.01034000"
    },
    {
      "id": 2544,
      "name": "Langenzersdorf",
      "latitude": "48.30432000",
      "longitude": "16.36143000"
    },
    {
      "id": 2546,
      "name": "Langschlag",
      "latitude": "48.57448000",
      "longitude": "14.88459000"
    },
    {
      "id": 2549,
      "name": "Lanzendorf",
      "latitude": "48.11056000",
      "longitude": "16.44500000"
    },
    {
      "id": 2550,
      "name": "Lanzenkirchen",
      "latitude": "47.73621000",
      "longitude": "16.21985000"
    },
    {
      "id": 2551,
      "name": "Lassee",
      "latitude": "48.22479000",
      "longitude": "16.82230000"
    },
    {
      "id": 2558,
      "name": "Laxenburg",
      "latitude": "48.06833000",
      "longitude": "16.35607000"
    },
    {
      "id": 2563,
      "name": "Leiben",
      "latitude": "48.24628000",
      "longitude": "15.27460000"
    },
    {
      "id": 2570,
      "name": "Leitzersdorf",
      "latitude": "48.41918000",
      "longitude": "16.24513000"
    },
    {
      "id": 2575,
      "name": "Lengenfeld",
      "latitude": "48.47187000",
      "longitude": "15.59870000"
    },
    {
      "id": 2579,
      "name": "Leobendorf",
      "latitude": "48.38333000",
      "longitude": "16.31667000"
    },
    {
      "id": 2580,
      "name": "Leobersdorf",
      "latitude": "47.92796000",
      "longitude": "16.21651000"
    },
    {
      "id": 2584,
      "name": "Leopoldsdorf",
      "latitude": "48.11557000",
      "longitude": "16.39126000"
    },
    {
      "id": 2585,
      "name": "Leopoldsdorf im Marchfelde",
      "latitude": "48.22261000",
      "longitude": "16.68858000"
    },
    {
      "id": 2586,
      "name": "Lerchenfeld",
      "latitude": "48.41234000",
      "longitude": "15.63183000"
    },
    {
      "id": 2590,
      "name": "Lichtenegg",
      "latitude": "47.60000000",
      "longitude": "16.20000000"
    },
    {
      "id": 2592,
      "name": "Lichtenwörth",
      "latitude": "47.82756000",
      "longitude": "16.29873000"
    },
    {
      "id": 2600,
      "name": "Lilienfeld",
      "latitude": "48.01312000",
      "longitude": "15.59664000"
    },
    {
      "id": 2605,
      "name": "Litschau",
      "latitude": "48.94409000",
      "longitude": "15.04483000"
    },
    {
      "id": 2610,
      "name": "Loich",
      "latitude": "47.99578000",
      "longitude": "15.40163000"
    },
    {
      "id": 2613,
      "name": "Loosdorf",
      "latitude": "48.20000000",
      "longitude": "15.40000000"
    },
    {
      "id": 2620,
      "name": "Lunz am See",
      "latitude": "47.86120000",
      "longitude": "15.02998000"
    },
    {
      "id": 2626,
      "name": "Mailberg",
      "latitude": "48.67379000",
      "longitude": "16.18132000"
    },
    {
      "id": 2628,
      "name": "Maissau",
      "latitude": "48.57300000",
      "longitude": "15.83005000"
    },
    {
      "id": 2629,
      "name": "Mank",
      "latitude": "48.11024000",
      "longitude": "15.33915000"
    },
    {
      "id": 2630,
      "name": "Mannersdorf am Leithagebirge",
      "latitude": "47.96667000",
      "longitude": "16.60000000"
    },
    {
      "id": 2633,
      "name": "Mannsdorf an der Donau",
      "latitude": "48.15200000",
      "longitude": "16.66506000"
    },
    {
      "id": 2634,
      "name": "Mannswörth",
      "latitude": "48.14547000",
      "longitude": "16.51374000"
    },
    {
      "id": 2635,
      "name": "Marbach an der Donau",
      "latitude": "48.21667000",
      "longitude": "15.15000000"
    },
    {
      "id": 2636,
      "name": "Marchegg",
      "latitude": "48.26217000",
      "longitude": "16.91045000"
    },
    {
      "id": 2638,
      "name": "Margarethen am Moos",
      "latitude": "48.03333000",
      "longitude": "16.60000000"
    },
    {
      "id": 2640,
      "name": "Maria Ellend",
      "latitude": "48.10000000",
      "longitude": "16.68333000"
    },
    {
      "id": 2641,
      "name": "Maria Enzersdorf",
      "latitude": "48.10000000",
      "longitude": "16.28333000"
    },
    {
      "id": 2642,
      "name": "Maria Laach am Jauerling",
      "latitude": "48.30412000",
      "longitude": "15.34472000"
    },
    {
      "id": 2644,
      "name": "Maria Lanzendorf",
      "latitude": "48.09923000",
      "longitude": "16.41984000"
    },
    {
      "id": 2649,
      "name": "Maria Taferl",
      "latitude": "48.22702000",
      "longitude": "15.15954000"
    },
    {
      "id": 2651,
      "name": "Maria-Anzbach",
      "latitude": "48.19012000",
      "longitude": "15.93155000"
    },
    {
      "id": 2659,
      "name": "Markersdorf an der Pielach",
      "latitude": "48.18333000",
      "longitude": "15.50000000"
    },
    {
      "id": 2660,
      "name": "Markgrafneusiedl",
      "latitude": "48.26667000",
      "longitude": "16.63333000"
    },
    {
      "id": 2663,
      "name": "Markt Piesting",
      "latitude": "47.87358000",
      "longitude": "16.12510000"
    },
    {
      "id": 2665,
      "name": "Martinsberg",
      "latitude": "48.37549000",
      "longitude": "15.14997000"
    },
    {
      "id": 2672,
      "name": "Matzen",
      "latitude": "48.40000000",
      "longitude": "16.70000000"
    },
    {
      "id": 2673,
      "name": "Matzendorf",
      "latitude": "47.89137000",
      "longitude": "16.21393000"
    },
    {
      "id": 2674,
      "name": "Mauer bei Amstetten",
      "latitude": "48.09643000",
      "longitude": "14.80060000"
    },
    {
      "id": 2675,
      "name": "Mauerbach",
      "latitude": "48.24514000",
      "longitude": "16.16793000"
    },
    {
      "id": 2679,
      "name": "Mautern",
      "latitude": "48.39319000",
      "longitude": "15.57793000"
    },
    {
      "id": 2688,
      "name": "Melk",
      "latitude": "48.22737000",
      "longitude": "15.33186000"
    },
    {
      "id": 2698,
      "name": "Michelhausen",
      "latitude": "48.29085000",
      "longitude": "15.93893000"
    },
    {
      "id": 2701,
      "name": "Miesenbach",
      "latitude": "47.84035000",
      "longitude": "15.98236000"
    },
    {
      "id": 2706,
      "name": "Mistelbach",
      "latitude": "48.57000000",
      "longitude": "16.57667000"
    },
    {
      "id": 2708,
      "name": "Mitterbach am Erlaufsee",
      "latitude": "47.81396000",
      "longitude": "15.29537000"
    },
    {
      "id": 2716,
      "name": "Mitterndorf an der Fischa",
      "latitude": "47.99739000",
      "longitude": "16.47357000"
    },
    {
      "id": 2740,
      "name": "Mödling",
      "latitude": "48.08605000",
      "longitude": "16.28921000"
    },
    {
      "id": 2744,
      "name": "Möllersdorf",
      "latitude": "48.02575000",
      "longitude": "16.30508000"
    },
    {
      "id": 2746,
      "name": "Mönichkirchen",
      "latitude": "47.51062000",
      "longitude": "16.03425000"
    },
    {
      "id": 2725,
      "name": "Moosbrunn",
      "latitude": "48.01667000",
      "longitude": "16.45000000"
    },
    {
      "id": 2731,
      "name": "Muckendorf an der Donau",
      "latitude": "48.33183000",
      "longitude": "16.15540000"
    },
    {
      "id": 2732,
      "name": "Muggendorf",
      "latitude": "47.91059000",
      "longitude": "15.93533000"
    },
    {
      "id": 2756,
      "name": "Mühldorf",
      "latitude": "48.37432000",
      "longitude": "15.34672000"
    },
    {
      "id": 2761,
      "name": "Münchendorf",
      "latitude": "48.03333000",
      "longitude": "16.38333000"
    },
    {
      "id": 2777,
      "name": "Neidling",
      "latitude": "48.24005000",
      "longitude": "15.55591000"
    },
    {
      "id": 2783,
      "name": "Neu-Guntramsdorf",
      "latitude": "48.06420000",
      "longitude": "16.31573000"
    },
    {
      "id": 2789,
      "name": "Neudorf bei Staatz",
      "latitude": "48.72083000",
      "longitude": "16.49139000"
    },
    {
      "id": 2793,
      "name": "Neufurth",
      "latitude": "48.07894000",
      "longitude": "14.81180000"
    },
    {
      "id": 2797,
      "name": "Neuhofen an der Ybbs",
      "latitude": "48.05795000",
      "longitude": "14.85489000"
    },
    {
      "id": 2803,
      "name": "Neulengbach",
      "latitude": "48.19745000",
      "longitude": "15.90219000"
    },
    {
      "id": 2805,
      "name": "Neumarkt an der Ybbs",
      "latitude": "48.14103000",
      "longitude": "15.05758000"
    },
    {
      "id": 2809,
      "name": "Neunkirchen",
      "latitude": "47.72096000",
      "longitude": "16.08107000"
    },
    {
      "id": 2810,
      "name": "Neusiedl",
      "latitude": "47.88769000",
      "longitude": "15.96313000"
    },
    {
      "id": 2812,
      "name": "Neusiedl an der Zaya",
      "latitude": "48.59920000",
      "longitude": "16.77990000"
    },
    {
      "id": 2824,
      "name": "Niederhollabrunn",
      "latitude": "48.43333000",
      "longitude": "16.30000000"
    },
    {
      "id": 2825,
      "name": "Niederleis",
      "latitude": "48.55000000",
      "longitude": "16.40000000"
    },
    {
      "id": 2839,
      "name": "Nöchling",
      "latitude": "48.22433000",
      "longitude": "14.98123000"
    },
    {
      "id": 2843,
      "name": "Ober-Grafendorf",
      "latitude": "48.15040000",
      "longitude": "15.54531000"
    },
    {
      "id": 2854,
      "name": "Oberhausen",
      "latitude": "48.17690000",
      "longitude": "16.58506000"
    },
    {
      "id": 2863,
      "name": "Oberndorf an der Melk",
      "latitude": "48.06386000",
      "longitude": "15.22430000"
    },
    {
      "id": 2867,
      "name": "Oberndorf in der Ebene",
      "latitude": "48.27040000",
      "longitude": "15.68985000"
    },
    {
      "id": 2874,
      "name": "Obersdorf",
      "latitude": "48.36667000",
      "longitude": "16.51667000"
    },
    {
      "id": 2875,
      "name": "Obersiebenbrunn",
      "latitude": "48.26537000",
      "longitude": "16.71076000"
    },
    {
      "id": 2881,
      "name": "Oberwagram",
      "latitude": "48.20157000",
      "longitude": "15.64917000"
    },
    {
      "id": 2882,
      "name": "Oberwaltersdorf",
      "latitude": "47.97567000",
      "longitude": "16.32191000"
    },
    {
      "id": 2886,
      "name": "Oberwölbling",
      "latitude": "48.31719000",
      "longitude": "15.59166000"
    },
    {
      "id": 2891,
      "name": "Oehling",
      "latitude": "48.10000000",
      "longitude": "14.80000000"
    },
    {
      "id": 2894,
      "name": "Oeynhausen",
      "latitude": "47.98533000",
      "longitude": "16.29187000"
    },
    {
      "id": 2901,
      "name": "Opponitz",
      "latitude": "47.87776000",
      "longitude": "14.82283000"
    },
    {
      "id": 2904,
      "name": "Orth an der Donau",
      "latitude": "48.14524000",
      "longitude": "16.70089000"
    },
    {
      "id": 2910,
      "name": "Ottenschlag",
      "latitude": "48.42393000",
      "longitude": "15.21924000"
    },
    {
      "id": 2913,
      "name": "Ottenthal",
      "latitude": "48.76100000",
      "longitude": "16.57914000"
    },
    {
      "id": 2914,
      "name": "Otterthal",
      "latitude": "47.61667000",
      "longitude": "15.93333000"
    },
    {
      "id": 2923,
      "name": "Parbasdorf",
      "latitude": "48.28333000",
      "longitude": "16.60000000"
    },
    {
      "id": 2931,
      "name": "Paudorf",
      "latitude": "48.35416000",
      "longitude": "15.61853000"
    },
    {
      "id": 2932,
      "name": "Payerbach",
      "latitude": "47.69209000",
      "longitude": "15.86340000"
    },
    {
      "id": 2935,
      "name": "Penz",
      "latitude": "48.03333000",
      "longitude": "14.48333000"
    },
    {
      "id": 2937,
      "name": "Perchtoldsdorf",
      "latitude": "48.11935000",
      "longitude": "16.26607000"
    },
    {
      "id": 2940,
      "name": "Pernegg",
      "latitude": "48.73333000",
      "longitude": "15.61667000"
    },
    {
      "id": 2942,
      "name": "Pernersdorf",
      "latitude": "48.70000000",
      "longitude": "16.01667000"
    },
    {
      "id": 2943,
      "name": "Pernitz",
      "latitude": "47.89759000",
      "longitude": "15.96022000"
    },
    {
      "id": 2944,
      "name": "Persenbeug",
      "latitude": "48.18733000",
      "longitude": "15.08809000"
    },
    {
      "id": 2947,
      "name": "Petronell-Carnuntum",
      "latitude": "48.11296000",
      "longitude": "16.86582000"
    },
    {
      "id": 2951,
      "name": "Petzenkirchen",
      "latitude": "48.14693000",
      "longitude": "15.15465000"
    },
    {
      "id": 2955,
      "name": "Pfaffstätten",
      "latitude": "48.01737000",
      "longitude": "16.26354000"
    },
    {
      "id": 2970,
      "name": "Pillichsdorf",
      "latitude": "48.35000000",
      "longitude": "16.53333000"
    },
    {
      "id": 2980,
      "name": "Pitten",
      "latitude": "47.71667000",
      "longitude": "16.18333000"
    },
    {
      "id": 3103,
      "name": "Pöchlarn",
      "latitude": "48.20000000",
      "longitude": "15.20000000"
    },
    {
      "id": 3104,
      "name": "Pöggstall",
      "latitude": "48.31734000",
      "longitude": "15.20405000"
    },
    {
      "id": 2987,
      "name": "Politischer Bezirk Amstetten",
      "latitude": "48.00000000",
      "longitude": "14.76667000"
    },
    {
      "id": 2988,
      "name": "Politischer Bezirk Baden",
      "latitude": "47.97729000",
      "longitude": "16.19845000"
    },
    {
      "id": 2992,
      "name": "Politischer Bezirk Bruck an der Leitha",
      "latitude": "48.06781000",
      "longitude": "16.77284000"
    },
    {
      "id": 3004,
      "name": "Politischer Bezirk Gänserndorf",
      "latitude": "48.39340000",
      "longitude": "16.73892000"
    },
    {
      "id": 3001,
      "name": "Politischer Bezirk Gmünd",
      "latitude": "48.74732000",
      "longitude": "14.98166000"
    },
    {
      "id": 3009,
      "name": "Politischer Bezirk Hollabrunn",
      "latitude": "48.65286000",
      "longitude": "15.99701000"
    },
    {
      "id": 3010,
      "name": "Politischer Bezirk Horn",
      "latitude": "48.71341000",
      "longitude": "15.68712000"
    },
    {
      "id": 3017,
      "name": "Politischer Bezirk Korneuburg",
      "latitude": "48.44343000",
      "longitude": "16.24120000"
    },
    {
      "id": 3018,
      "name": "Politischer Bezirk Krems",
      "latitude": "48.46582000",
      "longitude": "15.52093000"
    },
    {
      "id": 3025,
      "name": "Politischer Bezirk Lilienfeld",
      "latitude": "47.91667000",
      "longitude": "15.60000000"
    },
    {
      "id": 3028,
      "name": "Politischer Bezirk Melk",
      "latitude": "48.21314000",
      "longitude": "15.24282000"
    },
    {
      "id": 3029,
      "name": "Politischer Bezirk Mistelbach",
      "latitude": "48.59436000",
      "longitude": "16.54730000"
    },
    {
      "id": 3032,
      "name": "Politischer Bezirk Mödling",
      "latitude": "48.08517000",
      "longitude": "16.24118000"
    },
    {
      "id": 3033,
      "name": "Politischer Bezirk Neunkirchen",
      "latitude": "47.69424000",
      "longitude": "15.93783000"
    },
    {
      "id": 3043,
      "name": "Politischer Bezirk Sankt Pölten",
      "latitude": "48.16905000",
      "longitude": "15.66508000"
    },
    {
      "id": 3045,
      "name": "Politischer Bezirk Scheibbs",
      "latitude": "47.92316000",
      "longitude": "15.10376000"
    },
    {
      "id": 3052,
      "name": "Politischer Bezirk Tulln",
      "latitude": "48.30000000",
      "longitude": "16.00000000"
    },
    {
      "id": 3058,
      "name": "Politischer Bezirk Waidhofen an der Thaya",
      "latitude": "48.85925000",
      "longitude": "15.35814000"
    },
    {
      "id": 3060,
      "name": "Politischer Bezirk Wiener Neustadt",
      "latitude": "47.83203000",
      "longitude": "16.14291000"
    },
    {
      "id": 3063,
      "name": "Politischer Bezirk Zwettl",
      "latitude": "48.57435000",
      "longitude": "15.17159000"
    },
    {
      "id": 3066,
      "name": "Pottenbrunn",
      "latitude": "48.23333000",
      "longitude": "15.70000000"
    },
    {
      "id": 3067,
      "name": "Pottendorf",
      "latitude": "47.90000000",
      "longitude": "16.38333000"
    },
    {
      "id": 3068,
      "name": "Pottenstein",
      "latitude": "47.95820000",
      "longitude": "16.09480000"
    },
    {
      "id": 3069,
      "name": "Pottschach",
      "latitude": "47.69856000",
      "longitude": "16.00725000"
    },
    {
      "id": 3071,
      "name": "Poysdorf",
      "latitude": "48.66667000",
      "longitude": "16.63333000"
    },
    {
      "id": 3079,
      "name": "Prellenkirchen",
      "latitude": "48.07401000",
      "longitude": "16.95233000"
    },
    {
      "id": 3080,
      "name": "Pressbaum",
      "latitude": "48.18333000",
      "longitude": "16.08333000"
    },
    {
      "id": 3082,
      "name": "Prigglitz",
      "latitude": "47.70318000",
      "longitude": "15.92794000"
    },
    {
      "id": 3083,
      "name": "Prinzersdorf",
      "latitude": "48.20000000",
      "longitude": "15.51667000"
    },
    {
      "id": 3085,
      "name": "Prottes",
      "latitude": "48.38680000",
      "longitude": "16.73890000"
    },
    {
      "id": 3090,
      "name": "Puchberg am Schneeberg",
      "latitude": "47.78709000",
      "longitude": "15.91352000"
    },
    {
      "id": 3092,
      "name": "Puchenstuben",
      "latitude": "47.92819000",
      "longitude": "15.28748000"
    },
    {
      "id": 3096,
      "name": "Pulkau",
      "latitude": "48.70484000",
      "longitude": "15.86031000"
    },
    {
      "id": 3099,
      "name": "Purgstall",
      "latitude": "48.05841000",
      "longitude": "15.13478000"
    },
    {
      "id": 3100,
      "name": "Purkersdorf",
      "latitude": "48.20769000",
      "longitude": "16.17539000"
    },
    {
      "id": 3102,
      "name": "Pyhra",
      "latitude": "48.15910000",
      "longitude": "15.68624000"
    },
    {
      "id": 3116,
      "name": "Raabs an der Thaya",
      "latitude": "48.85000000",
      "longitude": "15.50000000"
    },
    {
      "id": 3117,
      "name": "Raach am Hochgebirge",
      "latitude": "47.63333000",
      "longitude": "15.93333000"
    },
    {
      "id": 3118,
      "name": "Raasdorf",
      "latitude": "48.24657000",
      "longitude": "16.56532000"
    },
    {
      "id": 3119,
      "name": "Rabensburg",
      "latitude": "48.65000000",
      "longitude": "16.90000000"
    },
    {
      "id": 3120,
      "name": "Rabenstein an der Pielach",
      "latitude": "48.06535000",
      "longitude": "15.46772000"
    },
    {
      "id": 3133,
      "name": "Ramsau",
      "latitude": "48.00313000",
      "longitude": "15.80332000"
    },
    {
      "id": 3136,
      "name": "Randegg",
      "latitude": "48.01198000",
      "longitude": "14.97334000"
    },
    {
      "id": 3141,
      "name": "Rannersdorf",
      "latitude": "48.12772000",
      "longitude": "16.46379000"
    },
    {
      "id": 3144,
      "name": "Rappottenstein",
      "latitude": "48.52161000",
      "longitude": "15.07925000"
    },
    {
      "id": 3146,
      "name": "Rastenfeld",
      "latitude": "48.57348000",
      "longitude": "15.33176000"
    },
    {
      "id": 3151,
      "name": "Ratzersdorf an der Traisen",
      "latitude": "48.22639000",
      "longitude": "15.66629000"
    },
    {
      "id": 3152,
      "name": "Rauchenwarth",
      "latitude": "48.08330000",
      "longitude": "16.52794000"
    },
    {
      "id": 3154,
      "name": "Ravelsbach",
      "latitude": "48.55000000",
      "longitude": "15.85000000"
    },
    {
      "id": 3155,
      "name": "Raxendorf",
      "latitude": "48.34108000",
      "longitude": "15.27666000"
    },
    {
      "id": 3161,
      "name": "Rehberg",
      "latitude": "48.43114000",
      "longitude": "15.58702000"
    },
    {
      "id": 3162,
      "name": "Reichenau an der Rax",
      "latitude": "47.69509000",
      "longitude": "15.84572000"
    },
    {
      "id": 3170,
      "name": "Reingers",
      "latitude": "48.96667000",
      "longitude": "15.13333000"
    },
    {
      "id": 3171,
      "name": "Reinsberg",
      "latitude": "47.98567000",
      "longitude": "15.07067000"
    },
    {
      "id": 3172,
      "name": "Reisenberg",
      "latitude": "47.99406000",
      "longitude": "16.52018000"
    },
    {
      "id": 3181,
      "name": "Retz",
      "latitude": "48.75712000",
      "longitude": "15.95485000"
    },
    {
      "id": 3199,
      "name": "Rohr im Gebirge",
      "latitude": "47.89471000",
      "longitude": "15.73603000"
    },
    {
      "id": 3201,
      "name": "Rohrau",
      "latitude": "48.06667000",
      "longitude": "16.85000000"
    },
    {
      "id": 3202,
      "name": "Rohrbach an der Gölsen",
      "latitude": "48.04699000",
      "longitude": "15.74169000"
    },
    {
      "id": 3223,
      "name": "Röhrenbach",
      "latitude": "48.65000000",
      "longitude": "15.50000000"
    },
    {
      "id": 3207,
      "name": "Rohrendorf bei Krems",
      "latitude": "48.41935000",
      "longitude": "15.65772000"
    },
    {
      "id": 3225,
      "name": "Röschitz",
      "latitude": "48.64312000",
      "longitude": "15.81774000"
    },
    {
      "id": 3211,
      "name": "Rosenau am Sonntagberg",
      "latitude": "48.00778000",
      "longitude": "14.73927000"
    },
    {
      "id": 3219,
      "name": "Ruprechtshofen",
      "latitude": "48.13648000",
      "longitude": "15.27675000"
    },
    {
      "id": 3233,
      "name": "Sallingberg",
      "latitude": "48.46667000",
      "longitude": "15.23333000"
    },
    {
      "id": 3238,
      "name": "Sankt Aegyd am Neuwalde",
      "latitude": "47.85383000",
      "longitude": "15.56969000"
    },
    {
      "id": 3242,
      "name": "Sankt Andrä vor dem Hagenthale",
      "latitude": "48.32202000",
      "longitude": "16.20724000"
    },
    {
      "id": 3247,
      "name": "Sankt Corona am Wechsel",
      "latitude": "47.58333000",
      "longitude": "16.00000000"
    },
    {
      "id": 3254,
      "name": "Sankt Georgen am Ybbsfelde",
      "latitude": "48.12892000",
      "longitude": "14.95364000"
    },
    {
      "id": 3256,
      "name": "Sankt Georgen an der Leys",
      "latitude": "48.03149000",
      "longitude": "15.22722000"
    },
    {
      "id": 3281,
      "name": "Sankt Leonhard am Forst",
      "latitude": "48.14232000",
      "longitude": "15.28464000"
    },
    {
      "id": 3282,
      "name": "Sankt Leonhard am Hornerwald",
      "latitude": "48.60000000",
      "longitude": "15.53333000"
    },
    {
      "id": 3295,
      "name": "Sankt Margarethen an der Sierning",
      "latitude": "48.15910000",
      "longitude": "15.49055000"
    },
    {
      "id": 3304,
      "name": "Sankt Martin am Ybbsfelde",
      "latitude": "48.16425000",
      "longitude": "15.02076000"
    },
    {
      "id": 3318,
      "name": "Sankt Pantaleon",
      "latitude": "48.21058000",
      "longitude": "14.56804000"
    },
    {
      "id": 3326,
      "name": "Sankt Peter in der Au Markt",
      "latitude": "48.04400000",
      "longitude": "14.62182000"
    },
    {
      "id": 3329,
      "name": "Sankt Pölten",
      "latitude": "48.20000000",
      "longitude": "15.63333000"
    },
    {
      "id": 3330,
      "name": "Sankt Pölten Stadt",
      "latitude": "48.20000000",
      "longitude": "15.61667000"
    },
    {
      "id": 3341,
      "name": "Sankt Valentin",
      "latitude": "48.16667000",
      "longitude": "14.51667000"
    },
    {
      "id": 3344,
      "name": "Sankt Veit an der Gölsen",
      "latitude": "48.04320000",
      "longitude": "15.66942000"
    },
    {
      "id": 3359,
      "name": "Scharndorf",
      "latitude": "48.09399000",
      "longitude": "16.79883000"
    },
    {
      "id": 3366,
      "name": "Scheibbs",
      "latitude": "48.00474000",
      "longitude": "15.16817000"
    },
    {
      "id": 3376,
      "name": "Schleinbach",
      "latitude": "48.41667000",
      "longitude": "16.46667000"
    },
    {
      "id": 3416,
      "name": "Schönau an der Triesting",
      "latitude": "47.93452000",
      "longitude": "16.25376000"
    },
    {
      "id": 3417,
      "name": "Schönbach",
      "latitude": "48.45000000",
      "longitude": "15.03333000"
    },
    {
      "id": 3421,
      "name": "Schönkirchen-Reyersdorf",
      "latitude": "48.35477000",
      "longitude": "16.69115000"
    },
    {
      "id": 3384,
      "name": "Schottwien",
      "latitude": "47.65683000",
      "longitude": "15.87250000"
    },
    {
      "id": 3385,
      "name": "Schrattenbach",
      "latitude": "47.77902000",
      "longitude": "15.99060000"
    },
    {
      "id": 3386,
      "name": "Schrattenberg",
      "latitude": "48.72359000",
      "longitude": "16.72201000"
    },
    {
      "id": 3387,
      "name": "Schrattenthal",
      "latitude": "48.70000000",
      "longitude": "15.90000000"
    },
    {
      "id": 3388,
      "name": "Schrems",
      "latitude": "48.78333000",
      "longitude": "15.06667000"
    },
    {
      "id": 3392,
      "name": "Schwadorf",
      "latitude": "48.06936000",
      "longitude": "16.57957000"
    },
    {
      "id": 3397,
      "name": "Schwarzau am Steinfeld",
      "latitude": "47.73183000",
      "longitude": "16.17094000"
    },
    {
      "id": 3398,
      "name": "Schwarzau im Gebirge",
      "latitude": "47.81223000",
      "longitude": "15.70581000"
    },
    {
      "id": 3400,
      "name": "Schwarzenau",
      "latitude": "48.74436000",
      "longitude": "15.25838000"
    },
    {
      "id": 3401,
      "name": "Schwarzenbach",
      "latitude": "47.63547000",
      "longitude": "16.35109000"
    },
    {
      "id": 3402,
      "name": "Schwarzenbach an der Pielach",
      "latitude": "47.93333000",
      "longitude": "15.38333000"
    },
    {
      "id": 3405,
      "name": "Schwechat",
      "latitude": "48.13333000",
      "longitude": "16.46667000"
    },
    {
      "id": 3406,
      "name": "Schweiggers",
      "latitude": "48.66667000",
      "longitude": "15.06667000"
    },
    {
      "id": 3429,
      "name": "Seebenstein",
      "latitude": "47.69936000",
      "longitude": "16.14484000"
    },
    {
      "id": 3437,
      "name": "Seibersdorf",
      "latitude": "47.95858000",
      "longitude": "16.51842000"
    },
    {
      "id": 3440,
      "name": "Seitenstetten Markt",
      "latitude": "48.03333000",
      "longitude": "14.65000000"
    },
    {
      "id": 3443,
      "name": "Semmering",
      "latitude": "47.63347000",
      "longitude": "15.82993000"
    },
    {
      "id": 3445,
      "name": "Senftenberg",
      "latitude": "48.43333000",
      "longitude": "15.55000000"
    },
    {
      "id": 3447,
      "name": "Seyring",
      "latitude": "48.33333000",
      "longitude": "16.48333000"
    },
    {
      "id": 3452,
      "name": "Sieghartskirchen",
      "latitude": "48.25531000",
      "longitude": "16.01223000"
    },
    {
      "id": 3453,
      "name": "Sierndorf",
      "latitude": "48.43024000",
      "longitude": "16.16658000"
    },
    {
      "id": 3457,
      "name": "Sigmundsherberg",
      "latitude": "48.68333000",
      "longitude": "15.75000000"
    },
    {
      "id": 3465,
      "name": "Sitzendorf an der Schmida",
      "latitude": "48.59841000",
      "longitude": "15.94254000"
    },
    {
      "id": 3467,
      "name": "Sollenau",
      "latitude": "47.89834000",
      "longitude": "16.24833000"
    },
    {
      "id": 3468,
      "name": "Sommerein",
      "latitude": "47.98333000",
      "longitude": "16.65000000"
    },
    {
      "id": 3470,
      "name": "Sonntagberg",
      "latitude": "47.99561000",
      "longitude": "14.76065000"
    },
    {
      "id": 3471,
      "name": "Sooss",
      "latitude": "47.98464000",
      "longitude": "16.21737000"
    },
    {
      "id": 3472,
      "name": "Spannberg",
      "latitude": "48.46393000",
      "longitude": "16.73647000"
    },
    {
      "id": 3476,
      "name": "Spillern",
      "latitude": "48.38333000",
      "longitude": "16.25000000"
    },
    {
      "id": 3480,
      "name": "Spitz",
      "latitude": "48.36560000",
      "longitude": "15.41416000"
    },
    {
      "id": 3481,
      "name": "Spratzern",
      "latitude": "48.17044000",
      "longitude": "15.61844000"
    },
    {
      "id": 3487,
      "name": "Staatz",
      "latitude": "48.67617000",
      "longitude": "16.48726000"
    },
    {
      "id": 3506,
      "name": "Stattersdorf",
      "latitude": "48.18333000",
      "longitude": "15.63333000"
    },
    {
      "id": 3507,
      "name": "Statzendorf",
      "latitude": "48.30752000",
      "longitude": "15.64127000"
    },
    {
      "id": 3511,
      "name": "Stein an der Donau",
      "latitude": "48.40163000",
      "longitude": "15.58102000"
    },
    {
      "id": 3512,
      "name": "Steinabrückl",
      "latitude": "47.87053000",
      "longitude": "16.20277000"
    },
    {
      "id": 3514,
      "name": "Steinakirchen am Forst",
      "latitude": "48.06965000",
      "longitude": "15.04801000"
    },
    {
      "id": 3523,
      "name": "Stephanshart",
      "latitude": "48.15000000",
      "longitude": "14.81667000"
    },
    {
      "id": 3524,
      "name": "Stetteldorf am Wagram",
      "latitude": "48.40815000",
      "longitude": "16.01862000"
    },
    {
      "id": 3525,
      "name": "Stetten",
      "latitude": "48.36667000",
      "longitude": "16.38333000"
    },
    {
      "id": 3533,
      "name": "Stockerau",
      "latitude": "48.38333000",
      "longitude": "16.21667000"
    },
    {
      "id": 3534,
      "name": "Stollhofen",
      "latitude": "48.35226000",
      "longitude": "15.75963000"
    },
    {
      "id": 3560,
      "name": "Stössing",
      "latitude": "48.12267000",
      "longitude": "15.81379000"
    },
    {
      "id": 3539,
      "name": "Strass",
      "latitude": "48.46667000",
      "longitude": "15.73333000"
    },
    {
      "id": 3544,
      "name": "Strasshof an der Nordbahn",
      "latitude": "48.31667000",
      "longitude": "16.66667000"
    },
    {
      "id": 3546,
      "name": "Stratzing",
      "latitude": "48.45000000",
      "longitude": "15.60000000"
    },
    {
      "id": 3551,
      "name": "Strengberg",
      "latitude": "48.14685000",
      "longitude": "14.65147000"
    },
    {
      "id": 3554,
      "name": "Stronsdorf",
      "latitude": "48.65157000",
      "longitude": "16.29890000"
    },
    {
      "id": 3573,
      "name": "Tattendorf",
      "latitude": "47.95000000",
      "longitude": "16.30000000"
    },
    {
      "id": 3579,
      "name": "Teesdorf",
      "latitude": "47.95000000",
      "longitude": "16.28333000"
    },
    {
      "id": 3584,
      "name": "Ternitz",
      "latitude": "47.71565000",
      "longitude": "16.03575000"
    },
    {
      "id": 3590,
      "name": "Thaya",
      "latitude": "48.85489000",
      "longitude": "15.28902000"
    },
    {
      "id": 3591,
      "name": "Theresienfeld",
      "latitude": "47.85000000",
      "longitude": "16.23333000"
    },
    {
      "id": 3592,
      "name": "Thomasberg",
      "latitude": "47.56667000",
      "longitude": "16.13333000"
    },
    {
      "id": 3598,
      "name": "Tiefenbach",
      "latitude": "47.53540000",
      "longitude": "16.21346000"
    },
    {
      "id": 3609,
      "name": "Traisen",
      "latitude": "48.03333000",
      "longitude": "15.60000000"
    },
    {
      "id": 3610,
      "name": "Traiskirchen",
      "latitude": "48.01485000",
      "longitude": "16.29324000"
    },
    {
      "id": 3611,
      "name": "Traismauer",
      "latitude": "48.35000000",
      "longitude": "15.73333000"
    },
    {
      "id": 3612,
      "name": "Trattenbach",
      "latitude": "47.60000000",
      "longitude": "15.86667000"
    },
    {
      "id": 3616,
      "name": "Trautmannsdorf an der Leitha",
      "latitude": "48.02357000",
      "longitude": "16.63266000"
    },
    {
      "id": 3621,
      "name": "Tribuswinkel",
      "latitude": "48.00623000",
      "longitude": "16.27075000"
    },
    {
      "id": 3627,
      "name": "Trumau",
      "latitude": "47.99348000",
      "longitude": "16.34268000"
    },
    {
      "id": 3631,
      "name": "Tulbing",
      "latitude": "48.29336000",
      "longitude": "16.12226000"
    },
    {
      "id": 3633,
      "name": "Tulln",
      "latitude": "48.32829000",
      "longitude": "16.05858000"
    },
    {
      "id": 3634,
      "name": "Tullnerbach-Lawies",
      "latitude": "48.18912000",
      "longitude": "16.09117000"
    },
    {
      "id": 3638,
      "name": "Türnitz",
      "latitude": "47.93095000",
      "longitude": "15.49295000"
    },
    {
      "id": 3642,
      "name": "Ulrichskirchen",
      "latitude": "48.40000000",
      "longitude": "16.48333000"
    },
    {
      "id": 3660,
      "name": "Untersiebenbrunn",
      "latitude": "48.25000000",
      "longitude": "16.73333000"
    },
    {
      "id": 3661,
      "name": "Unterstinkenbrunn",
      "latitude": "48.66770000",
      "longitude": "16.34607000"
    },
    {
      "id": 3664,
      "name": "Unterwagram",
      "latitude": "48.21243000",
      "longitude": "15.64951000"
    },
    {
      "id": 3665,
      "name": "Unterwaltersdorf",
      "latitude": "47.95000000",
      "longitude": "16.41667000"
    },
    {
      "id": 3676,
      "name": "Velm",
      "latitude": "48.03333000",
      "longitude": "16.43333000"
    },
    {
      "id": 3680,
      "name": "Viehofen",
      "latitude": "48.21667000",
      "longitude": "15.61667000"
    },
    {
      "id": 3692,
      "name": "Vitis",
      "latitude": "48.75964000",
      "longitude": "15.18259000"
    },
    {
      "id": 3709,
      "name": "Vösendorf",
      "latitude": "48.12107000",
      "longitude": "16.34036000"
    },
    {
      "id": 3716,
      "name": "Waidhofen an der Thaya",
      "latitude": "48.81667000",
      "longitude": "15.28333000"
    },
    {
      "id": 3717,
      "name": "Waidhofen an der Ybbs",
      "latitude": "47.96004000",
      "longitude": "14.77361000"
    },
    {
      "id": 3718,
      "name": "Waidhofen an der Ybbs Stadt",
      "latitude": "47.95999000",
      "longitude": "14.77438000"
    },
    {
      "id": 3719,
      "name": "Waidmannsfeld",
      "latitude": "47.87042000",
      "longitude": "15.98116000"
    },
    {
      "id": 3727,
      "name": "Waldegg",
      "latitude": "47.86852000",
      "longitude": "16.05154000"
    },
    {
      "id": 3728,
      "name": "Waldenstein",
      "latitude": "48.72845000",
      "longitude": "15.01419000"
    },
    {
      "id": 3729,
      "name": "Waldhausen",
      "latitude": "48.52183000",
      "longitude": "15.26250000"
    },
    {
      "id": 3732,
      "name": "Waldkirchen an der Thaya",
      "latitude": "48.93333000",
      "longitude": "15.35000000"
    },
    {
      "id": 3738,
      "name": "Wallsee",
      "latitude": "48.16667000",
      "longitude": "14.71667000"
    },
    {
      "id": 3739,
      "name": "Walpersbach",
      "latitude": "47.71667000",
      "longitude": "16.23333000"
    },
    {
      "id": 3743,
      "name": "Wang",
      "latitude": "48.04538000",
      "longitude": "15.02672000"
    },
    {
      "id": 3748,
      "name": "Warth",
      "latitude": "47.65000000",
      "longitude": "16.11667000"
    },
    {
      "id": 3750,
      "name": "Wartmannstetten",
      "latitude": "47.69359000",
      "longitude": "16.07506000"
    },
    {
      "id": 3759,
      "name": "Weidling",
      "latitude": "48.29100000",
      "longitude": "16.30865000"
    },
    {
      "id": 3760,
      "name": "Weigelsdorf",
      "latitude": "47.95000000",
      "longitude": "16.40000000"
    },
    {
      "id": 3761,
      "name": "Weikendorf",
      "latitude": "48.34438000",
      "longitude": "16.76651000"
    },
    {
      "id": 3762,
      "name": "Weikersdorf am Steinfelde",
      "latitude": "47.80612000",
      "longitude": "16.14389000"
    },
    {
      "id": 3765,
      "name": "Weinburg",
      "latitude": "48.11351000",
      "longitude": "15.53295000"
    },
    {
      "id": 3768,
      "name": "Weinzierl am Walde",
      "latitude": "48.43211000",
      "longitude": "15.43210000"
    },
    {
      "id": 3769,
      "name": "Weinzierl bei Krems",
      "latitude": "48.40000000",
      "longitude": "15.60000000"
    },
    {
      "id": 3772,
      "name": "Weissenbach an der Triesting",
      "latitude": "47.98211000",
      "longitude": "16.03935000"
    },
    {
      "id": 3783,
      "name": "Weißenkirchen in der Wachau",
      "latitude": "48.39790000",
      "longitude": "15.46931000"
    },
    {
      "id": 3774,
      "name": "Weistrach",
      "latitude": "48.05000000",
      "longitude": "14.58333000"
    },
    {
      "id": 3775,
      "name": "Weiten",
      "latitude": "48.29564000",
      "longitude": "15.26010000"
    },
    {
      "id": 3777,
      "name": "Weitersfeld",
      "latitude": "48.78097000",
      "longitude": "15.81345000"
    },
    {
      "id": 3779,
      "name": "Weitra",
      "latitude": "48.70000000",
      "longitude": "14.88333000"
    },
    {
      "id": 3803,
      "name": "Wiener Neudorf",
      "latitude": "48.08278000",
      "longitude": "16.31384000"
    },
    {
      "id": 3804,
      "name": "Wiener Neustadt",
      "latitude": "47.80485000",
      "longitude": "16.23196000"
    },
    {
      "id": 3805,
      "name": "Wiener Neustadt Stadt",
      "latitude": "47.80000000",
      "longitude": "16.25000000"
    },
    {
      "id": 3806,
      "name": "Wienersdorf",
      "latitude": "48.00819000",
      "longitude": "16.29169000"
    },
    {
      "id": 3808,
      "name": "Wieselburg",
      "latitude": "48.13333000",
      "longitude": "15.13333000"
    },
    {
      "id": 3812,
      "name": "Wiesmath",
      "latitude": "47.61667000",
      "longitude": "16.28333000"
    },
    {
      "id": 3817,
      "name": "Wilfersdorf",
      "latitude": "48.58333000",
      "longitude": "16.63333000"
    },
    {
      "id": 3818,
      "name": "Wilfleinsdorf",
      "latitude": "48.01667000",
      "longitude": "16.71667000"
    },
    {
      "id": 3819,
      "name": "Wilhelmsburg",
      "latitude": "48.10571000",
      "longitude": "15.60539000"
    },
    {
      "id": 3820,
      "name": "Willendorf am Steinfelde",
      "latitude": "47.78929000",
      "longitude": "16.05686000"
    },
    {
      "id": 3824,
      "name": "Wimpassing im Schwarzatale",
      "latitude": "47.70295000",
      "longitude": "16.03334000"
    },
    {
      "id": 3829,
      "name": "Windhag",
      "latitude": "47.97906000",
      "longitude": "14.80245000"
    },
    {
      "id": 3830,
      "name": "Windigsteig",
      "latitude": "48.76667000",
      "longitude": "15.28333000"
    },
    {
      "id": 3832,
      "name": "Winklarn",
      "latitude": "48.09135000",
      "longitude": "14.84819000"
    },
    {
      "id": 3835,
      "name": "Winzendorf",
      "latitude": "47.81154000",
      "longitude": "16.11300000"
    },
    {
      "id": 3840,
      "name": "Wolfpassing",
      "latitude": "48.07785000",
      "longitude": "15.06453000"
    },
    {
      "id": 3841,
      "name": "Wolfsbach",
      "latitude": "48.06667000",
      "longitude": "14.66667000"
    },
    {
      "id": 3845,
      "name": "Wolfsgraben",
      "latitude": "48.15870000",
      "longitude": "16.12098000"
    },
    {
      "id": 3846,
      "name": "Wolfsthal",
      "latitude": "48.13333000",
      "longitude": "17.00000000"
    },
    {
      "id": 3848,
      "name": "Wolkersdorf im Weinviertel",
      "latitude": "48.38333000",
      "longitude": "16.51667000"
    },
    {
      "id": 3855,
      "name": "Wöllersdorf",
      "latitude": "47.86500000",
      "longitude": "16.17119000"
    },
    {
      "id": 3856,
      "name": "Wördern",
      "latitude": "48.33400000",
      "longitude": "16.21016000"
    },
    {
      "id": 3851,
      "name": "Wullersdorf",
      "latitude": "48.62792000",
      "longitude": "16.10089000"
    },
    {
      "id": 3861,
      "name": "Würflach",
      "latitude": "47.77648000",
      "longitude": "16.05463000"
    },
    {
      "id": 3862,
      "name": "Würmla",
      "latitude": "48.25497000",
      "longitude": "15.86031000"
    },
    {
      "id": 3863,
      "name": "Ybbs an der Donau",
      "latitude": "48.16667000",
      "longitude": "15.08333000"
    },
    {
      "id": 3864,
      "name": "Ybbsitz",
      "latitude": "47.94745000",
      "longitude": "14.89180000"
    },
    {
      "id": 3865,
      "name": "Ysper",
      "latitude": "48.28865000",
      "longitude": "15.06131000"
    },
    {
      "id": 3869,
      "name": "Zeillern",
      "latitude": "48.13029000",
      "longitude": "14.80760000"
    },
    {
      "id": 3870,
      "name": "Zeiselmauer",
      "latitude": "48.32852000",
      "longitude": "16.17565000"
    },
    {
      "id": 3877,
      "name": "Zell-Arzberg",
      "latitude": "47.95191000",
      "longitude": "14.79322000"
    },
    {
      "id": 3878,
      "name": "Zell-Markt",
      "latitude": "47.95878000",
      "longitude": "14.78318000"
    },
    {
      "id": 3880,
      "name": "Zellerndorf",
      "latitude": "48.69657000",
      "longitude": "15.95841000"
    },
    {
      "id": 3885,
      "name": "Ziersdorf",
      "latitude": "48.53030000",
      "longitude": "15.92691000"
    },
    {
      "id": 3886,
      "name": "Zillingdorf",
      "latitude": "47.85000000",
      "longitude": "16.33333000"
    },
    {
      "id": 3889,
      "name": "Zistersdorf",
      "latitude": "48.54252000",
      "longitude": "16.76136000"
    },
    {
      "id": 3895,
      "name": "Zöbern",
      "latitude": "47.51459000",
      "longitude": "16.13111000"
    },
    {
      "id": 3891,
      "name": "Zwentendorf",
      "latitude": "48.34530000",
      "longitude": "15.91026000"
    },
    {
      "id": 3892,
      "name": "Zwettl Stadt",
      "latitude": "48.60726000",
      "longitude": "15.16714000"
    },
    {
      "id": 3894,
      "name": "Zwölfaxing",
      "latitude": "48.10990000",
      "longitude": "16.46267000"
    }
  ],
  "country": {
    "id": 15,
    "name": "Austria",
    "iso3": "AUT",
    "iso2": "AT",
    "numeric_code": "040",
    "phone_code": "43",
    "capital": "Vienna",
    "currency": "EUR",
    "currency_name": "Euro",
    "currency_symbol": "€",
    "tld": ".at",
    "native": "Österreich",
    "region": "Europe",
    "subregion": "Western Europe",
    "timezones": [
      {
        "zoneName": "Europe/Vienna",
        "gmtOffset": 3600,
        "gmtOffsetName": "UTC+01:00",
        "abbreviation": "CET",
        "tzName": "Central European Time"
      }
    ],
    "translations": {
      "kr": "오스트리아",
      "pt-BR": "áustria",
      "pt": "áustria",
      "nl": "Oostenrijk",
      "hr": "Austrija",
      "fa": "اتریش",
      "de": "Österreich",
      "es": "Austria",
      "fr": "Autriche",
      "ja": "オーストリア",
      "it": "Austria",
      "cn": "奥地利",
      "tr": "Avusturya"
    },
    "latitude": "47.33333333",
    "longitude": "13.33333333",
    "emoji": "🇦🇹",
    "emojiU": "U+1F1E6 U+1F1F9"
  }
}