{
  "id": 1443,
  "name": "South Carolina",
  "state_code": "SC",
  "latitude": "33.83608100",
  "longitude": "-81.16372450",
  "type": "state",
  "cities": [
    {
      "id": 110967,
      "name": "Abbeville",
      "latitude": "34.17817000",
      "longitude": "-82.37901000"
    },
    {
      "id": 110969,
      "name": "Abbeville County",
      "latitude": "34.22257000",
      "longitude": "-82.45871000"
    },
    {
      "id": 111066,
      "name": "Aiken",
      "latitude": "33.56042000",
      "longitude": "-81.71955000"
    },
    {
      "id": 111067,
      "name": "Aiken County",
      "latitude": "33.54437000",
      "longitude": "-81.63474000"
    },
    {
      "id": 111193,
      "name": "Allendale",
      "latitude": "33.00793000",
      "longitude": "-81.30844000"
    },
    {
      "id": 111197,
      "name": "Allendale County",
      "latitude": "32.98811000",
      "longitude": "-81.35820000"
    },
    {
      "id": 111311,
      "name": "Anderson",
      "latitude": "34.50344000",
      "longitude": "-82.65013000"
    },
    {
      "id": 111317,
      "name": "Anderson County",
      "latitude": "34.51909000",
      "longitude": "-82.63788000"
    },
    {
      "id": 111329,
      "name": "Andrews",
      "latitude": "33.45128000",
      "longitude": "-79.56090000"
    },
    {
      "id": 111422,
      "name": "Arcadia",
      "latitude": "34.95818000",
      "longitude": "-81.99066000"
    },
    {
      "id": 111451,
      "name": "Arial",
      "latitude": "34.84595000",
      "longitude": "-82.64152000"
    },
    {
      "id": 111706,
      "name": "Awendaw",
      "latitude": "33.03767000",
      "longitude": "-79.61313000"
    },
    {
      "id": 111786,
      "name": "Bamberg",
      "latitude": "33.29710000",
      "longitude": "-81.03482000"
    },
    {
      "id": 111787,
      "name": "Bamberg County",
      "latitude": "33.21477000",
      "longitude": "-81.05423000"
    },
    {
      "id": 111838,
      "name": "Barnwell",
      "latitude": "33.24487000",
      "longitude": "-81.35872000"
    },
    {
      "id": 111839,
      "name": "Barnwell County",
      "latitude": "33.26606000",
      "longitude": "-81.43502000"
    },
    {
      "id": 111890,
      "name": "Batesburg",
      "latitude": "33.90792000",
      "longitude": "-81.54733000"
    },
    {
      "id": 111891,
      "name": "Batesburg-Leesville",
      "latitude": "33.91014000",
      "longitude": "-81.53733000"
    },
    {
      "id": 111986,
      "name": "Beaufort",
      "latitude": "32.43158000",
      "longitude": "-80.66983000"
    },
    {
      "id": 111988,
      "name": "Beaufort County",
      "latitude": "32.35706000",
      "longitude": "-80.69217000"
    },
    {
      "id": 112148,
      "name": "Belton",
      "latitude": "34.52289000",
      "longitude": "-82.49429000"
    },
    {
      "id": 112152,
      "name": "Belvedere",
      "latitude": "33.53097000",
      "longitude": "-81.94484000"
    },
    {
      "id": 112175,
      "name": "Bennettsville",
      "latitude": "34.61738000",
      "longitude": "-79.68478000"
    },
    {
      "id": 112214,
      "name": "Berea",
      "latitude": "34.88540000",
      "longitude": "-82.45596000"
    },
    {
      "id": 112224,
      "name": "Berkeley County",
      "latitude": "33.19768000",
      "longitude": "-79.95099000"
    },
    {
      "id": 112365,
      "name": "Bishopville",
      "latitude": "34.21821000",
      "longitude": "-80.24841000"
    },
    {
      "id": 112389,
      "name": "Blacksburg",
      "latitude": "35.12124000",
      "longitude": "-81.51592000"
    },
    {
      "id": 112394,
      "name": "Blackville",
      "latitude": "33.35793000",
      "longitude": "-81.27066000"
    },
    {
      "id": 112483,
      "name": "Bluffton",
      "latitude": "32.23715000",
      "longitude": "-80.86039000"
    },
    {
      "id": 112487,
      "name": "Blythewood",
      "latitude": "34.21432000",
      "longitude": "-80.97398000"
    },
    {
      "id": 112506,
      "name": "Boiling Springs",
      "latitude": "35.04651000",
      "longitude": "-81.98177000"
    },
    {
      "id": 112540,
      "name": "Bonneau Beach",
      "latitude": "33.31989000",
      "longitude": "-80.00036000"
    },
    {
      "id": 112849,
      "name": "Brookdale",
      "latitude": "33.50682000",
      "longitude": "-80.82342000"
    },
    {
      "id": 113009,
      "name": "Buffalo",
      "latitude": "34.72569000",
      "longitude": "-81.68343000"
    },
    {
      "id": 113081,
      "name": "Burnettown",
      "latitude": "33.51541000",
      "longitude": "-81.84900000"
    },
    {
      "id": 113096,
      "name": "Burton",
      "latitude": "32.43575000",
      "longitude": "-80.72400000"
    },
    {
      "id": 113206,
      "name": "Calhoun County",
      "latitude": "33.67486000",
      "longitude": "-80.78028000"
    },
    {
      "id": 113211,
      "name": "Calhoun Falls",
      "latitude": "34.09234000",
      "longitude": "-82.59569000"
    },
    {
      "id": 113264,
      "name": "Camden",
      "latitude": "34.24654000",
      "longitude": "-80.60702000"
    },
    {
      "id": 113327,
      "name": "Cane Savannah",
      "latitude": "33.90182000",
      "longitude": "-80.45036000"
    },
    {
      "id": 113566,
      "name": "Catawba",
      "latitude": "34.85292000",
      "longitude": "-80.91119000"
    },
    {
      "id": 113591,
      "name": "Cayce",
      "latitude": "33.96571000",
      "longitude": "-81.07398000"
    },
    {
      "id": 113656,
      "name": "Centerville",
      "latitude": "34.53205000",
      "longitude": "-82.70402000"
    },
    {
      "id": 113665,
      "name": "Central",
      "latitude": "34.72427000",
      "longitude": "-82.78125000"
    },
    {
      "id": 113743,
      "name": "Chapin",
      "latitude": "34.16598000",
      "longitude": "-81.34982000"
    },
    {
      "id": 113765,
      "name": "Charleston",
      "latitude": "32.77657000",
      "longitude": "-79.93092000"
    },
    {
      "id": 113769,
      "name": "Charleston County",
      "latitude": "32.74917000",
      "longitude": "-79.94202000"
    },
    {
      "id": 113844,
      "name": "Cheraw",
      "latitude": "34.69766000",
      "longitude": "-79.88340000"
    },
    {
      "id": 113854,
      "name": "Cherokee County",
      "latitude": "35.04820000",
      "longitude": "-81.62039000"
    },
    {
      "id": 113869,
      "name": "Cherryvale",
      "latitude": "33.95571000",
      "longitude": "-80.45814000"
    },
    {
      "id": 113885,
      "name": "Chester",
      "latitude": "34.70486000",
      "longitude": "-81.21426000"
    },
    {
      "id": 113895,
      "name": "Chester County",
      "latitude": "34.69206000",
      "longitude": "-81.15953000"
    },
    {
      "id": 113902,
      "name": "Chesterfield",
      "latitude": "34.73599000",
      "longitude": "-80.08812000"
    },
    {
      "id": 113906,
      "name": "Chesterfield County",
      "latitude": "34.63978000",
      "longitude": "-80.15872000"
    },
    {
      "id": 114044,
      "name": "City View",
      "latitude": "34.86151000",
      "longitude": "-82.43151000"
    },
    {
      "id": 114113,
      "name": "Clarendon County",
      "latitude": "33.66581000",
      "longitude": "-80.21640000"
    },
    {
      "id": 114224,
      "name": "Clearwater",
      "latitude": "33.49680000",
      "longitude": "-81.89206000"
    },
    {
      "id": 114234,
      "name": "Clemson",
      "latitude": "34.68344000",
      "longitude": "-82.83737000"
    },
    {
      "id": 114277,
      "name": "Clinton",
      "latitude": "34.47263000",
      "longitude": "-81.88066000"
    },
    {
      "id": 114307,
      "name": "Clover",
      "latitude": "35.11125000",
      "longitude": "-81.22646000"
    },
    {
      "id": 114421,
      "name": "Colleton County",
      "latitude": "32.84343000",
      "longitude": "-80.64968000"
    },
    {
      "id": 114471,
      "name": "Columbia",
      "latitude": "34.00071000",
      "longitude": "-81.03481000"
    },
    {
      "id": 114583,
      "name": "Conway",
      "latitude": "33.83600000",
      "longitude": "-79.04781000"
    },
    {
      "id": 114750,
      "name": "Cowpens",
      "latitude": "35.01679000",
      "longitude": "-81.80399000"
    },
    {
      "id": 115007,
      "name": "Dalzell",
      "latitude": "34.01682000",
      "longitude": "-80.43008000"
    },
    {
      "id": 115049,
      "name": "Darlington",
      "latitude": "34.29988000",
      "longitude": "-79.87617000"
    },
    {
      "id": 115051,
      "name": "Darlington County",
      "latitude": "34.33235000",
      "longitude": "-79.95769000"
    },
    {
      "id": 115239,
      "name": "Denmark",
      "latitude": "33.32265000",
      "longitude": "-81.14232000"
    },
    {
      "id": 115249,
      "name": "Dentsville",
      "latitude": "34.06404000",
      "longitude": "-80.95815000"
    },
    {
      "id": 115342,
      "name": "Dillon",
      "latitude": "34.41655000",
      "longitude": "-79.37116000"
    },
    {
      "id": 115344,
      "name": "Dillon County",
      "latitude": "34.39152000",
      "longitude": "-79.37893000"
    },
    {
      "id": 115411,
      "name": "Dorchester County",
      "latitude": "33.07949000",
      "longitude": "-80.40556000"
    },
    {
      "id": 115506,
      "name": "Due West",
      "latitude": "34.33345000",
      "longitude": "-82.38790000"
    },
    {
      "id": 115522,
      "name": "Duncan",
      "latitude": "34.93790000",
      "longitude": "-82.14511000"
    },
    {
      "id": 115533,
      "name": "Dunean",
      "latitude": "34.82484000",
      "longitude": "-82.41929000"
    },
    {
      "id": 115625,
      "name": "Easley",
      "latitude": "34.82984000",
      "longitude": "-82.60152000"
    },
    {
      "id": 115666,
      "name": "East Gaffney",
      "latitude": "35.08013000",
      "longitude": "-81.63287000"
    },
    {
      "id": 115762,
      "name": "East Sumter",
      "latitude": "33.92544000",
      "longitude": "-80.29619000"
    },
    {
      "id": 115842,
      "name": "Edgefield",
      "latitude": "33.78958000",
      "longitude": "-81.92956000"
    },
    {
      "id": 115843,
      "name": "Edgefield County",
      "latitude": "33.77229000",
      "longitude": "-81.96658000"
    },
    {
      "id": 115876,
      "name": "Edisto",
      "latitude": "33.47654000",
      "longitude": "-80.89870000"
    },
    {
      "id": 115963,
      "name": "Elgin",
      "latitude": "34.67293000",
      "longitude": "-80.71896000"
    },
    {
      "id": 116211,
      "name": "Estill",
      "latitude": "32.75489000",
      "longitude": "-81.24205000"
    },
    {
      "id": 116239,
      "name": "Eureka Mill",
      "latitude": "34.71764000",
      "longitude": "-81.19370000"
    },
    {
      "id": 116301,
      "name": "Fairfax",
      "latitude": "32.95905000",
      "longitude": "-81.23650000"
    },
    {
      "id": 116319,
      "name": "Fairfield County",
      "latitude": "34.39511000",
      "longitude": "-81.12123000"
    },
    {
      "id": 116324,
      "name": "Fairforest",
      "latitude": "34.95651000",
      "longitude": "-82.01011000"
    },
    {
      "id": 116539,
      "name": "Five Forks",
      "latitude": "34.80484000",
      "longitude": "-82.22956000"
    },
    {
      "id": 116580,
      "name": "Florence",
      "latitude": "34.19543000",
      "longitude": "-79.76256000"
    },
    {
      "id": 116587,
      "name": "Florence County",
      "latitude": "34.02439000",
      "longitude": "-79.70282000"
    },
    {
      "id": 116623,
      "name": "Folly Beach",
      "latitude": "32.65518000",
      "longitude": "-79.94037000"
    },
    {
      "id": 116645,
      "name": "Forest Acres",
      "latitude": "34.01932000",
      "longitude": "-80.98981000"
    },
    {
      "id": 116668,
      "name": "Forestbrook",
      "latitude": "33.72239000",
      "longitude": "-78.95809000"
    },
    {
      "id": 116730,
      "name": "Fort Mill",
      "latitude": "35.00737000",
      "longitude": "-80.94508000"
    },
    {
      "id": 116783,
      "name": "Fountain Inn",
      "latitude": "34.68901000",
      "longitude": "-82.19567000"
    },
    {
      "id": 117005,
      "name": "Gadsden",
      "latitude": "33.84571000",
      "longitude": "-80.76592000"
    },
    {
      "id": 117007,
      "name": "Gaffney",
      "latitude": "35.07179000",
      "longitude": "-81.64982000"
    },
    {
      "id": 117051,
      "name": "Gantt",
      "latitude": "34.80012000",
      "longitude": "-82.42429000"
    },
    {
      "id": 117056,
      "name": "Garden City",
      "latitude": "33.59295000",
      "longitude": "-79.00865000"
    },
    {
      "id": 117114,
      "name": "Gaston",
      "latitude": "33.81710000",
      "longitude": "-81.10093000"
    },
    {
      "id": 117159,
      "name": "Georgetown",
      "latitude": "33.37683000",
      "longitude": "-79.29450000"
    },
    {
      "id": 117166,
      "name": "Georgetown County",
      "latitude": "33.41275000",
      "longitude": "-79.29934000"
    },
    {
      "id": 117329,
      "name": "Gloverville",
      "latitude": "33.52597000",
      "longitude": "-81.83011000"
    },
    {
      "id": 117350,
      "name": "Golden Grove",
      "latitude": "34.73401000",
      "longitude": "-82.44374000"
    },
    {
      "id": 117394,
      "name": "Goose Creek",
      "latitude": "32.98101000",
      "longitude": "-80.03259000"
    },
    {
      "id": 117502,
      "name": "Graniteville",
      "latitude": "33.56375000",
      "longitude": "-81.80789000"
    },
    {
      "id": 117571,
      "name": "Great Falls",
      "latitude": "34.57514000",
      "longitude": "-80.90202000"
    },
    {
      "id": 117688,
      "name": "Greenville",
      "latitude": "34.85262000",
      "longitude": "-82.39401000"
    },
    {
      "id": 117697,
      "name": "Greenville County",
      "latitude": "34.89431000",
      "longitude": "-82.37072000"
    },
    {
      "id": 117706,
      "name": "Greenwood",
      "latitude": "34.19540000",
      "longitude": "-82.16179000"
    },
    {
      "id": 117710,
      "name": "Greenwood County",
      "latitude": "34.15383000",
      "longitude": "-82.12593000"
    },
    {
      "id": 117713,
      "name": "Greer",
      "latitude": "34.93873000",
      "longitude": "-82.22706000"
    },
    {
      "id": 117929,
      "name": "Hampton",
      "latitude": "32.87794000",
      "longitude": "-81.12761000"
    },
    {
      "id": 117937,
      "name": "Hampton County",
      "latitude": "32.77628000",
      "longitude": "-81.14070000"
    },
    {
      "id": 117942,
      "name": "Hanahan",
      "latitude": "32.91851000",
      "longitude": "-80.02203000"
    },
    {
      "id": 117994,
      "name": "Hardeeville",
      "latitude": "32.28714000",
      "longitude": "-81.08067000"
    },
    {
      "id": 118104,
      "name": "Hartsville",
      "latitude": "34.37404000",
      "longitude": "-80.07340000"
    },
    {
      "id": 118474,
      "name": "Hilton Head",
      "latitude": "32.21632000",
      "longitude": "-80.75261000"
    },
    {
      "id": 118475,
      "name": "Hilton Head Island",
      "latitude": "32.19382000",
      "longitude": "-80.73816000"
    },
    {
      "id": 118557,
      "name": "Holly Hill",
      "latitude": "33.32266000",
      "longitude": "-80.41370000"
    },
    {
      "id": 118566,
      "name": "Hollywood",
      "latitude": "32.73434000",
      "longitude": "-80.24177000"
    },
    {
      "id": 118591,
      "name": "Homeland Park",
      "latitude": "34.47066000",
      "longitude": "-82.67069000"
    },
    {
      "id": 118616,
      "name": "Honea Path",
      "latitude": "34.44650000",
      "longitude": "-82.39151000"
    },
    {
      "id": 118651,
      "name": "Hopkins",
      "latitude": "33.90432000",
      "longitude": "-80.87703000"
    },
    {
      "id": 118669,
      "name": "Horry County",
      "latitude": "33.90448000",
      "longitude": "-78.97615000"
    },
    {
      "id": 118900,
      "name": "India Hook",
      "latitude": "35.00737000",
      "longitude": "-81.02174000"
    },
    {
      "id": 118945,
      "name": "Inman",
      "latitude": "35.04706000",
      "longitude": "-82.09011000"
    },
    {
      "id": 118946,
      "name": "Inman Mills",
      "latitude": "35.04151000",
      "longitude": "-82.10428000"
    },
    {
      "id": 118987,
      "name": "Irmo",
      "latitude": "34.08598000",
      "longitude": "-81.18315000"
    },
    {
      "id": 119011,
      "name": "Irwin",
      "latitude": "34.69376000",
      "longitude": "-80.82229000"
    },
    {
      "id": 119032,
      "name": "Isle of Palms",
      "latitude": "32.78684000",
      "longitude": "-79.79480000"
    },
    {
      "id": 119047,
      "name": "Iva",
      "latitude": "34.30650000",
      "longitude": "-82.66374000"
    },
    {
      "id": 119069,
      "name": "Jackson",
      "latitude": "33.32542000",
      "longitude": "-81.78789000"
    },
    {
      "id": 119117,
      "name": "James Island",
      "latitude": "32.72374000",
      "longitude": "-79.96284000"
    },
    {
      "id": 119149,
      "name": "Jasper County",
      "latitude": "32.42195000",
      "longitude": "-81.02327000"
    },
    {
      "id": 119250,
      "name": "Joanna",
      "latitude": "34.41491000",
      "longitude": "-81.81240000"
    },
    {
      "id": 119276,
      "name": "Johnsonville",
      "latitude": "33.81794000",
      "longitude": "-79.44922000"
    },
    {
      "id": 119277,
      "name": "Johnston",
      "latitude": "33.83208000",
      "longitude": "-81.80094000"
    },
    {
      "id": 119327,
      "name": "Judson",
      "latitude": "34.83317000",
      "longitude": "-82.42762000"
    },
    {
      "id": 119520,
      "name": "Kershaw",
      "latitude": "34.55182000",
      "longitude": "-80.58368000"
    },
    {
      "id": 119521,
      "name": "Kershaw County",
      "latitude": "34.33876000",
      "longitude": "-80.59026000"
    },
    {
      "id": 119551,
      "name": "Kiawah Island",
      "latitude": "32.60824000",
      "longitude": "-80.08482000"
    },
    {
      "id": 119634,
      "name": "Kingstree",
      "latitude": "33.66766000",
      "longitude": "-79.83063000"
    },
    {
      "id": 119827,
      "name": "Ladson",
      "latitude": "32.98573000",
      "longitude": "-80.10981000"
    },
    {
      "id": 119881,
      "name": "Lake City",
      "latitude": "33.87100000",
      "longitude": "-79.75535000"
    },
    {
      "id": 119949,
      "name": "Lake Murray of Richland",
      "latitude": "34.12048000",
      "longitude": "-81.26450000"
    },
    {
      "id": 119975,
      "name": "Lake Secession",
      "latitude": "34.28455000",
      "longitude": "-82.59457000"
    },
    {
      "id": 120000,
      "name": "Lake Wylie",
      "latitude": "35.10848000",
      "longitude": "-81.04285000"
    },
    {
      "id": 120045,
      "name": "Lakewood",
      "latitude": "33.84683000",
      "longitude": "-80.35008000"
    },
    {
      "id": 120081,
      "name": "Lancaster",
      "latitude": "34.72043000",
      "longitude": "-80.77090000"
    },
    {
      "id": 120090,
      "name": "Lancaster County",
      "latitude": "34.68670000",
      "longitude": "-80.70543000"
    },
    {
      "id": 120094,
      "name": "Lancaster Mill",
      "latitude": "34.70931000",
      "longitude": "-80.79479000"
    },
    {
      "id": 120104,
      "name": "Landrum",
      "latitude": "35.17511000",
      "longitude": "-82.18928000"
    },
    {
      "id": 120113,
      "name": "Langley",
      "latitude": "33.51791000",
      "longitude": "-81.84400000"
    },
    {
      "id": 120176,
      "name": "Latta",
      "latitude": "34.33710000",
      "longitude": "-79.43116000"
    },
    {
      "id": 120194,
      "name": "Laurel Bay",
      "latitude": "32.45019000",
      "longitude": "-80.78483000"
    },
    {
      "id": 120206,
      "name": "Laurens",
      "latitude": "34.49901000",
      "longitude": "-82.01426000"
    },
    {
      "id": 120209,
      "name": "Laurens County",
      "latitude": "34.48357000",
      "longitude": "-82.00593000"
    },
    {
      "id": 120313,
      "name": "Lee County",
      "latitude": "34.16329000",
      "longitude": "-80.25452000"
    },
    {
      "id": 120329,
      "name": "Leesville",
      "latitude": "33.91653000",
      "longitude": "-81.51344000"
    },
    {
      "id": 120398,
      "name": "Lesslie",
      "latitude": "34.89070000",
      "longitude": "-80.95647000"
    },
    {
      "id": 120443,
      "name": "Lexington",
      "latitude": "33.98154000",
      "longitude": "-81.23621000"
    },
    {
      "id": 120453,
      "name": "Lexington County",
      "latitude": "33.90233000",
      "longitude": "-81.27219000"
    },
    {
      "id": 120464,
      "name": "Liberty",
      "latitude": "34.78789000",
      "longitude": "-82.69236000"
    },
    {
      "id": 120553,
      "name": "Lincolnville",
      "latitude": "33.00684000",
      "longitude": "-80.15537000"
    },
    {
      "id": 120623,
      "name": "Little River",
      "latitude": "33.87323000",
      "longitude": "-78.61418000"
    },
    {
      "id": 120776,
      "name": "Loris",
      "latitude": "34.05628000",
      "longitude": "-78.89030000"
    },
    {
      "id": 120873,
      "name": "Lugoff",
      "latitude": "34.22737000",
      "longitude": "-80.68925000"
    },
    {
      "id": 120909,
      "name": "Lyman",
      "latitude": "34.94817000",
      "longitude": "-82.12733000"
    },
    {
      "id": 121134,
      "name": "Manning",
      "latitude": "33.69516000",
      "longitude": "-80.21091000"
    },
    {
      "id": 121238,
      "name": "Marion",
      "latitude": "34.17822000",
      "longitude": "-79.40061000"
    },
    {
      "id": 121257,
      "name": "Marion County",
      "latitude": "34.08006000",
      "longitude": "-79.36251000"
    },
    {
      "id": 121276,
      "name": "Marlboro County",
      "latitude": "34.60199000",
      "longitude": "-79.67863000"
    },
    {
      "id": 121420,
      "name": "Mauldin",
      "latitude": "34.77873000",
      "longitude": "-82.31012000"
    },
    {
      "id": 121444,
      "name": "Mayo",
      "latitude": "35.08401000",
      "longitude": "-81.85983000"
    },
    {
      "id": 121473,
      "name": "McColl",
      "latitude": "34.66877000",
      "longitude": "-79.54533000"
    },
    {
      "id": 121483,
      "name": "McCormick",
      "latitude": "33.91346000",
      "longitude": "-82.29346000"
    },
    {
      "id": 121484,
      "name": "McCormick County",
      "latitude": "33.89955000",
      "longitude": "-82.30988000"
    },
    {
      "id": 121615,
      "name": "Meggett",
      "latitude": "32.71796000",
      "longitude": "-80.23899000"
    },
    {
      "id": 122034,
      "name": "Monarch Mill",
      "latitude": "34.71610000",
      "longitude": "-81.58500000"
    },
    {
      "id": 122035,
      "name": "Moncks Corner",
      "latitude": "33.19632000",
      "longitude": "-80.01429000"
    },
    {
      "id": 122376,
      "name": "Mount Pleasant",
      "latitude": "32.79407000",
      "longitude": "-79.86259000"
    },
    {
      "id": 122462,
      "name": "Mullins",
      "latitude": "34.20572000",
      "longitude": "-79.25449000"
    },
    {
      "id": 122489,
      "name": "Murphys Estates",
      "latitude": "33.60125000",
      "longitude": "-81.94428000"
    },
    {
      "id": 122497,
      "name": "Murrells Inlet",
      "latitude": "33.55100000",
      "longitude": "-79.04143000"
    },
    {
      "id": 122520,
      "name": "Myrtle Beach",
      "latitude": "33.68906000",
      "longitude": "-78.88669000"
    },
    {
      "id": 122704,
      "name": "New Ellenton",
      "latitude": "33.42153000",
      "longitude": "-81.68567000"
    },
    {
      "id": 122811,
      "name": "Newberry",
      "latitude": "34.27458000",
      "longitude": "-81.61872000"
    },
    {
      "id": 122813,
      "name": "Newberry County",
      "latitude": "34.28981000",
      "longitude": "-81.60012000"
    },
    {
      "id": 122844,
      "name": "Newport",
      "latitude": "34.98986000",
      "longitude": "-81.10091000"
    },
    {
      "id": 122902,
      "name": "Ninety Six",
      "latitude": "34.17513000",
      "longitude": "-82.02401000"
    },
    {
      "id": 122969,
      "name": "North Augusta",
      "latitude": "33.50180000",
      "longitude": "-81.96512000"
    },
    {
      "id": 123005,
      "name": "North Charleston",
      "latitude": "32.85462000",
      "longitude": "-79.97481000"
    },
    {
      "id": 123036,
      "name": "North Hartsville",
      "latitude": "34.39377000",
      "longitude": "-80.06951000"
    },
    {
      "id": 123070,
      "name": "North Myrtle Beach",
      "latitude": "33.81601000",
      "longitude": "-78.68002000"
    },
    {
      "id": 123156,
      "name": "Northlake",
      "latitude": "34.56622000",
      "longitude": "-82.68402000"
    },
    {
      "id": 123241,
      "name": "Oak Grove",
      "latitude": "33.98090000",
      "longitude": "-81.14286000"
    },
    {
      "id": 123286,
      "name": "Oakland",
      "latitude": "33.98293000",
      "longitude": "-80.48842000"
    },
    {
      "id": 123349,
      "name": "Oconee County",
      "latitude": "34.75351000",
      "longitude": "-83.06588000"
    },
    {
      "id": 123526,
      "name": "Orangeburg",
      "latitude": "33.49182000",
      "longitude": "-80.85565000"
    },
    {
      "id": 123528,
      "name": "Orangeburg County",
      "latitude": "33.43899000",
      "longitude": "-80.80030000"
    },
    {
      "id": 123712,
      "name": "Pacolet",
      "latitude": "34.89902000",
      "longitude": "-81.76177000"
    },
    {
      "id": 123721,
      "name": "Pageland",
      "latitude": "34.77321000",
      "longitude": "-80.39173000"
    },
    {
      "id": 123795,
      "name": "Pamplico",
      "latitude": "33.99600000",
      "longitude": "-79.57006000"
    },
    {
      "id": 123859,
      "name": "Parker",
      "latitude": "34.85067000",
      "longitude": "-82.45346000"
    },
    {
      "id": 124017,
      "name": "Pendleton",
      "latitude": "34.65177000",
      "longitude": "-82.78375000"
    },
    {
      "id": 124155,
      "name": "Pickens",
      "latitude": "34.88345000",
      "longitude": "-82.70736000"
    },
    {
      "id": 124158,
      "name": "Pickens County",
      "latitude": "34.88752000",
      "longitude": "-82.72532000"
    },
    {
      "id": 124166,
      "name": "Piedmont",
      "latitude": "34.70234000",
      "longitude": "-82.46457000"
    },
    {
      "id": 124256,
      "name": "Pineridge",
      "latitude": "33.91043000",
      "longitude": "-81.10454000"
    },
    {
      "id": 124531,
      "name": "Port Royal",
      "latitude": "32.37908000",
      "longitude": "-80.69261000"
    },
    {
      "id": 124610,
      "name": "Powdersville",
      "latitude": "34.79178000",
      "longitude": "-82.49291000"
    },
    {
      "id": 124699,
      "name": "Privateer",
      "latitude": "33.83321000",
      "longitude": "-80.41425000"
    },
    {
      "id": 124712,
      "name": "Prosperity",
      "latitude": "34.20931000",
      "longitude": "-81.53316000"
    },
    {
      "id": 124906,
      "name": "Ravenel",
      "latitude": "32.76323000",
      "longitude": "-80.25010000"
    },
    {
      "id": 124936,
      "name": "Red Bank",
      "latitude": "33.93209000",
      "longitude": "-81.23843000"
    },
    {
      "id": 124946,
      "name": "Red Hill",
      "latitude": "33.82073000",
      "longitude": "-79.01892000"
    },
    {
      "id": 125075,
      "name": "Richland County",
      "latitude": "34.02180000",
      "longitude": "-80.90304000"
    },
    {
      "id": 125124,
      "name": "Ridgeland",
      "latitude": "32.48074000",
      "longitude": "-80.98039000"
    },
    {
      "id": 125129,
      "name": "Ridgeville",
      "latitude": "33.09572000",
      "longitude": "-80.31537000"
    },
    {
      "id": 125280,
      "name": "Rock Hill",
      "latitude": "34.92487000",
      "longitude": "-81.02508000"
    },
    {
      "id": 125344,
      "name": "Roebuck",
      "latitude": "34.87957000",
      "longitude": "-81.96621000"
    },
    {
      "id": 125597,
      "name": "Saint Andrews",
      "latitude": "34.04543000",
      "longitude": "-81.12926000"
    },
    {
      "id": 125642,
      "name": "Saint George",
      "latitude": "33.18600000",
      "longitude": "-80.57565000"
    },
    {
      "id": 125696,
      "name": "Saint Matthews",
      "latitude": "33.66488000",
      "longitude": "-80.77787000"
    },
    {
      "id": 125716,
      "name": "Saint Stephen",
      "latitude": "33.40433000",
      "longitude": "-79.92174000"
    },
    {
      "id": 125772,
      "name": "Saluda",
      "latitude": "34.00152000",
      "longitude": "-81.77205000"
    },
    {
      "id": 125774,
      "name": "Saluda County",
      "latitude": "34.00614000",
      "longitude": "-81.72692000"
    },
    {
      "id": 125890,
      "name": "Sangaree",
      "latitude": "33.03545000",
      "longitude": "-80.12787000"
    },
    {
      "id": 125897,
      "name": "Sans Souci",
      "latitude": "34.87790000",
      "longitude": "-82.42401000"
    },
    {
      "id": 125984,
      "name": "Saxon",
      "latitude": "34.96123000",
      "longitude": "-81.96733000"
    },
    {
      "id": 126082,
      "name": "Seabrook Island",
      "latitude": "32.57713000",
      "longitude": "-80.17065000"
    },
    {
      "id": 126156,
      "name": "Seneca",
      "latitude": "34.68566000",
      "longitude": "-82.95320000"
    },
    {
      "id": 126174,
      "name": "Seven Oaks",
      "latitude": "34.04876000",
      "longitude": "-81.14648000"
    },
    {
      "id": 126291,
      "name": "Shell Point",
      "latitude": "32.38353000",
      "longitude": "-80.73594000"
    },
    {
      "id": 126452,
      "name": "Simpsonville",
      "latitude": "34.73706000",
      "longitude": "-82.25428000"
    },
    {
      "id": 126491,
      "name": "Slater-Marietta",
      "latitude": "35.03472000",
      "longitude": "-82.49265000"
    },
    {
      "id": 126554,
      "name": "Socastee",
      "latitude": "33.68350000",
      "longitude": "-78.99837000"
    },
    {
      "id": 126641,
      "name": "South Congaree",
      "latitude": "33.91099000",
      "longitude": "-81.13565000"
    },
    {
      "id": 126732,
      "name": "South Sumter",
      "latitude": "33.90571000",
      "longitude": "-80.34619000"
    },
    {
      "id": 126769,
      "name": "Southern Shops",
      "latitude": "34.98595000",
      "longitude": "-81.99455000"
    },
    {
      "id": 126814,
      "name": "Spartanburg",
      "latitude": "34.94957000",
      "longitude": "-81.93205000"
    },
    {
      "id": 126815,
      "name": "Spartanburg County",
      "latitude": "34.93126000",
      "longitude": "-81.99068000"
    },
    {
      "id": 126886,
      "name": "Springdale",
      "latitude": "33.95932000",
      "longitude": "-81.10898000"
    },
    {
      "id": 126994,
      "name": "Stateburg",
      "latitude": "33.95765000",
      "longitude": "-80.53481000"
    },
    {
      "id": 127192,
      "name": "Sullivans Island",
      "latitude": "32.76323000",
      "longitude": "-79.83675000"
    },
    {
      "id": 127210,
      "name": "Summerville",
      "latitude": "33.01850000",
      "longitude": "-80.17565000"
    },
    {
      "id": 127227,
      "name": "Sumter",
      "latitude": "33.92044000",
      "longitude": "-80.34147000"
    },
    {
      "id": 127231,
      "name": "Sumter County",
      "latitude": "33.91617000",
      "longitude": "-80.38232000"
    },
    {
      "id": 127288,
      "name": "Surfside Beach",
      "latitude": "33.60600000",
      "longitude": "-78.97309000"
    },
    {
      "id": 127461,
      "name": "Taylors",
      "latitude": "34.92039000",
      "longitude": "-82.29623000"
    },
    {
      "id": 127482,
      "name": "Tega Cay",
      "latitude": "35.02431000",
      "longitude": "-81.02785000"
    },
    {
      "id": 127645,
      "name": "Tigerville",
      "latitude": "35.06845000",
      "longitude": "-82.36845000"
    },
    {
      "id": 127662,
      "name": "Timmonsville",
      "latitude": "34.13488000",
      "longitude": "-79.93979000"
    },
    {
      "id": 127783,
      "name": "Travelers Rest",
      "latitude": "34.96762000",
      "longitude": "-82.44345000"
    },
    {
      "id": 127974,
      "name": "Union",
      "latitude": "34.71541000",
      "longitude": "-81.62371000"
    },
    {
      "id": 127996,
      "name": "Union County",
      "latitude": "34.68928000",
      "longitude": "-81.61942000"
    },
    {
      "id": 128065,
      "name": "Utica",
      "latitude": "34.67816000",
      "longitude": "-82.93154000"
    },
    {
      "id": 128107,
      "name": "Valley Falls",
      "latitude": "35.01595000",
      "longitude": "-81.97483000"
    },
    {
      "id": 128156,
      "name": "Varnville",
      "latitude": "32.85044000",
      "longitude": "-81.07927000"
    },
    {
      "id": 128320,
      "name": "Wade Hampton",
      "latitude": "34.90373000",
      "longitude": "-82.33317000"
    },
    {
      "id": 128382,
      "name": "Walhalla",
      "latitude": "34.76482000",
      "longitude": "-83.06404000"
    },
    {
      "id": 128428,
      "name": "Walterboro",
      "latitude": "32.90517000",
      "longitude": "-80.66677000"
    },
    {
      "id": 128464,
      "name": "Ware Shoals",
      "latitude": "34.39845000",
      "longitude": "-82.24679000"
    },
    {
      "id": 128509,
      "name": "Warrenville",
      "latitude": "33.55097000",
      "longitude": "-81.80400000"
    },
    {
      "id": 128643,
      "name": "Watts Mills",
      "latitude": "34.51641000",
      "longitude": "-81.98580000"
    },
    {
      "id": 128748,
      "name": "Wedgefield",
      "latitude": "33.89266000",
      "longitude": "-80.51814000"
    },
    {
      "id": 128749,
      "name": "Wedgewood",
      "latitude": "33.88377000",
      "longitude": "-80.51258000"
    },
    {
      "id": 128767,
      "name": "Welcome",
      "latitude": "34.82651000",
      "longitude": "-82.43901000"
    },
    {
      "id": 128775,
      "name": "Wellford",
      "latitude": "34.95095000",
      "longitude": "-82.10594000"
    },
    {
      "id": 128848,
      "name": "West Columbia",
      "latitude": "33.99349000",
      "longitude": "-81.07398000"
    },
    {
      "id": 129045,
      "name": "Westminster",
      "latitude": "34.66482000",
      "longitude": "-83.09654000"
    },
    {
      "id": 129205,
      "name": "Whitmire",
      "latitude": "34.50291000",
      "longitude": "-81.61149000"
    },
    {
      "id": 129252,
      "name": "Wilkinson Heights",
      "latitude": "33.50210000",
      "longitude": "-80.83315000"
    },
    {
      "id": 129272,
      "name": "Williamsburg County",
      "latitude": "33.61993000",
      "longitude": "-79.72771000"
    },
    {
      "id": 129283,
      "name": "Williamston",
      "latitude": "34.61845000",
      "longitude": "-82.47791000"
    },
    {
      "id": 129297,
      "name": "Williston",
      "latitude": "33.40265000",
      "longitude": "-81.42011000"
    },
    {
      "id": 129419,
      "name": "Winnsboro",
      "latitude": "34.38070000",
      "longitude": "-81.08648000"
    },
    {
      "id": 129421,
      "name": "Winnsboro Mills",
      "latitude": "34.36181000",
      "longitude": "-81.08537000"
    },
    {
      "id": 129517,
      "name": "Woodfield",
      "latitude": "34.05932000",
      "longitude": "-80.93092000"
    },
    {
      "id": 129547,
      "name": "Woodruff",
      "latitude": "34.73957000",
      "longitude": "-82.03705000"
    },
    {
      "id": 129691,
      "name": "York",
      "latitude": "34.99430000",
      "longitude": "-81.24202000"
    },
    {
      "id": 129695,
      "name": "York County",
      "latitude": "34.97475000",
      "longitude": "-81.18442000"
    }
  ],
  "country": {
    "id": 233,
    "name": "United States",
    "iso3": "USA",
    "iso2": "US",
    "numeric_code": "840",
    "phone_code": "1",
    "capital": "Washington",
    "currency": "USD",
    "currency_name": "United States dollar",
    "currency_symbol": "$",
    "tld": ".us",
    "native": "United States",
    "region": "Americas",
    "subregion": "Northern America",
    "timezones": [
      {
        "zoneName": "America/Adak",
        "gmtOffset": -36000,
        "gmtOffsetName": "UTC-10:00",
        "abbreviation": "HST",
        "tzName": "Hawaii‚ÄìAleutian Standard Time"
      },
      {
        "zoneName": "America/Anchorage",
        "gmtOffset": -32400,
        "gmtOffsetName": "UTC-09:00",
        "abbreviation": "AKST",
        "tzName": "Alaska Standard Time"
      },
      {
        "zoneName": "America/Boise",
        "gmtOffset": -25200,
        "gmtOffsetName": "UTC-07:00",
        "abbreviation": "MST",
        "tzName": "Mountain Standard Time (North America"
      },
      {
        "zoneName": "America/Chicago",
        "gmtOffset": -21600,
        "gmtOffsetName": "UTC-06:00",
        "abbreviation": "CST",
        "tzName": "Central Standard Time (North America"
      },
      {
        "zoneName": "America/Denver",
        "gmtOffset": -25200,
        "gmtOffsetName": "UTC-07:00",
        "abbreviation": "MST",
        "tzName": "Mountain Standard Time (North America"
      },
      {
        "zoneName": "America/Detroit",
        "gmtOffset": -18000,
        "gmtOffsetName": "UTC-05:00",
        "abbreviation": "EST",
        "tzName": "Eastern Standard Time (North America"
      },
      {
        "zoneName": "America/Indiana/Indianapolis",
        "gmtOffset": -18000,
        "gmtOffsetName": "UTC-05:00",
        "abbreviation": "EST",
        "tzName": "Eastern Standard Time (North America"
      },
      {
        "zoneName": "America/Indiana/Knox",
        "gmtOffset": -21600,
        "gmtOffsetName": "UTC-06:00",
        "abbreviation": "CST",
        "tzName": "Central Standard Time (North America"
      },
      {
        "zoneName": "America/Indiana/Marengo",
        "gmtOffset": -18000,
        "gmtOffsetName": "UTC-05:00",
        "abbreviation": "EST",
        "tzName": "Eastern Standard Time (North America"
      },
      {
        "zoneName": "America/Indiana/Petersburg",
        "gmtOffset": -18000,
        "gmtOffsetName": "UTC-05:00",
        "abbreviation": "EST",
        "tzName": "Eastern Standard Time (North America"
      },
      {
        "zoneName": "America/Indiana/Tell_City",
        "gmtOffset": -21600,
        "gmtOffsetName": "UTC-06:00",
        "abbreviation": "CST",
        "tzName": "Central Standard Time (North America"
      },
      {
        "zoneName": "America/Indiana/Vevay",
        "gmtOffset": -18000,
        "gmtOffsetName": "UTC-05:00",
        "abbreviation": "EST",
        "tzName": "Eastern Standard Time (North America"
      },
      {
        "zoneName": "America/Indiana/Vincennes",
        "gmtOffset": -18000,
        "gmtOffsetName": "UTC-05:00",
        "abbreviation": "EST",
        "tzName": "Eastern Standard Time (North America"
      },
      {
        "zoneName": "America/Indiana/Winamac",
        "gmtOffset": -18000,
        "gmtOffsetName": "UTC-05:00",
        "abbreviation": "EST",
        "tzName": "Eastern Standard Time (North America"
      },
      {
        "zoneName": "America/Juneau",
        "gmtOffset": -32400,
        "gmtOffsetName": "UTC-09:00",
        "abbreviation": "AKST",
        "tzName": "Alaska Standard Time"
      },
      {
        "zoneName": "America/Kentucky/Louisville",
        "gmtOffset": -18000,
        "gmtOffsetName": "UTC-05:00",
        "abbreviation": "EST",
        "tzName": "Eastern Standard Time (North America"
      },
      {
        "zoneName": "America/Kentucky/Monticello",
        "gmtOffset": -18000,
        "gmtOffsetName": "UTC-05:00",
        "abbreviation": "EST",
        "tzName": "Eastern Standard Time (North America"
      },
      {
        "zoneName": "America/Los_Angeles",
        "gmtOffset": -28800,
        "gmtOffsetName": "UTC-08:00",
        "abbreviation": "PST",
        "tzName": "Pacific Standard Time (North America"
      },
      {
        "zoneName": "America/Menominee",
        "gmtOffset": -21600,
        "gmtOffsetName": "UTC-06:00",
        "abbreviation": "CST",
        "tzName": "Central Standard Time (North America"
      },
      {
        "zoneName": "America/Metlakatla",
        "gmtOffset": -32400,
        "gmtOffsetName": "UTC-09:00",
        "abbreviation": "AKST",
        "tzName": "Alaska Standard Time"
      },
      {
        "zoneName": "America/New_York",
        "gmtOffset": -18000,
        "gmtOffsetName": "UTC-05:00",
        "abbreviation": "EST",
        "tzName": "Eastern Standard Time (North America"
      },
      {
        "zoneName": "America/Nome",
        "gmtOffset": -32400,
        "gmtOffsetName": "UTC-09:00",
        "abbreviation": "AKST",
        "tzName": "Alaska Standard Time"
      },
      {
        "zoneName": "America/North_Dakota/Beulah",
        "gmtOffset": -21600,
        "gmtOffsetName": "UTC-06:00",
        "abbreviation": "CST",
        "tzName": "Central Standard Time (North America"
      },
      {
        "zoneName": "America/North_Dakota/Center",
        "gmtOffset": -21600,
        "gmtOffsetName": "UTC-06:00",
        "abbreviation": "CST",
        "tzName": "Central Standard Time (North America"
      },
      {
        "zoneName": "America/North_Dakota/New_Salem",
        "gmtOffset": -21600,
        "gmtOffsetName": "UTC-06:00",
        "abbreviation": "CST",
        "tzName": "Central Standard Time (North America"
      },
      {
        "zoneName": "America/Phoenix",
        "gmtOffset": -25200,
        "gmtOffsetName": "UTC-07:00",
        "abbreviation": "MST",
        "tzName": "Mountain Standard Time (North America"
      },
      {
        "zoneName": "America/Sitka",
        "gmtOffset": -32400,
        "gmtOffsetName": "UTC-09:00",
        "abbreviation": "AKST",
        "tzName": "Alaska Standard Time"
      },
      {
        "zoneName": "America/Yakutat",
        "gmtOffset": -32400,
        "gmtOffsetName": "UTC-09:00",
        "abbreviation": "AKST",
        "tzName": "Alaska Standard Time"
      },
      {
        "zoneName": "Pacific/Honolulu",
        "gmtOffset": -36000,
        "gmtOffsetName": "UTC-10:00",
        "abbreviation": "HST",
        "tzName": "Hawaii‚ÄìAleutian Standard Time"
      }
    ],
    "translations": {
      "kr": "ÎØ∏Íµ≠",
      "pt-BR": "Estados Unidos",
      "pt": "Estados Unidos",
      "nl": "Verenigde Staten",
      "hr": "Sjedinjene Ameriƒçke Dr≈æave",
      "fa": "ÿß€åÿßŸÑÿßÿ™ ŸÖÿ™ÿ≠ÿØŸá ÿ¢ŸÖÿ±€å⁄©ÿß",
      "de": "Vereinigte Staaten von Amerika",
      "es": "Estados Unidos",
      "fr": "√âtats-Unis",
      "ja": "„Ç¢„É°„É™„Ç´ÂêàË°ÜÂõΩ",
      "it": "Stati Uniti D'America",
      "cn": "ÁæéÂõΩ",
      "tr": "Amerika"
    },
    "latitude": "38.00000000",
    "longitude": "-97.00000000",
    "emoji": "üá∫üá∏",
    "emojiU": "U+1F1FA U+1F1F8"
  }
}