{
  "id": 2275,
  "name": "Gansu",
  "state_code": "GS",
  "latitude": "35.75183260",
  "longitude": "104.28611160",
  "type": "province",
  "cities": [
    {
      "id": 19309,
      "name": "Baiyin",
      "latitude": "36.54696000",
      "longitude": "104.17023000"
    },
    {
      "id": 19330,
      "name": "Beidao",
      "latitude": "34.56861000",
      "longitude": "105.89333000"
    },
    {
      "id": 19460,
      "name": "Dingxi Shi",
      "latitude": "35.03710000",
      "longitude": "104.38623000"
    },
    {
      "id": 19622,
      "name": "Hezuo",
      "latitude": "34.98556000",
      "longitude": "102.90944000"
    },
    {
      "id": 19716,
      "name": "Jiayuguan",
      "latitude": "39.81121000",
      "longitude": "98.28618000"
    },
    {
      "id": 19728,
      "name": "Jinchang",
      "latitude": "38.50062000",
      "longitude": "102.19379000"
    },
    {
      "id": 19758,
      "name": "Jiuquan",
      "latitude": "39.74318000",
      "longitude": "98.51736000"
    },
    {
      "id": 19803,
      "name": "Lanzhou",
      "latitude": "36.05701000",
      "longitude": "103.83987000"
    },
    {
      "id": 19806,
      "name": "Laojunmiao",
      "latitude": "39.83333000",
      "longitude": "97.73333000"
    },
    {
      "id": 19854,
      "name": "Linxia Chengguanzhen",
      "latitude": "35.60028000",
      "longitude": "103.20639000"
    },
    {
      "id": 19855,
      "name": "Linxia Huizu Zizhizhou",
      "latitude": "35.66597000",
      "longitude": "103.24080000"
    },
    {
      "id": 19871,
      "name": "Longnan Shi",
      "latitude": "33.53451000",
      "longitude": "105.34947000"
    },
    {
      "id": 19908,
      "name": "Mawu",
      "latitude": "34.42639000",
      "longitude": "104.91472000"
    },
    {
      "id": 19980,
      "name": "Pingliang",
      "latitude": "35.53917000",
      "longitude": "106.68611000"
    },
    {
      "id": 20015,
      "name": "Qincheng",
      "latitude": "34.58028000",
      "longitude": "105.72722000"
    },
    {
      "id": 20026,
      "name": "Qingyang Shi",
      "latitude": "36.23598000",
      "longitude": "107.58113000"
    },
    {
      "id": 20181,
      "name": "Tianshui",
      "latitude": "34.57952000",
      "longitude": "105.74238000"
    },
    {
      "id": 20237,
      "name": "Wuwei",
      "latitude": "37.92672000",
      "longitude": "102.63202000"
    },
    {
      "id": 20426,
      "name": "Zhangye",
      "latitude": "38.93417000",
      "longitude": "100.45167000"
    },
    {
      "id": 20427,
      "name": "Zhangye Shi",
      "latitude": "39.12183000",
      "longitude": "99.92495000"
    }
  ],
  "country": {
    "id": 45,
    "name": "China",
    "iso3": "CHN",
    "iso2": "CN",
    "numeric_code": "156",
    "phone_code": "86",
    "capital": "Beijing",
    "currency": "CNY",
    "currency_name": "Chinese yuan",
    "currency_symbol": "Â¥",
    "tld": ".cn",
    "native": "ä¸­å›½",
    "region": "Asia",
    "subregion": "Eastern Asia",
    "timezones": [
      {
        "zoneName": "Asia/Shanghai",
        "gmtOffset": 28800,
        "gmtOffsetName": "UTC+08:00",
        "abbreviation": "CST",
        "tzName": "China Standard Time"
      },
      {
        "zoneName": "Asia/Urumqi",
        "gmtOffset": 21600,
        "gmtOffsetName": "UTC+06:00",
        "abbreviation": "XJT",
        "tzName": "China Standard Time"
      }
    ],
    "translations": {
      "kr": "ì¤‘êµ­",
      "pt-BR": "China",
      "pt": "China",
      "nl": "China",
      "hr": "Kina",
      "fa": "Ú†ÛŒÙ†",
      "de": "China",
      "es": "China",
      "fr": "Chine",
      "ja": "ä¸­å›½",
      "it": "Cina",
      "cn": "ä¸­å›½",
      "tr": "Ã‡in"
    },
    "latitude": "35.00000000",
    "longitude": "105.00000000",
    "emoji": "ðŸ‡¨ðŸ‡³",
    "emojiU": "U+1F1E8 U+1F1F3"
  }
}