{
  "id": 4022,
  "name": "Uttar Pradesh",
  "state_code": "UP",
  "latitude": "26.84670880",
  "longitude": "80.94615920",
  "type": "state",
  "cities": [
    {
      "id": 57590,
      "name": "Achhnera",
      "latitude": "27.17826000",
      "longitude": "77.75674000"
    },
    {
      "id": 57597,
      "name": "Afzalgarh",
      "latitude": "29.39370000",
      "longitude": "78.67393000"
    },
    {
      "id": 57601,
      "name": "Agra",
      "latitude": "27.18333000",
      "longitude": "78.01667000"
    },
    {
      "id": 57607,
      "name": "Ahraura",
      "latitude": "25.01579000",
      "longitude": "83.03294000"
    },
    {
      "id": 147426,
      "name": "Aidalpur",
      "latitude": "26.13333333",
      "longitude": "79.45000000"
    },
    {
      "id": 147427,
      "name": "Airwa",
      "latitude": "26.90000000",
      "longitude": "79.43333333"
    },
    {
      "id": 57621,
      "name": "Akbarpur",
      "latitude": "26.42953000",
      "longitude": "82.53431000"
    },
    {
      "id": 147428,
      "name": "Akola",
      "latitude": "27.06547000",
      "longitude": "77.88084000"
    },
    {
      "id": 57653,
      "name": "Aliganj",
      "latitude": "27.49358000",
      "longitude": "79.17127000"
    },
    {
      "id": 57654,
      "name": "Aligarh",
      "latitude": "27.83333000",
      "longitude": "78.16667000"
    },
    {
      "id": 147429,
      "name": "Allahabad",
      "latitude": "25.45000000",
      "longitude": "81.85000000"
    },
    {
      "id": 57641,
      "name": "Allahganj",
      "latitude": "27.54540000",
      "longitude": "79.68715000"
    },
    {
      "id": 57692,
      "name": "Amanpur",
      "latitude": "27.71222000",
      "longitude": "78.73788000"
    },
    {
      "id": 147430,
      "name": "Amauli",
      "latitude": "26.01666667",
      "longitude": "80.30000000"
    },
    {
      "id": 57666,
      "name": "Ambahta",
      "latitude": "29.85706000",
      "longitude": "77.33583000"
    },
    {
      "id": 57669,
      "name": "Ambedkar Nagar",
      "latitude": "26.40544000",
      "longitude": "82.69762000"
    },
    {
      "id": 57677,
      "name": "Amethi",
      "latitude": "28.01667000",
      "longitude": "81.05000000"
    },
    {
      "id": 57687,
      "name": "Amroha",
      "latitude": "28.90314000",
      "longitude": "78.46984000"
    },
    {
      "id": 57696,
      "name": "Anandnagar",
      "latitude": "27.10062000",
      "longitude": "83.27156000"
    },
    {
      "id": 57720,
      "name": "Antu",
      "latitude": "26.05654000",
      "longitude": "81.90267000"
    },
    {
      "id": 57724,
      "name": "Anupshahr",
      "latitude": "28.35748000",
      "longitude": "78.26914000"
    },
    {
      "id": 57725,
      "name": "Aonla",
      "latitude": "28.27402000",
      "longitude": "79.16521000"
    },
    {
      "id": 147431,
      "name": "Araul",
      "latitude": "26.91700000",
      "longitude": "80.03300000"
    },
    {
      "id": 147432,
      "name": "Asalatganj",
      "latitude": "26.68333333",
      "longitude": "79.85000000"
    },
    {
      "id": 57755,
      "name": "Atarra",
      "latitude": "25.28618000",
      "longitude": "80.57155000"
    },
    {
      "id": 57760,
      "name": "Atrauli",
      "latitude": "28.02964000",
      "longitude": "78.28571000"
    },
    {
      "id": 57759,
      "name": "Atraulia",
      "latitude": "26.33330000",
      "longitude": "82.94727000"
    },
    {
      "id": 57764,
      "name": "Auraiya",
      "latitude": "26.64692000",
      "longitude": "79.42858000"
    },
    {
      "id": 57769,
      "name": "Auras",
      "latitude": "26.91414000",
      "longitude": "80.50792000"
    },
    {
      "id": 57616,
      "name": "Ayodhya",
      "latitude": "26.79909000",
      "longitude": "82.20470000"
    },
    {
      "id": 57777,
      "name": "Azamgarh",
      "latitude": "26.06832000",
      "longitude": "83.18358000"
    },
    {
      "id": 147433,
      "name": "Azizpur",
      "latitude": "26.97638889",
      "longitude": "79.22138889"
    },
    {
      "id": 57779,
      "name": "Baberu",
      "latitude": "25.54711000",
      "longitude": "80.70443000"
    },
    {
      "id": 57782,
      "name": "Babina",
      "latitude": "25.23947000",
      "longitude": "78.47028000"
    },
    {
      "id": 57780,
      "name": "Babrala",
      "latitude": "28.26419000",
      "longitude": "78.40560000"
    },
    {
      "id": 57781,
      "name": "Babugarh",
      "latitude": "28.72353000",
      "longitude": "77.84677000"
    },
    {
      "id": 57783,
      "name": "Bachhraon",
      "latitude": "28.92694000",
      "longitude": "78.23456000"
    },
    {
      "id": 57784,
      "name": "Bachhrawan",
      "latitude": "26.47090000",
      "longitude": "81.11580000"
    },
    {
      "id": 57801,
      "name": "Baghpat",
      "latitude": "28.95000000",
      "longitude": "77.21670000"
    },
    {
      "id": 147434,
      "name": "Baghra",
      "latitude": "29.46666667",
      "longitude": "77.58333333"
    },
    {
      "id": 58112,
      "name": "Bah",
      "latitude": "26.86912000",
      "longitude": "78.59385000"
    },
    {
      "id": 57803,
      "name": "Baheri",
      "latitude": "28.77416000",
      "longitude": "79.49740000"
    },
    {
      "id": 57804,
      "name": "Bahjoi",
      "latitude": "28.39502000",
      "longitude": "78.62659000"
    },
    {
      "id": 57805,
      "name": "Bahraich",
      "latitude": "27.80021000",
      "longitude": "81.51855000"
    },
    {
      "id": 57806,
      "name": "Bahraigh",
      "latitude": "27.57429000",
      "longitude": "81.59474000"
    },
    {
      "id": 57807,
      "name": "Bahsuma",
      "latitude": "29.20063000",
      "longitude": "77.97221000"
    },
    {
      "id": 57808,
      "name": "Bahua",
      "latitude": "25.83942000",
      "longitude": "80.62255000"
    },
    {
      "id": 58113,
      "name": "Bajna",
      "latitude": "27.89793000",
      "longitude": "77.67836000"
    },
    {
      "id": 57817,
      "name": "Bakewar",
      "latitude": "26.66226000",
      "longitude": "79.17625000"
    },
    {
      "id": 147435,
      "name": "Baksar",
      "latitude": "28.76666667",
      "longitude": "78.01666667"
    },
    {
      "id": 147436,
      "name": "Balamau",
      "latitude": "27.16666667",
      "longitude": "80.35000000"
    },
    {
      "id": 147437,
      "name": "Baldeo",
      "latitude": "27.41666667",
      "longitude": "77.81666667"
    },
    {
      "id": 57825,
      "name": "Baldev",
      "latitude": "27.40684000",
      "longitude": "77.82214000"
    },
    {
      "id": 57828,
      "name": "Ballia",
      "latitude": "25.83333000",
      "longitude": "84.16667000"
    },
    {
      "id": 57833,
      "name": "Balrampur",
      "latitude": "27.43449000",
      "longitude": "82.40281000"
    },
    {
      "id": 57840,
      "name": "Banat",
      "latitude": "29.46355000",
      "longitude": "77.35478000"
    },
    {
      "id": 57841,
      "name": "Banbasa",
      "latitude": "28.99132000",
      "longitude": "80.07608000"
    },
    {
      "id": 58124,
      "name": "Banda",
      "latitude": "25.50000000",
      "longitude": "80.50000000"
    },
    {
      "id": 58126,
      "name": "Bangarmau",
      "latitude": "26.89120000",
      "longitude": "80.21149000"
    },
    {
      "id": 58130,
      "name": "Bansdih",
      "latitude": "25.88377000",
      "longitude": "84.21827000"
    },
    {
      "id": 58131,
      "name": "Bansgaon",
      "latitude": "26.55032000",
      "longitude": "83.34503000"
    },
    {
      "id": 58132,
      "name": "Bansi",
      "latitude": "27.17749000",
      "longitude": "82.93442000"
    },
    {
      "id": 147438,
      "name": "Banthra",
      "latitude": "27.91720000",
      "longitude": "79.81740000"
    },
    {
      "id": 58138,
      "name": "Bara Banki",
      "latitude": "26.93864000",
      "longitude": "81.32740000"
    },
    {
      "id": 57892,
      "name": "Baragaon",
      "latitude": "25.47554000",
      "longitude": "78.71224000"
    },
    {
      "id": 57865,
      "name": "Baraut",
      "latitude": "29.10199000",
      "longitude": "77.26334000"
    },
    {
      "id": 57867,
      "name": "Bareilly",
      "latitude": "28.41667000",
      "longitude": "79.38333000"
    },
    {
      "id": 147439,
      "name": "Barhalganj",
      "latitude": "26.28333333",
      "longitude": "83.50000000"
    },
    {
      "id": 147440,
      "name": "Barkhera",
      "latitude": "28.45000000",
      "longitude": "79.80000000"
    },
    {
      "id": 57877,
      "name": "Barkhera Kalan",
      "latitude": "28.45209000",
      "longitude": "79.80655000"
    },
    {
      "id": 147441,
      "name": "Barokhar",
      "latitude": "24.91666667",
      "longitude": "81.96666667"
    },
    {
      "id": 57887,
      "name": "Barsana",
      "latitude": "27.64802000",
      "longitude": "77.37640000"
    },
    {
      "id": 147442,
      "name": "Barwar (Lakhimpur Kheri)",
      "latitude": "25.50583333",
      "longitude": "79.13972222"
    },
    {
      "id": 57901,
      "name": "Basti",
      "latitude": "26.82816000",
      "longitude": "82.77924000"
    },
    {
      "id": 57918,
      "name": "Behat",
      "latitude": "30.17180000",
      "longitude": "77.61390000"
    },
    {
      "id": 57920,
      "name": "Bela",
      "latitude": "25.92058000",
      "longitude": "81.99629000"
    },
    {
      "id": 147443,
      "name": "Belthara",
      "latitude": "26.12694444",
      "longitude": "83.89138889"
    },
    {
      "id": 57934,
      "name": "Beniganj",
      "latitude": "27.29293000",
      "longitude": "80.44364000"
    },
    {
      "id": 57938,
      "name": "Beswan",
      "latitude": "27.63792000",
      "longitude": "77.88019000"
    },
    {
      "id": 57944,
      "name": "Bewar",
      "latitude": "27.21869000",
      "longitude": "79.29761000"
    },
    {
      "id": 147444,
      "name": "Bhadarsa",
      "latitude": "26.66027778",
      "longitude": "82.12416667"
    },
    {
      "id": 57951,
      "name": "Bhadohi",
      "latitude": "25.39526000",
      "longitude": "82.57030000"
    },
    {
      "id": 57958,
      "name": "Bhagwantnagar",
      "latitude": "26.22383000",
      "longitude": "80.75750000"
    },
    {
      "id": 147445,
      "name": "Bharatpura",
      "latitude": "25.23333333",
      "longitude": "78.96666667"
    },
    {
      "id": 147446,
      "name": "Bhargain",
      "latitude": "27.61500000",
      "longitude": "79.14416667"
    },
    {
      "id": 57965,
      "name": "Bharthana",
      "latitude": "26.75231000",
      "longitude": "79.22180000"
    },
    {
      "id": 57966,
      "name": "Bharwari",
      "latitude": "25.56078000",
      "longitude": "81.49164000"
    },
    {
      "id": 147447,
      "name": "Bhaupur",
      "latitude": "26.91666667",
      "longitude": "79.21666667"
    },
    {
      "id": 147448,
      "name": "Bhimtal",
      "latitude": "29.34444444",
      "longitude": "79.56305556"
    },
    {
      "id": 57984,
      "name": "Bhinga",
      "latitude": "27.70283000",
      "longitude": "81.93430000"
    },
    {
      "id": 147449,
      "name": "Bhognipur",
      "latitude": "26.24000000",
      "longitude": "79.80000000"
    },
    {
      "id": 57993,
      "name": "Bhongaon",
      "latitude": "27.25515000",
      "longitude": "79.18118000"
    },
    {
      "id": 147450,
      "name": "Bidhnu",
      "latitude": "26.33333333",
      "longitude": "80.28333333"
    },
    {
      "id": 58027,
      "name": "Bidhuna",
      "latitude": "26.80172000",
      "longitude": "79.50829000"
    },
    {
      "id": 147451,
      "name": "Bighapur",
      "latitude": "26.35000000",
      "longitude": "80.68000000"
    },
    {
      "id": 58155,
      "name": "Bighapur Khurd",
      "latitude": "26.34734000",
      "longitude": "80.65698000"
    },
    {
      "id": 58035,
      "name": "Bijnor",
      "latitude": "29.41667000",
      "longitude": "78.51667000"
    },
    {
      "id": 58158,
      "name": "Bikapur",
      "latitude": "26.59534000",
      "longitude": "82.13272000"
    },
    {
      "id": 58052,
      "name": "Bilari",
      "latitude": "28.62146000",
      "longitude": "78.80361000"
    },
    {
      "id": 58040,
      "name": "Bilariaganj",
      "latitude": "26.19593000",
      "longitude": "83.22690000"
    },
    {
      "id": 58159,
      "name": "Bilaspur",
      "latitude": "28.88655000",
      "longitude": "79.27030000"
    },
    {
      "id": 58043,
      "name": "Bilgram",
      "latitude": "27.17509000",
      "longitude": "80.03201000"
    },
    {
      "id": 58044,
      "name": "Bilhaur",
      "latitude": "26.84345000",
      "longitude": "80.06388000"
    },
    {
      "id": 58048,
      "name": "Bilsanda",
      "latitude": "28.24341000",
      "longitude": "79.95135000"
    },
    {
      "id": 58049,
      "name": "Bilsi",
      "latitude": "28.12941000",
      "longitude": "78.91090000"
    },
    {
      "id": 58050,
      "name": "Bilthra",
      "latitude": "26.12705000",
      "longitude": "83.89148000"
    },
    {
      "id": 147452,
      "name": "Binauli",
      "latitude": "29.09416667",
      "longitude": "77.40083333"
    },
    {
      "id": 147453,
      "name": "Binaur",
      "latitude": "26.38333333",
      "longitude": "80.16666667"
    },
    {
      "id": 58057,
      "name": "Bindki",
      "latitude": "26.03613000",
      "longitude": "80.57617000"
    },
    {
      "id": 147454,
      "name": "Birdpur",
      "latitude": "27.38330000",
      "longitude": "83.11670000"
    },
    {
      "id": 147455,
      "name": "Birpur",
      "latitude": "26.53000000",
      "longitude": "86.25000000"
    },
    {
      "id": 58161,
      "name": "Bisalpur",
      "latitude": "28.29253000",
      "longitude": "79.80472000"
    },
    {
      "id": 147456,
      "name": "Bisanda Buzurg",
      "latitude": "25.41666667",
      "longitude": "80.61666667"
    },
    {
      "id": 58062,
      "name": "Bisauli",
      "latitude": "28.30772000",
      "longitude": "78.93678000"
    },
    {
      "id": 58063,
      "name": "Bisenda Buzurg",
      "latitude": "25.40350000",
      "longitude": "80.61889000"
    },
    {
      "id": 58066,
      "name": "Bishunpur Urf Maharajganj",
      "latitude": "26.25914000",
      "longitude": "83.11643000"
    },
    {
      "id": 58068,
      "name": "Biswan",
      "latitude": "27.49581000",
      "longitude": "80.99618000"
    },
    {
      "id": 58069,
      "name": "Bithur",
      "latitude": "26.60664000",
      "longitude": "80.27098000"
    },
    {
      "id": 58088,
      "name": "Budaun",
      "latitude": "28.11667000",
      "longitude": "78.98333000"
    },
    {
      "id": 58091,
      "name": "Budhana",
      "latitude": "29.28805000",
      "longitude": "77.47534000"
    },
    {
      "id": 58093,
      "name": "Bulandshahr",
      "latitude": "28.41667000",
      "longitude": "77.83333000"
    },
    {
      "id": 58168,
      "name": "Captainganj",
      "latitude": "26.92640000",
      "longitude": "83.71334000"
    },
    {
      "id": 58172,
      "name": "Chail",
      "latitude": "25.42654000",
      "longitude": "81.63198000"
    },
    {
      "id": 58173,
      "name": "Chakia",
      "latitude": "25.04891000",
      "longitude": "83.22155000"
    },
    {
      "id": 58186,
      "name": "Chandauli",
      "latitude": "25.25803000",
      "longitude": "83.26825000"
    },
    {
      "id": 58187,
      "name": "Chandauli District",
      "latitude": "25.26134000",
      "longitude": "83.26408000"
    },
    {
      "id": 147457,
      "name": "Chandausi",
      "latitude": "28.45000000",
      "longitude": "78.77000000"
    },
    {
      "id": 131600,
      "name": "Chandpur",
      "latitude": "29.13489000",
      "longitude": "78.27187000"
    },
    {
      "id": 58193,
      "name": "Chanduasi",
      "latitude": "28.45178000",
      "longitude": "78.78277000"
    },
    {
      "id": 58201,
      "name": "Charkhari",
      "latitude": "25.40304000",
      "longitude": "79.74877000"
    },
    {
      "id": 131509,
      "name": "Charthawal",
      "latitude": "29.54687000",
      "longitude": "77.59438000"
    },
    {
      "id": 131530,
      "name": "Chhaprauli",
      "latitude": "29.20989000",
      "longitude": "77.17454000"
    },
    {
      "id": 131531,
      "name": "Chharra",
      "latitude": "27.92470000",
      "longitude": "78.40102000"
    },
    {
      "id": 131540,
      "name": "Chhata",
      "latitude": "27.72374000",
      "longitude": "77.50810000"
    },
    {
      "id": 131533,
      "name": "Chhibramau",
      "latitude": "27.14872000",
      "longitude": "79.50078000"
    },
    {
      "id": 147458,
      "name": "Chhitauni",
      "latitude": "27.11666667",
      "longitude": "83.98333333"
    },
    {
      "id": 131537,
      "name": "Chhutmalpur",
      "latitude": "30.03209000",
      "longitude": "77.75329000"
    },
    {
      "id": 131557,
      "name": "Chillupar",
      "latitude": "26.28221000",
      "longitude": "83.50640000"
    },
    {
      "id": 131569,
      "name": "Chirgaon",
      "latitude": "25.57198000",
      "longitude": "78.81432000"
    },
    {
      "id": 131572,
      "name": "Chitrakoot",
      "latitude": "25.20511000",
      "longitude": "81.08962000"
    },
    {
      "id": 147459,
      "name": "Chitrakoot Dham",
      "latitude": "25.20000000",
      "longitude": "80.90000000"
    },
    {
      "id": 131579,
      "name": "Chopan",
      "latitude": "24.51954000",
      "longitude": "83.02287000"
    },
    {
      "id": 131584,
      "name": "Chunar",
      "latitude": "25.12776000",
      "longitude": "82.88210000"
    },
    {
      "id": 147460,
      "name": "Churk",
      "latitude": "24.65000000",
      "longitude": "83.10000000"
    },
    {
      "id": 131621,
      "name": "Colonelganj",
      "latitude": "27.13432000",
      "longitude": "81.69868000"
    },
    {
      "id": 131806,
      "name": "Dadri",
      "latitude": "28.55257000",
      "longitude": "77.55403000"
    },
    {
      "id": 131646,
      "name": "Dalmau",
      "latitude": "26.06477000",
      "longitude": "81.02980000"
    },
    {
      "id": 131653,
      "name": "Dankaur",
      "latitude": "28.35121000",
      "longitude": "77.55508000"
    },
    {
      "id": 147461,
      "name": "Daraganj",
      "latitude": "25.43333333",
      "longitude": "81.88333333"
    },
    {
      "id": 147462,
      "name": "Daranagar",
      "latitude": "25.68162080",
      "longitude": "81.34975790"
    },
    {
      "id": 131811,
      "name": "Dasna",
      "latitude": "28.67736000",
      "longitude": "77.52252000"
    },
    {
      "id": 131812,
      "name": "Dataganj",
      "latitude": "28.02530000",
      "longitude": "79.40819000"
    },
    {
      "id": 131668,
      "name": "Daurala",
      "latitude": "29.11344000",
      "longitude": "77.70467000"
    },
    {
      "id": 131674,
      "name": "Dayal Bagh",
      "latitude": "27.22122000",
      "longitude": "78.01095000"
    },
    {
      "id": 131682,
      "name": "Deoband",
      "latitude": "29.69505000",
      "longitude": "77.67964000"
    },
    {
      "id": 147463,
      "name": "Deogarh",
      "latitude": "24.52600000",
      "longitude": "78.23800000"
    },
    {
      "id": 131689,
      "name": "Deoranian",
      "latitude": "28.62989000",
      "longitude": "79.47648000"
    },
    {
      "id": 131692,
      "name": "Deoria",
      "latitude": "26.66667000",
      "longitude": "83.75000000"
    },
    {
      "id": 147464,
      "name": "Derapur",
      "latitude": "26.41666667",
      "longitude": "79.80000000"
    },
    {
      "id": 131708,
      "name": "Dewa",
      "latitude": "27.03621000",
      "longitude": "81.16692000"
    },
    {
      "id": 131750,
      "name": "Dhampur",
      "latitude": "29.30883000",
      "longitude": "78.51083000"
    },
    {
      "id": 131714,
      "name": "Dhanaura",
      "latitude": "28.95912000",
      "longitude": "78.25629000"
    },
    {
      "id": 147465,
      "name": "Dhanghata",
      "latitude": "26.55419444",
      "longitude": "83.00806111"
    },
    {
      "id": 147466,
      "name": "Dharau",
      "latitude": "26.38333333",
      "longitude": "79.96666667"
    },
    {
      "id": 131731,
      "name": "Dhaurahra",
      "latitude": "27.99814000",
      "longitude": "81.08975000"
    },
    {
      "id": 131761,
      "name": "Dibai",
      "latitude": "28.20849000",
      "longitude": "78.26173000"
    },
    {
      "id": 147467,
      "name": "Divrasai",
      "latitude": "26.81900000",
      "longitude": "79.14900000"
    },
    {
      "id": 131783,
      "name": "Dohrighat",
      "latitude": "26.27217000",
      "longitude": "83.50916000"
    },
    {
      "id": 147468,
      "name": "Domariaganj",
      "latitude": "27.22000000",
      "longitude": "82.67000000"
    },
    {
      "id": 131791,
      "name": "Dostpur",
      "latitude": "26.27486000",
      "longitude": "82.47091000"
    },
    {
      "id": 131818,
      "name": "Dudhi",
      "latitude": "24.21357000",
      "longitude": "83.24067000"
    },
    {
      "id": 131845,
      "name": "Etah",
      "latitude": "27.50000000",
      "longitude": "78.75000000"
    },
    {
      "id": 131849,
      "name": "Etawah",
      "latitude": "26.75000000",
      "longitude": "79.25000000"
    },
    {
      "id": 147469,
      "name": "Etmadpur",
      "latitude": "27.23971944",
      "longitude": "78.20000000"
    },
    {
      "id": 131851,
      "name": "Faizabad",
      "latitude": "26.75000000",
      "longitude": "82.00000000"
    },
    {
      "id": 131852,
      "name": "Farah",
      "latitude": "27.32081000",
      "longitude": "77.76185000"
    },
    {
      "id": 131860,
      "name": "Faridnagar",
      "latitude": "28.76923000",
      "longitude": "77.62934000"
    },
    {
      "id": 131861,
      "name": "Faridpur",
      "latitude": "28.20997000",
      "longitude": "79.54149000"
    },
    {
      "id": 131858,
      "name": "Farrukhabad",
      "latitude": "27.50000000",
      "longitude": "79.50000000"
    },
    {
      "id": 131871,
      "name": "Fatehabad",
      "latitude": "27.02645000",
      "longitude": "78.30270000"
    },
    {
      "id": 131863,
      "name": "Fatehganj West",
      "latitude": "28.46620000",
      "longitude": "79.30657000"
    },
    {
      "id": 131864,
      "name": "Fatehgarh",
      "latitude": "27.36409000",
      "longitude": "79.63111000"
    },
    {
      "id": 131868,
      "name": "Fatehpur",
      "latitude": "25.75000000",
      "longitude": "80.75000000"
    },
    {
      "id": 147470,
      "name": "Fatehpur (Barabanki)",
      "latitude": "27.17000000",
      "longitude": "81.22000000"
    },
    {
      "id": 131869,
      "name": "Fatehpur Chaurasi",
      "latitude": "26.78925000",
      "longitude": "80.26547000"
    },
    {
      "id": 131870,
      "name": "Fatehpur Sikri",
      "latitude": "27.09370000",
      "longitude": "77.66003000"
    },
    {
      "id": 131876,
      "name": "Firozabad",
      "latitude": "27.20072000",
      "longitude": "78.42867000"
    },
    {
      "id": 131880,
      "name": "Fyzabad",
      "latitude": "26.77549000",
      "longitude": "82.15018000"
    },
    {
      "id": 147471,
      "name": "Gahlon",
      "latitude": "26.53333333",
      "longitude": "79.96666667"
    },
    {
      "id": 147472,
      "name": "Gahmar",
      "latitude": "25.49700000",
      "longitude": "83.82200000"
    },
    {
      "id": 147473,
      "name": "Gaini",
      "latitude": "28.21000000",
      "longitude": "79.16000000"
    },
    {
      "id": 131894,
      "name": "Gajraula",
      "latitude": "28.84570000",
      "longitude": "78.23960000"
    },
    {
      "id": 131903,
      "name": "Gangoh",
      "latitude": "29.78004000",
      "longitude": "77.26346000"
    },
    {
      "id": 147474,
      "name": "Ganj Dundawara",
      "latitude": "27.73277778",
      "longitude": "78.94166667"
    },
    {
      "id": 131912,
      "name": "Ganj Dundwara",
      "latitude": "27.73308000",
      "longitude": "78.94119000"
    },
    {
      "id": 131913,
      "name": "Ganj Muradabad",
      "latitude": "26.95733000",
      "longitude": "80.18400000"
    },
    {
      "id": 131916,
      "name": "Garautha",
      "latitude": "25.57190000",
      "longitude": "79.29764000"
    },
    {
      "id": 131919,
      "name": "Garhi Pukhta",
      "latitude": "29.54980000",
      "longitude": "77.30881000"
    },
    {
      "id": 131920,
      "name": "Garhmuktesar",
      "latitude": "28.78732000",
      "longitude": "78.10214000"
    },
    {
      "id": 147475,
      "name": "Garhwa",
      "latitude": "24.18000000",
      "longitude": "83.82000000"
    },
    {
      "id": 147476,
      "name": "Gauriganj",
      "latitude": "26.20600000",
      "longitude": "81.69000000"
    },
    {
      "id": 131929,
      "name": "Gautam Buddha Nagar",
      "latitude": "28.35898000",
      "longitude": "77.55076000"
    },
    {
      "id": 131931,
      "name": "Gawan",
      "latitude": "28.41969000",
      "longitude": "78.35186000"
    },
    {
      "id": 131950,
      "name": "Ghatampur",
      "latitude": "26.15272000",
      "longitude": "80.16803000"
    },
    {
      "id": 131953,
      "name": "Ghaziabad",
      "latitude": "28.66535000",
      "longitude": "77.43915000"
    },
    {
      "id": 131940,
      "name": "Ghazipur",
      "latitude": "25.58333000",
      "longitude": "83.58526000"
    },
    {
      "id": 131941,
      "name": "Ghiror",
      "latitude": "27.18912000",
      "longitude": "78.79312000"
    },
    {
      "id": 131945,
      "name": "Ghorawal",
      "latitude": "24.75459000",
      "longitude": "82.77965000"
    },
    {
      "id": 131946,
      "name": "Ghosi",
      "latitude": "26.10587000",
      "longitude": "83.53930000"
    },
    {
      "id": 131969,
      "name": "Gohand",
      "latitude": "25.69871000",
      "longitude": "79.54567000"
    },
    {
      "id": 131973,
      "name": "Gokul",
      "latitude": "27.43926000",
      "longitude": "77.72019000"
    },
    {
      "id": 131974,
      "name": "Gola Bazar",
      "latitude": "26.34460000",
      "longitude": "83.35303000"
    },
    {
      "id": 131975,
      "name": "Gola Gokarannath",
      "latitude": "28.07837000",
      "longitude": "80.47054000"
    },
    {
      "id": 131981,
      "name": "Gonda",
      "latitude": "27.18581000",
      "longitude": "81.96693000"
    },
    {
      "id": 131990,
      "name": "Gopamau",
      "latitude": "27.53468000",
      "longitude": "80.28507000"
    },
    {
      "id": 131992,
      "name": "Gorakhpur",
      "latitude": "26.91667000",
      "longitude": "83.25000000"
    },
    {
      "id": 147478,
      "name": "Gosainganj",
      "latitude": "26.77000000",
      "longitude": "81.12000000"
    },
    {
      "id": 131998,
      "name": "Goshainganj",
      "latitude": "26.57115000",
      "longitude": "82.38091000"
    },
    {
      "id": 132000,
      "name": "Govardhan",
      "latitude": "27.49658000",
      "longitude": "77.46263000"
    },
    {
      "id": 132005,
      "name": "Greater Noida",
      "latitude": "28.49615000",
      "longitude": "77.53601000"
    },
    {
      "id": 132019,
      "name": "Gulaothi",
      "latitude": "28.58938000",
      "longitude": "77.79318000"
    },
    {
      "id": 132026,
      "name": "Gunnaur",
      "latitude": "28.23995000",
      "longitude": "78.43994000"
    },
    {
      "id": 132035,
      "name": "Gursahaiganj",
      "latitude": "27.11518000",
      "longitude": "79.73174000"
    },
    {
      "id": 132036,
      "name": "Gursarai",
      "latitude": "25.61677000",
      "longitude": "79.18053000"
    },
    {
      "id": 132042,
      "name": "Gyanpur",
      "latitude": "25.33268000",
      "longitude": "82.46637000"
    },
    {
      "id": 132057,
      "name": "Haldaur",
      "latitude": "29.28988000",
      "longitude": "78.28437000"
    },
    {
      "id": 132062,
      "name": "Hamirpur",
      "latitude": "25.75000000",
      "longitude": "80.00000000"
    },
    {
      "id": 132064,
      "name": "Handia",
      "latitude": "25.36379000",
      "longitude": "82.18655000"
    },
    {
      "id": 132142,
      "name": "Hapur",
      "latitude": "28.72985000",
      "longitude": "77.78068000"
    },
    {
      "id": 147479,
      "name": "Haraipur",
      "latitude": "26.90000000",
      "longitude": "79.70000000"
    },
    {
      "id": 132068,
      "name": "Haraiya",
      "latitude": "26.79477000",
      "longitude": "82.46436000"
    },
    {
      "id": 147480,
      "name": "Harchandpur",
      "latitude": "26.36000000",
      "longitude": "81.17000000"
    },
    {
      "id": 132072,
      "name": "Hardoi",
      "latitude": "27.41667000",
      "longitude": "80.25000000"
    },
    {
      "id": 132074,
      "name": "Harduaganj",
      "latitude": "27.94361000",
      "longitude": "78.15789000"
    },
    {
      "id": 132085,
      "name": "Hasanpur",
      "latitude": "28.72249000",
      "longitude": "78.28436000"
    },
    {
      "id": 132087,
      "name": "Hastinapur",
      "latitude": "29.16042000",
      "longitude": "78.00762000"
    },
    {
      "id": 132146,
      "name": "Hata",
      "latitude": "26.74120000",
      "longitude": "83.74526000"
    },
    {
      "id": 147481,
      "name": "Hata (India)",
      "latitude": "26.75000000",
      "longitude": "83.74000000"
    },
    {
      "id": 132144,
      "name": "Hathras",
      "latitude": "27.59551000",
      "longitude": "78.05201000"
    },
    {
      "id": 147482,
      "name": "Hulas",
      "latitude": "29.69027778",
      "longitude": "77.36027778"
    },
    {
      "id": 147483,
      "name": "Ibrahimpur",
      "latitude": "26.01027778",
      "longitude": "83.16861111"
    },
    {
      "id": 132156,
      "name": "Iglas",
      "latitude": "27.71100000",
      "longitude": "77.93967000"
    },
    {
      "id": 132157,
      "name": "Ikauna",
      "latitude": "27.53097000",
      "longitude": "81.96917000"
    },
    {
      "id": 132164,
      "name": "Indergarh",
      "latitude": "26.93521000",
      "longitude": "79.67120000"
    },
    {
      "id": 147484,
      "name": "Indragarh",
      "latitude": "29.91299444",
      "longitude": "74.32284167"
    },
    {
      "id": 132173,
      "name": "Islamnagar",
      "latitude": "28.32896000",
      "longitude": "78.72524000"
    },
    {
      "id": 147485,
      "name": "Islamnagar (Badaun)",
      "latitude": "28.33000000",
      "longitude": "78.72000000"
    },
    {
      "id": 132176,
      "name": "Itaunja",
      "latitude": "27.08347000",
      "longitude": "80.89672000"
    },
    {
      "id": 132177,
      "name": "Itimadpur",
      "latitude": "27.23541000",
      "longitude": "78.19829000"
    },
    {
      "id": 132187,
      "name": "Jagdishpur",
      "latitude": "26.74967000",
      "longitude": "80.54510000"
    },
    {
      "id": 132191,
      "name": "Jagnair",
      "latitude": "26.86360000",
      "longitude": "77.60231000"
    },
    {
      "id": 132197,
      "name": "Jahanabad",
      "latitude": "28.63025000",
      "longitude": "79.71818000"
    },
    {
      "id": 147486,
      "name": "Jahanabad (Pilibhit)",
      "latitude": "28.63330000",
      "longitude": "79.80000000"
    },
    {
      "id": 132196,
      "name": "Jahangirabad",
      "latitude": "28.40549000",
      "longitude": "78.10588000"
    },
    {
      "id": 132195,
      "name": "Jahangirpur",
      "latitude": "28.17919000",
      "longitude": "77.70501000"
    },
    {
      "id": 132200,
      "name": "Jainpur",
      "latitude": "26.15389000",
      "longitude": "83.33505000"
    },
    {
      "id": 132202,
      "name": "Jais",
      "latitude": "26.26490000",
      "longitude": "81.54855000"
    },
    {
      "id": 132221,
      "name": "Jalalabad",
      "latitude": "29.61853000",
      "longitude": "77.43908000"
    },
    {
      "id": 132224,
      "name": "Jalali",
      "latitude": "27.86680000",
      "longitude": "78.25267000"
    },
    {
      "id": 132220,
      "name": "Jalalpur",
      "latitude": "26.31162000",
      "longitude": "82.73859000"
    },
    {
      "id": 132306,
      "name": "Jalaun",
      "latitude": "26.00000000",
      "longitude": "79.50000000"
    },
    {
      "id": 132212,
      "name": "Jalesar",
      "latitude": "27.47315000",
      "longitude": "78.30310000"
    },
    {
      "id": 147487,
      "name": "Janghai",
      "latitude": "25.55000000",
      "longitude": "82.31666667"
    },
    {
      "id": 132313,
      "name": "Jansath",
      "latitude": "29.32502000",
      "longitude": "77.85044000"
    },
    {
      "id": 147488,
      "name": "Jarwa",
      "latitude": "27.65000000",
      "longitude": "82.51666667"
    },
    {
      "id": 132242,
      "name": "Jarwal",
      "latitude": "27.16290000",
      "longitude": "81.54179000"
    },
    {
      "id": 132248,
      "name": "Jasrana",
      "latitude": "27.23587000",
      "longitude": "78.65244000"
    },
    {
      "id": 132249,
      "name": "Jaswantnagar",
      "latitude": "26.88271000",
      "longitude": "78.90256000"
    },
    {
      "id": 132252,
      "name": "Jaunpur",
      "latitude": "25.75000000",
      "longitude": "82.75000000"
    },
    {
      "id": 132264,
      "name": "Jewar",
      "latitude": "28.12200000",
      "longitude": "77.55734000"
    },
    {
      "id": 147489,
      "name": "Jhajhar",
      "latitude": "27.86000000",
      "longitude": "75.28000000"
    },
    {
      "id": 132277,
      "name": "Jhalu",
      "latitude": "29.33609000",
      "longitude": "78.22608000"
    },
    {
      "id": 132279,
      "name": "Jhansi",
      "latitude": "25.50000000",
      "longitude": "78.50000000"
    },
    {
      "id": 132280,
      "name": "Jhinjhak",
      "latitude": "26.56093000",
      "longitude": "79.73423000"
    },
    {
      "id": 132271,
      "name": "Jhinjhana",
      "latitude": "29.52118000",
      "longitude": "77.22470000"
    },
    {
      "id": 132281,
      "name": "Jhusi",
      "latitude": "25.43745000",
      "longitude": "81.90550000"
    },
    {
      "id": 147490,
      "name": "Jiyanpur",
      "latitude": "26.15000000",
      "longitude": "83.33000000"
    },
    {
      "id": 132303,
      "name": "Jyotiba Phule Nagar",
      "latitude": "28.77160000",
      "longitude": "78.33871000"
    },
    {
      "id": 132320,
      "name": "Kabrai",
      "latitude": "25.40281000",
      "longitude": "79.99970000"
    },
    {
      "id": 132322,
      "name": "Kachhwa",
      "latitude": "25.20615000",
      "longitude": "82.71442000"
    },
    {
      "id": 132325,
      "name": "Kadaura",
      "latitude": "25.98537000",
      "longitude": "79.83842000"
    },
    {
      "id": 132676,
      "name": "Kadipur",
      "latitude": "26.16779000",
      "longitude": "82.37028000"
    },
    {
      "id": 147491,
      "name": "Kagarol",
      "latitude": "27.01666667",
      "longitude": "77.85000000"
    },
    {
      "id": 132335,
      "name": "Kaimganj",
      "latitude": "27.55441000",
      "longitude": "79.33525000"
    },
    {
      "id": 132339,
      "name": "Kairana",
      "latitude": "29.39541000",
      "longitude": "77.20540000"
    },
    {
      "id": 132679,
      "name": "Kakori",
      "latitude": "26.86800000",
      "longitude": "80.78570000"
    },
    {
      "id": 132342,
      "name": "Kakrala",
      "latitude": "27.89269000",
      "longitude": "79.19450000"
    },
    {
      "id": 132690,
      "name": "Kalinagar",
      "latitude": "28.62019000",
      "longitude": "80.08152000"
    },
    {
      "id": 132683,
      "name": "Kalpi",
      "latitude": "26.11667000",
      "longitude": "79.73333000"
    },
    {
      "id": 147492,
      "name": "Kalyanpur",
      "latitude": "26.51912222",
      "longitude": "80.24980556"
    },
    {
      "id": 132361,
      "name": "Kamalganj",
      "latitude": "27.26181000",
      "longitude": "79.63134000"
    },
    {
      "id": 132364,
      "name": "Kampil",
      "latitude": "27.61268000",
      "longitude": "79.27687000"
    },
    {
      "id": 132697,
      "name": "Kandhla",
      "latitude": "29.32104000",
      "longitude": "77.27101000"
    },
    {
      "id": 132378,
      "name": "Kannauj",
      "latitude": "27.01770000",
      "longitude": "79.67846000"
    },
    {
      "id": 132384,
      "name": "Kanpur",
      "latitude": "26.46523000",
      "longitude": "80.34975000"
    },
    {
      "id": 132385,
      "name": "Kanpur Dehat",
      "latitude": "26.41506000",
      "longitude": "79.98957000"
    },
    {
      "id": 132711,
      "name": "Kant",
      "latitude": "27.81049000",
      "longitude": "79.79185000"
    },
    {
      "id": 132712,
      "name": "Kanth",
      "latitude": "29.05939000",
      "longitude": "78.62951000"
    },
    {
      "id": 147493,
      "name": "Kaptanganj",
      "latitude": "26.93000000",
      "longitude": "83.72000000"
    },
    {
      "id": 147494,
      "name": "Kara",
      "latitude": "25.70000000",
      "longitude": "81.35000000"
    },
    {
      "id": 132413,
      "name": "Karari",
      "latitude": "25.45241000",
      "longitude": "81.42675000"
    },
    {
      "id": 147495,
      "name": "Karbigwan",
      "latitude": "26.20000000",
      "longitude": "80.50000000"
    },
    {
      "id": 147496,
      "name": "Karchana",
      "latitude": "25.28000000",
      "longitude": "81.93000000"
    },
    {
      "id": 132400,
      "name": "Karhal",
      "latitude": "27.00089000",
      "longitude": "78.93935000"
    },
    {
      "id": 132722,
      "name": "Kasganj",
      "latitude": "27.80882000",
      "longitude": "78.64579000"
    },
    {
      "id": 132426,
      "name": "Katra",
      "latitude": "27.50871000",
      "longitude": "82.02636000"
    },
    {
      "id": 147497,
      "name": "Kausani",
      "latitude": "29.84305556",
      "longitude": "79.60333333"
    },
    {
      "id": 132430,
      "name": "Kaushambi District",
      "latitude": "25.53074000",
      "longitude": "81.37729000"
    },
    {
      "id": 132440,
      "name": "Kemri",
      "latitude": "28.80673000",
      "longitude": "79.20480000"
    },
    {
      "id": 132449,
      "name": "Khada",
      "latitude": "27.18333000",
      "longitude": "83.88333000"
    },
    {
      "id": 132512,
      "name": "Khaga",
      "latitude": "25.77215000",
      "longitude": "81.10393000"
    },
    {
      "id": 147498,
      "name": "Khailar",
      "latitude": "25.35000000",
      "longitude": "78.53000000"
    },
    {
      "id": 132454,
      "name": "Khair",
      "latitude": "27.94195000",
      "longitude": "77.84243000"
    },
    {
      "id": 132455,
      "name": "Khairabad",
      "latitude": "27.52698000",
      "longitude": "80.75461000"
    },
    {
      "id": 132459,
      "name": "Khalilabad",
      "latitude": "26.77268000",
      "longitude": "83.07179000"
    },
    {
      "id": 132514,
      "name": "Khanpur",
      "latitude": "28.53446000",
      "longitude": "78.06546000"
    },
    {
      "id": 132473,
      "name": "Kharela",
      "latitude": "25.54277000",
      "longitude": "79.81235000"
    },
    {
      "id": 132475,
      "name": "Khargupur",
      "latitude": "27.37611000",
      "longitude": "81.98820000"
    },
    {
      "id": 132479,
      "name": "Kharkhauda",
      "latitude": "28.83644000",
      "longitude": "77.74159000"
    },
    {
      "id": 132483,
      "name": "Khatauli",
      "latitude": "29.27844000",
      "longitude": "77.73302000"
    },
    {
      "id": 132490,
      "name": "Khekra",
      "latitude": "28.86586000",
      "longitude": "77.28410000"
    },
    {
      "id": 132492,
      "name": "Kheri",
      "latitude": "28.11667000",
      "longitude": "80.71667000"
    },
    {
      "id": 132503,
      "name": "Khudaganj",
      "latitude": "28.14607000",
      "longitude": "79.71472000"
    },
    {
      "id": 132509,
      "name": "Khurja",
      "latitude": "28.25382000",
      "longitude": "77.85535000"
    },
    {
      "id": 132520,
      "name": "Khutar",
      "latitude": "28.20307000",
      "longitude": "80.27046000"
    },
    {
      "id": 132528,
      "name": "Kirakat",
      "latitude": "25.63745000",
      "longitude": "82.91596000"
    },
    {
      "id": 132526,
      "name": "Kiraoli",
      "latitude": "27.13768000",
      "longitude": "77.78516000"
    },
    {
      "id": 132734,
      "name": "Kiratpur",
      "latitude": "29.50671000",
      "longitude": "78.20613000"
    },
    {
      "id": 132531,
      "name": "Kishanpur",
      "latitude": "25.64232000",
      "longitude": "81.02270000"
    },
    {
      "id": 147499,
      "name": "Kishanpur baral",
      "latitude": "29.20000000",
      "longitude": "77.28333333"
    },
    {
      "id": 132532,
      "name": "Kishni",
      "latitude": "27.02487000",
      "longitude": "79.26200000"
    },
    {
      "id": 132535,
      "name": "Kithor",
      "latitude": "28.86684000",
      "longitude": "77.93861000"
    },
    {
      "id": 132564,
      "name": "Konch",
      "latitude": "25.99451000",
      "longitude": "79.15127000"
    },
    {
      "id": 132575,
      "name": "Kopaganj",
      "latitude": "26.01923000",
      "longitude": "83.56630000"
    },
    {
      "id": 132589,
      "name": "Kosi",
      "latitude": "27.79449000",
      "longitude": "77.43680000"
    },
    {
      "id": 132592,
      "name": "Kota",
      "latitude": "24.44643000",
      "longitude": "83.13063000"
    },
    {
      "id": 132605,
      "name": "Kotra",
      "latitude": "25.80770000",
      "longitude": "79.30909000"
    },
    {
      "id": 147500,
      "name": "Kuchesar",
      "latitude": "28.68333333",
      "longitude": "77.95000000"
    },
    {
      "id": 147501,
      "name": "Kudarkot",
      "latitude": "26.81666667",
      "longitude": "79.40000000"
    },
    {
      "id": 132635,
      "name": "Kulpahar",
      "latitude": "25.32007000",
      "longitude": "79.63931000"
    },
    {
      "id": 132644,
      "name": "Kunda",
      "latitude": "25.71702000",
      "longitude": "81.51396000"
    },
    {
      "id": 132645,
      "name": "Kundarkhi",
      "latitude": "28.68304000",
      "longitude": "78.78559000"
    },
    {
      "id": 147502,
      "name": "Kundarki",
      "latitude": "28.68300000",
      "longitude": "78.78500000"
    },
    {
      "id": 132664,
      "name": "Kurara",
      "latitude": "25.98046000",
      "longitude": "79.98984000"
    },
    {
      "id": 147503,
      "name": "Kurebharsaidkhanpur",
      "latitude": "26.43333333",
      "longitude": "82.11666667"
    },
    {
      "id": 132665,
      "name": "Kushinagar",
      "latitude": "26.74028000",
      "longitude": "83.88889000"
    },
    {
      "id": 147504,
      "name": "Kusmara",
      "latitude": "27.11666667",
      "longitude": "79.28333333"
    },
    {
      "id": 147505,
      "name": "Kuthaund",
      "latitude": "26.36666667",
      "longitude": "79.41666667"
    },
    {
      "id": 132790,
      "name": "Laharpur",
      "latitude": "27.70827000",
      "longitude": "80.90256000"
    },
    {
      "id": 132748,
      "name": "Lakhimpur",
      "latitude": "27.94822000",
      "longitude": "80.77935000"
    },
    {
      "id": 132745,
      "name": "Lakhna",
      "latitude": "26.64822000",
      "longitude": "79.14770000"
    },
    {
      "id": 132796,
      "name": "Lalganj",
      "latitude": "25.93182000",
      "longitude": "81.70478000"
    },
    {
      "id": 132755,
      "name": "Lalitpur",
      "latitude": "24.50000000",
      "longitude": "78.50000000"
    },
    {
      "id": 147506,
      "name": "Lambhua",
      "latitude": "26.15000000",
      "longitude": "82.21000000"
    },
    {
      "id": 132757,
      "name": "Lar",
      "latitude": "26.20394000",
      "longitude": "83.96906000"
    },
    {
      "id": 147507,
      "name": "Lawar",
      "latitude": "29.11666667",
      "longitude": "77.76666667"
    },
    {
      "id": 132803,
      "name": "Lawar Khas",
      "latitude": "29.11091000",
      "longitude": "77.77767000"
    },
    {
      "id": 132775,
      "name": "Loni",
      "latitude": "28.75143000",
      "longitude": "77.29023000"
    },
    {
      "id": 132782,
      "name": "Lucknow",
      "latitude": "26.83928000",
      "longitude": "80.92313000"
    },
    {
      "id": 132783,
      "name": "Lucknow District",
      "latitude": "26.75000000",
      "longitude": "81.00000000"
    },
    {
      "id": 147508,
      "name": "Machhali Shahar",
      "latitude": "25.68000000",
      "longitude": "82.42000000"
    },
    {
      "id": 132805,
      "name": "Machhlishahr",
      "latitude": "25.68564000",
      "longitude": "82.41106000"
    },
    {
      "id": 133057,
      "name": "Madhoganj",
      "latitude": "27.11807000",
      "longitude": "80.14058000"
    },
    {
      "id": 133058,
      "name": "Madhogarh",
      "latitude": "26.27522000",
      "longitude": "79.18590000"
    },
    {
      "id": 132823,
      "name": "Maghar",
      "latitude": "26.75586000",
      "longitude": "83.12773000"
    },
    {
      "id": 132845,
      "name": "Mahaban",
      "latitude": "27.43262000",
      "longitude": "77.74338000"
    },
    {
      "id": 132826,
      "name": "Maharajganj",
      "latitude": "27.16945000",
      "longitude": "83.50667000"
    },
    {
      "id": 132836,
      "name": "Mahmudabad",
      "latitude": "27.29191000",
      "longitude": "81.11775000"
    },
    {
      "id": 132837,
      "name": "Mahoba",
      "latitude": "25.29210000",
      "longitude": "79.87242000"
    },
    {
      "id": 132839,
      "name": "Maholi",
      "latitude": "27.66368000",
      "longitude": "80.47371000"
    },
    {
      "id": 147509,
      "name": "Mahrajganj",
      "latitude": "26.26666667",
      "longitude": "83.11666667"
    },
    {
      "id": 147510,
      "name": "Mahrajganj (Raebareli)",
      "latitude": "26.38333333",
      "longitude": "81.28333333"
    },
    {
      "id": 132840,
      "name": "Mahroni",
      "latitude": "24.58624000",
      "longitude": "78.72771000"
    },
    {
      "id": 147511,
      "name": "Mahul",
      "latitude": "26.13333333",
      "longitude": "82.81666667"
    },
    {
      "id": 132855,
      "name": "Mailani",
      "latitude": "28.29088000",
      "longitude": "80.34380000"
    },
    {
      "id": 132857,
      "name": "Mainpuri",
      "latitude": "27.16667000",
      "longitude": "79.00000000"
    },
    {
      "id": 147512,
      "name": "Majhupur",
      "latitude": "27.03333333",
      "longitude": "79.41666667"
    },
    {
      "id": 147513,
      "name": "Makanpur",
      "latitude": "26.90222222",
      "longitude": "79.97805556"
    },
    {
      "id": 147514,
      "name": "Malasa",
      "latitude": "26.26755000",
      "longitude": "79.94489000"
    },
    {
      "id": 132878,
      "name": "Malihabad",
      "latitude": "26.92223000",
      "longitude": "80.71078000"
    },
    {
      "id": 132899,
      "name": "Mandawar",
      "latitude": "29.48655000",
      "longitude": "78.12732000"
    },
    {
      "id": 132910,
      "name": "Maniar",
      "latitude": "25.98546000",
      "longitude": "84.17233000"
    },
    {
      "id": 133079,
      "name": "Manikpur",
      "latitude": "25.06083000",
      "longitude": "81.09961000"
    },
    {
      "id": 132914,
      "name": "Manjhanpur",
      "latitude": "25.53046000",
      "longitude": "81.37566000"
    },
    {
      "id": 132917,
      "name": "Mankapur",
      "latitude": "27.05189000",
      "longitude": "82.22961000"
    },
    {
      "id": 133087,
      "name": "Marahra",
      "latitude": "27.73680000",
      "longitude": "78.56891000"
    },
    {
      "id": 132936,
      "name": "Mariahu",
      "latitude": "25.60404000",
      "longitude": "82.60379000"
    },
    {
      "id": 132940,
      "name": "Mataundh",
      "latitude": "25.43594000",
      "longitude": "80.15653000"
    },
    {
      "id": 132941,
      "name": "Mathura",
      "latitude": "27.63333000",
      "longitude": "77.58333000"
    },
    {
      "id": 132944,
      "name": "Mau",
      "latitude": "26.02940000",
      "longitude": "83.50756000"
    },
    {
      "id": 147515,
      "name": "Mau Aima",
      "latitude": "25.70000000",
      "longitude": "81.91666667"
    },
    {
      "id": 132945,
      "name": "Mau Aimma",
      "latitude": "25.69515000",
      "longitude": "81.92336000"
    },
    {
      "id": 132946,
      "name": "Maudaha",
      "latitude": "25.68312000",
      "longitude": "80.11419000"
    },
    {
      "id": 147516,
      "name": "Maurawan",
      "latitude": "26.43000000",
      "longitude": "80.88000000"
    },
    {
      "id": 132951,
      "name": "Mawana",
      "latitude": "29.10288000",
      "longitude": "77.92199000"
    },
    {
      "id": 147517,
      "name": "Mawar",
      "latitude": "26.30416667",
      "longitude": "79.92111111"
    },
    {
      "id": 132958,
      "name": "Meerut",
      "latitude": "28.91667000",
      "longitude": "77.68333000"
    },
    {
      "id": 147518,
      "name": "Mehdawal",
      "latitude": "26.98333333",
      "longitude": "83.11666667"
    },
    {
      "id": 132962,
      "name": "Mehnagar",
      "latitude": "25.87889000",
      "longitude": "83.11611000"
    },
    {
      "id": 132963,
      "name": "Mehndawal",
      "latitude": "26.97579000",
      "longitude": "83.10995000"
    },
    {
      "id": 132974,
      "name": "Milak",
      "latitude": "28.61031000",
      "longitude": "79.16997000"
    },
    {
      "id": 147519,
      "name": "Milkipur",
      "latitude": "26.60000000",
      "longitude": "81.91000000"
    },
    {
      "id": 133096,
      "name": "Miranpur",
      "latitude": "29.29026000",
      "longitude": "77.94939000"
    },
    {
      "id": 133097,
      "name": "Miranpur Katra",
      "latitude": "28.02963000",
      "longitude": "79.66778000"
    },
    {
      "id": 133095,
      "name": "Mirganj",
      "latitude": "28.54012000",
      "longitude": "79.20817000"
    },
    {
      "id": 132976,
      "name": "Mirzapur",
      "latitude": "25.14490000",
      "longitude": "82.56534000"
    },
    {
      "id": 132977,
      "name": "Misrikh",
      "latitude": "27.43137000",
      "longitude": "80.53157000"
    },
    {
      "id": 132986,
      "name": "Mohan",
      "latitude": "26.78008000",
      "longitude": "80.67497000"
    },
    {
      "id": 132981,
      "name": "Mohanpur",
      "latitude": "28.25261000",
      "longitude": "80.24498000"
    },
    {
      "id": 133001,
      "name": "Moradabad",
      "latitude": "28.85250000",
      "longitude": "78.79703000"
    },
    {
      "id": 133004,
      "name": "Moth",
      "latitude": "25.72595000",
      "longitude": "78.95029000"
    },
    {
      "id": 133007,
      "name": "Mubarakpur",
      "latitude": "26.08866000",
      "longitude": "83.29088000"
    },
    {
      "id": 133014,
      "name": "Mughal Sarai",
      "latitude": "25.28307000",
      "longitude": "83.11968000"
    },
    {
      "id": 133016,
      "name": "Muhammadabad",
      "latitude": "25.61907000",
      "longitude": "83.75576000"
    },
    {
      "id": 147520,
      "name": "Mukteshwar",
      "latitude": "29.47220000",
      "longitude": "79.64790000"
    },
    {
      "id": 147521,
      "name": "Mungra Badshahpur",
      "latitude": "25.65000000",
      "longitude": "82.18000000"
    },
    {
      "id": 147522,
      "name": "Munsyari",
      "latitude": "30.06741389",
      "longitude": "80.23856111"
    },
    {
      "id": 147523,
      "name": "Muradabad",
      "latitude": "28.83888889",
      "longitude": "78.77694444"
    },
    {
      "id": 133043,
      "name": "Muradnagar",
      "latitude": "28.78069000",
      "longitude": "77.49865000"
    },
    {
      "id": 133038,
      "name": "Mursan",
      "latitude": "27.57788000",
      "longitude": "77.94091000"
    },
    {
      "id": 133048,
      "name": "Musafir-Khana",
      "latitude": "26.37837000",
      "longitude": "81.79607000"
    },
    {
      "id": 147524,
      "name": "Musafirkhana",
      "latitude": "26.45000000",
      "longitude": "81.80000000"
    },
    {
      "id": 133051,
      "name": "Muzaffarnagar",
      "latitude": "29.45000000",
      "longitude": "77.58333000"
    },
    {
      "id": 133109,
      "name": "Nadigaon",
      "latitude": "26.10784000",
      "longitude": "79.02283000"
    },
    {
      "id": 133120,
      "name": "Nagina",
      "latitude": "29.44433000",
      "longitude": "78.43646000"
    },
    {
      "id": 147525,
      "name": "Nagla",
      "latitude": "29.01000000",
      "longitude": "79.51000000"
    },
    {
      "id": 133119,
      "name": "Nagram",
      "latitude": "26.61872000",
      "longitude": "81.14043000"
    },
    {
      "id": 133127,
      "name": "Najibabad",
      "latitude": "29.61194000",
      "longitude": "78.34274000"
    },
    {
      "id": 133129,
      "name": "Nakur",
      "latitude": "29.91964000",
      "longitude": "77.30438000"
    },
    {
      "id": 133139,
      "name": "Nanauta",
      "latitude": "29.71215000",
      "longitude": "77.41728000"
    },
    {
      "id": 133142,
      "name": "Nandgaon",
      "latitude": "27.71102000",
      "longitude": "77.38653000"
    },
    {
      "id": 133270,
      "name": "Nanpara",
      "latitude": "27.86459000",
      "longitude": "81.50036000"
    },
    {
      "id": 133161,
      "name": "Narauli",
      "latitude": "28.48547000",
      "longitude": "78.71484000"
    },
    {
      "id": 133162,
      "name": "Naraura",
      "latitude": "28.20147000",
      "longitude": "78.38723000"
    },
    {
      "id": 147526,
      "name": "Narora",
      "latitude": "28.19666667",
      "longitude": "78.38138889"
    },
    {
      "id": 147527,
      "name": "Naugama",
      "latitude": "27.70000000",
      "longitude": "79.65000000"
    },
    {
      "id": 147528,
      "name": "Naurangpur",
      "latitude": "27.16666667",
      "longitude": "79.78333333"
    },
    {
      "id": 133183,
      "name": "Nautanwa",
      "latitude": "27.42752000",
      "longitude": "83.41789000"
    },
    {
      "id": 133191,
      "name": "Nawabganj",
      "latitude": "26.93129000",
      "longitude": "81.19841000"
    },
    {
      "id": 147529,
      "name": "Nawabganj (Barabanki)",
      "latitude": "26.94000000",
      "longitude": "81.19000000"
    },
    {
      "id": 147530,
      "name": "Nawabganj (Bareilly)",
      "latitude": "28.54000000",
      "longitude": "79.63300000"
    },
    {
      "id": 147531,
      "name": "Newara",
      "latitude": "27.76666667",
      "longitude": "79.28333333"
    },
    {
      "id": 133212,
      "name": "Nichlaul",
      "latitude": "27.31247000",
      "longitude": "83.72530000"
    },
    {
      "id": 147532,
      "name": "Nigoh",
      "latitude": "26.75000000",
      "longitude": "79.15000000"
    },
    {
      "id": 133215,
      "name": "Nihtaur",
      "latitude": "29.32416000",
      "longitude": "78.38724000"
    },
    {
      "id": 133225,
      "name": "Niwari",
      "latitude": "28.87611000",
      "longitude": "77.53820000"
    },
    {
      "id": 133228,
      "name": "Nizamabad",
      "latitude": "26.05295000",
      "longitude": "83.05787000"
    },
    {
      "id": 133230,
      "name": "Noida",
      "latitude": "28.58000000",
      "longitude": "77.33000000"
    },
    {
      "id": 133292,
      "name": "Nurpur",
      "latitude": "29.14956000",
      "longitude": "78.40840000"
    },
    {
      "id": 133295,
      "name": "Obra",
      "latitude": "24.41863000",
      "longitude": "82.98797000"
    },
    {
      "id": 133302,
      "name": "Orai",
      "latitude": "25.99023000",
      "longitude": "79.45334000"
    },
    {
      "id": 133303,
      "name": "Oran",
      "latitude": "25.36882000",
      "longitude": "80.74230000"
    },
    {
      "id": 133309,
      "name": "Pachperwa",
      "latitude": "27.51234000",
      "longitude": "82.64297000"
    },
    {
      "id": 133316,
      "name": "Padrauna",
      "latitude": "26.90403000",
      "longitude": "83.98087000"
    },
    {
      "id": 133318,
      "name": "Pahasu",
      "latitude": "28.17220000",
      "longitude": "78.06376000"
    },
    {
      "id": 147533,
      "name": "Paigaon",
      "latitude": "27.78333333",
      "longitude": "77.53333333"
    },
    {
      "id": 133531,
      "name": "Pali",
      "latitude": "24.49188000",
      "longitude": "78.41617000"
    },
    {
      "id": 133326,
      "name": "Palia Kalan",
      "latitude": "28.43205000",
      "longitude": "80.58137000"
    },
    {
      "id": 147534,
      "name": "Paras Rampur",
      "latitude": "31.32388889",
      "longitude": "75.67472222"
    },
    {
      "id": 133550,
      "name": "Parichha",
      "latitude": "25.50789000",
      "longitude": "78.75954000"
    },
    {
      "id": 133372,
      "name": "Parichhatgarh",
      "latitude": "28.97841000",
      "longitude": "77.93422000"
    },
    {
      "id": 133365,
      "name": "Parshadepur",
      "latitude": "26.07354000",
      "longitude": "81.49207000"
    },
    {
      "id": 147535,
      "name": "Pathakpura",
      "latitude": "26.84441000",
      "longitude": "78.74037000"
    },
    {
      "id": 133385,
      "name": "Patiali",
      "latitude": "27.69086000",
      "longitude": "78.99823000"
    },
    {
      "id": 133391,
      "name": "Patti",
      "latitude": "25.92150000",
      "longitude": "82.20048000"
    },
    {
      "id": 133398,
      "name": "Pawayan",
      "latitude": "28.06626000",
      "longitude": "80.10305000"
    },
    {
      "id": 147536,
      "name": "Payagpur",
      "latitude": "27.40000000",
      "longitude": "81.80000000"
    },
    {
      "id": 133432,
      "name": "Phalauda",
      "latitude": "29.18824000",
      "longitude": "77.82996000"
    },
    {
      "id": 147537,
      "name": "Phaphamau",
      "latitude": "25.53333333",
      "longitude": "81.86666667"
    },
    {
      "id": 133435,
      "name": "Phaphund",
      "latitude": "26.59888000",
      "longitude": "79.46437000"
    },
    {
      "id": 133436,
      "name": "Phariha",
      "latitude": "27.32166000",
      "longitude": "78.47267000"
    },
    {
      "id": 147538,
      "name": "Pheona",
      "latitude": "29.08333333",
      "longitude": "78.35000000"
    },
    {
      "id": 133443,
      "name": "Phulpur",
      "latitude": "25.54895000",
      "longitude": "82.08950000"
    },
    {
      "id": 147539,
      "name": "Pichhaura",
      "latitude": "26.33333333",
      "longitude": "79.31666667"
    },
    {
      "id": 133445,
      "name": "Pihani",
      "latitude": "27.61987000",
      "longitude": "80.20343000"
    },
    {
      "id": 133561,
      "name": "Pilibhit",
      "latitude": "28.63124000",
      "longitude": "79.80436000"
    },
    {
      "id": 133447,
      "name": "Pilkhua",
      "latitude": "28.71271000",
      "longitude": "77.65600000"
    },
    {
      "id": 147540,
      "name": "Pilkhuwa",
      "latitude": "28.71196944",
      "longitude": "77.65445556"
    },
    {
      "id": 133452,
      "name": "Pinahat",
      "latitude": "26.88487000",
      "longitude": "78.37647000"
    },
    {
      "id": 133456,
      "name": "Pipraich",
      "latitude": "26.82745000",
      "longitude": "83.52632000"
    },
    {
      "id": 147541,
      "name": "Pipri",
      "latitude": "24.18000000",
      "longitude": "83.00000000"
    },
    {
      "id": 133488,
      "name": "Pratapgarh",
      "latitude": "25.75000000",
      "longitude": "81.75000000"
    },
    {
      "id": 57640,
      "name": "Prayagraj (Allahabad)",
      "latitude": "25.42012000",
      "longitude": "81.88385000"
    },
    {
      "id": 133495,
      "name": "Pukhrayan",
      "latitude": "26.22375000",
      "longitude": "79.83739000"
    },
    {
      "id": 133569,
      "name": "Puranpur",
      "latitude": "28.51283000",
      "longitude": "80.14829000"
    },
    {
      "id": 147542,
      "name": "Purmafi",
      "latitude": "29.55000000",
      "longitude": "77.26666667"
    },
    {
      "id": 133514,
      "name": "Purwa",
      "latitude": "26.45756000",
      "longitude": "80.77403000"
    },
    {
      "id": 147543,
      "name": "Qadirganj",
      "latitude": "27.78333333",
      "longitude": "79.06666667"
    },
    {
      "id": 133578,
      "name": "Rabupura",
      "latitude": "28.25153000",
      "longitude": "77.60253000"
    },
    {
      "id": 147544,
      "name": "Radha Kund",
      "latitude": "27.52444444",
      "longitude": "77.49027778"
    },
    {
      "id": 133658,
      "name": "Radhakund",
      "latitude": "27.52432000",
      "longitude": "77.49101000"
    },
    {
      "id": 133580,
      "name": "Raebareli",
      "latitude": "26.23090000",
      "longitude": "81.23315000"
    },
    {
      "id": 133688,
      "name": "Rajapur",
      "latitude": "25.38725000",
      "longitude": "81.15125000"
    },
    {
      "id": 133700,
      "name": "Ramkola",
      "latitude": "26.90172000",
      "longitude": "83.83758000"
    },
    {
      "id": 133704,
      "name": "Ramnagar",
      "latitude": "25.26907000",
      "longitude": "83.02971000"
    },
    {
      "id": 133705,
      "name": "Rampur",
      "latitude": "28.81014000",
      "longitude": "79.02699000"
    },
    {
      "id": 133707,
      "name": "Rampura",
      "latitude": "26.34967000",
      "longitude": "79.18234000"
    },
    {
      "id": 133720,
      "name": "Ranipur",
      "latitude": "25.25034000",
      "longitude": "79.06204000"
    },
    {
      "id": 147545,
      "name": "Ranipur Barsi",
      "latitude": "29.90000000",
      "longitude": "77.21666667"
    },
    {
      "id": 133612,
      "name": "Rasra",
      "latitude": "25.85760000",
      "longitude": "83.85487000"
    },
    {
      "id": 133613,
      "name": "Rasulabad",
      "latitude": "26.74491000",
      "longitude": "80.49012000"
    },
    {
      "id": 133723,
      "name": "Rath",
      "latitude": "25.59474000",
      "longitude": "79.56660000"
    },
    {
      "id": 133728,
      "name": "Raya",
      "latitude": "27.55607000",
      "longitude": "77.78972000"
    },
    {
      "id": 147546,
      "name": "Rehar",
      "latitude": "29.36666667",
      "longitude": "78.76666667"
    },
    {
      "id": 147547,
      "name": "Renukoot",
      "latitude": "24.20000000",
      "longitude": "83.03000000"
    },
    {
      "id": 133628,
      "name": "Renukut",
      "latitude": "24.21641000",
      "longitude": "83.03580000"
    },
    {
      "id": 133629,
      "name": "Reoti",
      "latitude": "25.85091000",
      "longitude": "84.37780000"
    },
    {
      "id": 147548,
      "name": "Reotipur",
      "latitude": "25.55000000",
      "longitude": "83.71666667"
    },
    {
      "id": 133637,
      "name": "Richha",
      "latitude": "28.69467000",
      "longitude": "79.52284000"
    },
    {
      "id": 133641,
      "name": "Robertsganj",
      "latitude": "24.68860000",
      "longitude": "83.06784000"
    },
    {
      "id": 133737,
      "name": "Rudarpur",
      "latitude": "26.44467000",
      "longitude": "83.61302000"
    },
    {
      "id": 147549,
      "name": "Rudauli",
      "latitude": "26.75000000",
      "longitude": "81.75000000"
    },
    {
      "id": 133655,
      "name": "Rura",
      "latitude": "26.49001000",
      "longitude": "79.90108000"
    },
    {
      "id": 147550,
      "name": "Sabalpur",
      "latitude": "27.17604900",
      "longitude": "79.42012000"
    },
    {
      "id": 147551,
      "name": "Sachendi",
      "latitude": "26.37116500",
      "longitude": "80.11230000"
    },
    {
      "id": 133744,
      "name": "Sadabad",
      "latitude": "27.43818000",
      "longitude": "78.03758000"
    },
    {
      "id": 134059,
      "name": "Sadat",
      "latitude": "25.67117000",
      "longitude": "83.30269000"
    },
    {
      "id": 133747,
      "name": "Safipur",
      "latitude": "26.73783000",
      "longitude": "80.34350000"
    },
    {
      "id": 133753,
      "name": "Saharanpur",
      "latitude": "29.90000000",
      "longitude": "77.68333000"
    },
    {
      "id": 133750,
      "name": "Sahaspur",
      "latitude": "29.12125000",
      "longitude": "78.62273000"
    },
    {
      "id": 133751,
      "name": "Sahaswan",
      "latitude": "28.07227000",
      "longitude": "78.75082000"
    },
    {
      "id": 133754,
      "name": "Sahawar",
      "latitude": "27.79603000",
      "longitude": "78.83373000"
    },
    {
      "id": 147552,
      "name": "Sahibabad",
      "latitude": "28.68333333",
      "longitude": "77.40000000"
    },
    {
      "id": 147553,
      "name": "Sahpau",
      "latitude": "27.43527778",
      "longitude": "78.14138889"
    },
    {
      "id": 133755,
      "name": "Saidpur",
      "latitude": "25.53749000",
      "longitude": "83.22378000"
    },
    {
      "id": 147554,
      "name": "Sakhanu",
      "latitude": "27.95472222",
      "longitude": "79.22750000"
    },
    {
      "id": 133762,
      "name": "Sakit",
      "latitude": "27.43463000",
      "longitude": "78.77903000"
    },
    {
      "id": 147555,
      "name": "Salempur",
      "latitude": "26.30000000",
      "longitude": "83.91666667"
    },
    {
      "id": 133765,
      "name": "Salon",
      "latitude": "26.02857000",
      "longitude": "81.45403000"
    },
    {
      "id": 133770,
      "name": "Sambhal",
      "latitude": "28.58498000",
      "longitude": "78.56959000"
    },
    {
      "id": 133773,
      "name": "Samthar",
      "latitude": "25.84348000",
      "longitude": "78.90683000"
    },
    {
      "id": 134072,
      "name": "Sandi",
      "latitude": "27.28867000",
      "longitude": "79.95190000"
    },
    {
      "id": 133778,
      "name": "Sandila",
      "latitude": "27.06989000",
      "longitude": "80.51497000"
    },
    {
      "id": 133792,
      "name": "Sant Kabir Nagar",
      "latitude": "26.79016000",
      "longitude": "83.03481000"
    },
    {
      "id": 133793,
      "name": "Sant Ravi Das Nagar",
      "latitude": "25.35792000",
      "longitude": "82.43080000"
    },
    {
      "id": 133813,
      "name": "Sarai Akil",
      "latitude": "25.37890000",
      "longitude": "81.51035000"
    },
    {
      "id": 133799,
      "name": "Sarai Ekdil",
      "latitude": "26.74442000",
      "longitude": "79.09353000"
    },
    {
      "id": 133812,
      "name": "Sarai Mir",
      "latitude": "26.02705000",
      "longitude": "82.91843000"
    },
    {
      "id": 133802,
      "name": "Sarauli",
      "latitude": "28.49404000",
      "longitude": "79.09177000"
    },
    {
      "id": 133803,
      "name": "Sardhana",
      "latitude": "29.14551000",
      "longitude": "77.61433000"
    },
    {
      "id": 133814,
      "name": "Sarila",
      "latitude": "25.77579000",
      "longitude": "79.67535000"
    },
    {
      "id": 147556,
      "name": "Sarurpur",
      "latitude": "29.03333333",
      "longitude": "77.23333333"
    },
    {
      "id": 134080,
      "name": "Sasni",
      "latitude": "27.70287000",
      "longitude": "78.08278000"
    },
    {
      "id": 133821,
      "name": "Satrikh",
      "latitude": "26.86045000",
      "longitude": "81.19567000"
    },
    {
      "id": 133828,
      "name": "Saurikh",
      "latitude": "27.03051000",
      "longitude": "79.48813000"
    },
    {
      "id": 133833,
      "name": "Sector",
      "latitude": "28.57080000",
      "longitude": "77.32610000"
    },
    {
      "id": 133839,
      "name": "Seohara",
      "latitude": "29.20904000",
      "longitude": "78.58837000"
    },
    {
      "id": 133905,
      "name": "Shahabad",
      "latitude": "27.64310000",
      "longitude": "79.94020000"
    },
    {
      "id": 133892,
      "name": "Shahganj",
      "latitude": "26.04965000",
      "longitude": "82.68423000"
    },
    {
      "id": 133894,
      "name": "Shahi",
      "latitude": "28.55023000",
      "longitude": "79.31761000"
    },
    {
      "id": 133895,
      "name": "Shahjahanpur",
      "latitude": "28.00000000",
      "longitude": "79.83333000"
    },
    {
      "id": 133901,
      "name": "Shahpur",
      "latitude": "29.35010000",
      "longitude": "77.55160000"
    },
    {
      "id": 133913,
      "name": "Shamli",
      "latitude": "29.44970000",
      "longitude": "77.30959000"
    },
    {
      "id": 133855,
      "name": "Shamsabad",
      "latitude": "27.01718000",
      "longitude": "78.12358000"
    },
    {
      "id": 133856,
      "name": "Shankargarh",
      "latitude": "25.18200000",
      "longitude": "81.61769000"
    },
    {
      "id": 133862,
      "name": "Shergarh",
      "latitude": "28.65128000",
      "longitude": "79.36815000"
    },
    {
      "id": 133864,
      "name": "Sherkot",
      "latitude": "29.32704000",
      "longitude": "78.57429000"
    },
    {
      "id": 147557,
      "name": "Shibnagar",
      "latitude": "28.50000000",
      "longitude": "79.98333333"
    },
    {
      "id": 133869,
      "name": "Shikarpur",
      "latitude": "28.28072000",
      "longitude": "78.01411000"
    },
    {
      "id": 147558,
      "name": "Shikarpur (Bulandshahr)",
      "latitude": "28.28000000",
      "longitude": "78.02000000"
    },
    {
      "id": 133867,
      "name": "Shikohabad",
      "latitude": "27.10800000",
      "longitude": "78.58661000"
    },
    {
      "id": 133914,
      "name": "Shishgarh",
      "latitude": "28.72928000",
      "longitude": "79.31469000"
    },
    {
      "id": 147559,
      "name": "Shivrajpur",
      "latitude": "26.85722222",
      "longitude": "79.11500000"
    },
    {
      "id": 133885,
      "name": "Shrawasti",
      "latitude": "27.50746000",
      "longitude": "82.00470000"
    },
    {
      "id": 133918,
      "name": "Siddharthnagar",
      "latitude": "27.25797000",
      "longitude": "83.01465000"
    },
    {
      "id": 147560,
      "name": "Siddhaur",
      "latitude": "26.76944444",
      "longitude": "81.41805556"
    },
    {
      "id": 133921,
      "name": "Sidhauli",
      "latitude": "27.28202000",
      "longitude": "80.83450000"
    },
    {
      "id": 133923,
      "name": "Sidhpura",
      "latitude": "27.63312000",
      "longitude": "78.86918000"
    },
    {
      "id": 133929,
      "name": "Sikandarabad",
      "latitude": "28.45226000",
      "longitude": "77.70004000"
    },
    {
      "id": 133928,
      "name": "Sikandarpur",
      "latitude": "26.04327000",
      "longitude": "84.05298000"
    },
    {
      "id": 133930,
      "name": "Sikandra",
      "latitude": "26.36722000",
      "longitude": "79.62980000"
    },
    {
      "id": 133931,
      "name": "Sikandra Rao",
      "latitude": "27.68859000",
      "longitude": "78.37985000"
    },
    {
      "id": 147561,
      "name": "Sikandrabad",
      "latitude": "28.44952500",
      "longitude": "77.69415278"
    },
    {
      "id": 133969,
      "name": "Sirathu",
      "latitude": "25.64292000",
      "longitude": "81.31855000"
    },
    {
      "id": 133965,
      "name": "Sirsa",
      "latitude": "25.26340000",
      "longitude": "82.09190000"
    },
    {
      "id": 133966,
      "name": "Sirsaganj",
      "latitude": "27.05715000",
      "longitude": "78.68661000"
    },
    {
      "id": 133963,
      "name": "Sirsi",
      "latitude": "28.63916000",
      "longitude": "78.64303000"
    },
    {
      "id": 133971,
      "name": "Sisauli",
      "latitude": "29.41386000",
      "longitude": "77.46890000"
    },
    {
      "id": 133972,
      "name": "Siswa Bazar",
      "latitude": "27.14652000",
      "longitude": "83.75803000"
    },
    {
      "id": 134091,
      "name": "Sitapur",
      "latitude": "27.50000000",
      "longitude": "80.91667000"
    },
    {
      "id": 133992,
      "name": "Sonbhadra",
      "latitude": "24.40212000",
      "longitude": "83.05352000"
    },
    {
      "id": 134005,
      "name": "Soron",
      "latitude": "27.89055000",
      "longitude": "78.74621000"
    },
    {
      "id": 134056,
      "name": "Suar",
      "latitude": "29.02841000",
      "longitude": "79.05654000"
    },
    {
      "id": 134040,
      "name": "Sultanpur",
      "latitude": "26.25000000",
      "longitude": "82.00000000"
    },
    {
      "id": 134053,
      "name": "Surianwan",
      "latitude": "25.46387000",
      "longitude": "82.41922000"
    },
    {
      "id": 134229,
      "name": "Tajpur",
      "latitude": "29.16242000",
      "longitude": "78.48458000"
    },
    {
      "id": 134231,
      "name": "Talbahat",
      "latitude": "25.04357000",
      "longitude": "78.43441000"
    },
    {
      "id": 134233,
      "name": "Talgram",
      "latitude": "27.04753000",
      "longitude": "79.64811000"
    },
    {
      "id": 134235,
      "name": "Tanda",
      "latitude": "28.97621000",
      "longitude": "78.94187000"
    },
    {
      "id": 147562,
      "name": "Terha",
      "latitude": "25.83330000",
      "longitude": "80.25000000"
    },
    {
      "id": 134136,
      "name": "Thakurdwara",
      "latitude": "29.19203000",
      "longitude": "78.86145000"
    },
    {
      "id": 134165,
      "name": "Thana Bhawan",
      "latitude": "29.58605000",
      "longitude": "77.41811000"
    },
    {
      "id": 147563,
      "name": "Tigri",
      "latitude": "28.51083333",
      "longitude": "77.23888889"
    },
    {
      "id": 134170,
      "name": "Tikaitnagar",
      "latitude": "26.94612000",
      "longitude": "81.56583000"
    },
    {
      "id": 134245,
      "name": "Tikri",
      "latitude": "29.22910000",
      "longitude": "77.35479000"
    },
    {
      "id": 134171,
      "name": "Tilhar",
      "latitude": "27.96282000",
      "longitude": "79.73827000"
    },
    {
      "id": 147564,
      "name": "Tilsahri",
      "latitude": "26.33330000",
      "longitude": "80.41670000"
    },
    {
      "id": 134173,
      "name": "Tindwari",
      "latitude": "25.61739000",
      "longitude": "80.52718000"
    },
    {
      "id": 134202,
      "name": "Titron",
      "latitude": "29.66824000",
      "longitude": "77.32391000"
    },
    {
      "id": 147565,
      "name": "Tori Fatehpur",
      "latitude": "25.45000000",
      "longitude": "79.13330000"
    },
    {
      "id": 134210,
      "name": "Tori-Fatehpur",
      "latitude": "25.45505000",
      "longitude": "79.11428000"
    },
    {
      "id": 134218,
      "name": "Tulsipur",
      "latitude": "27.53370000",
      "longitude": "82.41653000"
    },
    {
      "id": 134248,
      "name": "Tundla",
      "latitude": "27.21460000",
      "longitude": "78.23683000"
    },
    {
      "id": 134261,
      "name": "Ugu",
      "latitude": "26.79681000",
      "longitude": "80.32093000"
    },
    {
      "id": 134262,
      "name": "Ujhani",
      "latitude": "28.00311000",
      "longitude": "79.00821000"
    },
    {
      "id": 147566,
      "name": "Umri",
      "latitude": "26.33333333",
      "longitude": "79.25000000"
    },
    {
      "id": 134471,
      "name": "Un",
      "latitude": "29.58479000",
      "longitude": "77.25540000"
    },
    {
      "id": 134285,
      "name": "Unnao",
      "latitude": "26.50000000",
      "longitude": "80.50000000"
    },
    {
      "id": 147567,
      "name": "Usawan",
      "latitude": "27.81583333",
      "longitude": "79.34861111"
    },
    {
      "id": 134294,
      "name": "Usehat",
      "latitude": "27.79796000",
      "longitude": "79.23763000"
    },
    {
      "id": 147568,
      "name": "Uska",
      "latitude": "27.20000000",
      "longitude": "83.11666667"
    },
    {
      "id": 134296,
      "name": "Utraula",
      "latitude": "27.31933000",
      "longitude": "82.41872000"
    },
    {
      "id": 134327,
      "name": "Varanasi",
      "latitude": "25.31668000",
      "longitude": "83.01041000"
    },
    {
      "id": 147569,
      "name": "Vindhyachal",
      "latitude": "25.16670000",
      "longitude": "82.50000000"
    },
    {
      "id": 134376,
      "name": "Vrindavan",
      "latitude": "27.58105000",
      "longitude": "77.69662000"
    },
    {
      "id": 147570,
      "name": "Walterganj",
      "latitude": "26.86670000",
      "longitude": "82.71670000"
    },
    {
      "id": 134401,
      "name": "Wazirganj",
      "latitude": "28.21145000",
      "longitude": "79.05665000"
    },
    {
      "id": 147571,
      "name": "Yusufpur",
      "latitude": "25.66670000",
      "longitude": "83.46670000"
    },
    {
      "id": 134439,
      "name": "Zafarabad",
      "latitude": "25.69867000",
      "longitude": "82.73354000"
    },
    {
      "id": 134441,
      "name": "Zaidpur",
      "latitude": "26.83093000",
      "longitude": "81.32929000"
    },
    {
      "id": 134442,
      "name": "Zamania",
      "latitude": "25.41961000",
      "longitude": "83.55786000"
    }
  ],
  "country": {
    "id": 101,
    "name": "India",
    "iso3": "IND",
    "iso2": "IN",
    "numeric_code": "356",
    "phone_code": "91",
    "capital": "New Delhi",
    "currency": "INR",
    "currency_name": "Indian rupee",
    "currency_symbol": "",
    "tld": ".in",
    "native": "",
    "region": "Asia",
    "subregion": "Southern Asia",
    "timezones": [
      {
        "zoneName": "Asia/Kolkata",
        "gmtOffset": 19800,
        "gmtOffsetName": "UTC+05:30",
        "abbreviation": "IST",
        "tzName": "Indian Standard Time"
      }
    ],
    "translations": {
      "kr": "",
      "pt-BR": "ndia",
      "pt": "ndia",
      "nl": "India",
      "hr": "Indija",
      "fa": "",
      "de": "Indien",
      "es": "India",
      "fr": "Inde",
      "ja": "",
      "it": "India",
      "cn": "",
      "tr": "Hindistan"
    },
    "latitude": "20.00000000",
    "longitude": "77.00000000",
    "emoji": "",
    "emojiU": "U+1F1EE U+1F1F3"
  }
}