{
  "id": 4959,
  "name": "Bono",
  "state_code": "BO",
  "latitude": "7.65000000",
  "longitude": "-2.50000000",
  "type": "region",
  "cities": [
    {
      "id": 149086,
      "name": "Banda",
      "latitude": "8.14956710",
      "longitude": "-2.36639500"
    },
    {
      "id": 149087,
      "name": "Berekum East",
      "latitude": "7.51117580",
      "longitude": "-2.75998310"
    },
    {
      "id": 149088,
      "name": "Berekum West",
      "latitude": "7.51117580",
      "longitude": "-2.75998310"
    },
    {
      "id": 149089,
      "name": "Dormaa Central",
      "latitude": "7.27750000",
      "longitude": "-2.87833300"
    },
    {
      "id": 149090,
      "name": "Dormaa East",
      "latitude": "7.30000000",
      "longitude": "-2.70000000"
    },
    {
      "id": 149091,
      "name": "Dormaa West",
      "latitude": "7.01666700",
      "longitude": "-3.05000000"
    },
    {
      "id": 149092,
      "name": "Jaman North",
      "latitude": "7.98832340",
      "longitude": "-2.96858690"
    },
    {
      "id": 149093,
      "name": "Jaman South",
      "latitude": "7.70843750",
      "longitude": "-3.07501700"
    },
    {
      "id": 149094,
      "name": "Sunyani",
      "latitude": "7.33803320",
      "longitude": "-2.34871460"
    },
    {
      "id": 149095,
      "name": "Sunyani West",
      "latitude": "7.35660520",
      "longitude": "-2.44618620"
    },
    {
      "id": 149096,
      "name": "Tain",
      "latitude": "8.18114110",
      "longitude": "-2.86487620"
    },
    {
      "id": 149097,
      "name": "Wenchi",
      "latitude": "7.74059920",
      "longitude": "-2.12267880"
    }
  ],
  "country": {
    "id": 83,
    "name": "Ghana",
    "iso3": "GHA",
    "iso2": "GH",
    "numeric_code": "288",
    "phone_code": "233",
    "capital": "Accra",
    "currency": "GHS",
    "currency_name": "Ghanaian cedi",
    "currency_symbol": "GHâ‚µ",
    "tld": ".gh",
    "native": "Ghana",
    "region": "Africa",
    "subregion": "Western Africa",
    "timezones": [
      {
        "zoneName": "Africa/Accra",
        "gmtOffset": 0,
        "gmtOffsetName": "UTCÂ±00",
        "abbreviation": "GMT",
        "tzName": "Greenwich Mean Time"
      }
    ],
    "translations": {
      "kr": "ê°€ë‚˜",
      "pt-BR": "Gana",
      "pt": "Gana",
      "nl": "Ghana",
      "hr": "Gana",
      "fa": "ØºÙ†Ø§",
      "de": "Ghana",
      "es": "Ghana",
      "fr": "Ghana",
      "ja": "ã‚¬ãƒ¼ãƒŠ",
      "it": "Ghana",
      "cn": "åŠ çº³",
      "tr": "Gana"
    },
    "latitude": "8.00000000",
    "longitude": "-2.00000000",
    "emoji": "ðŸ‡¬ðŸ‡­",
    "emojiU": "U+1F1EC U+1F1ED"
  }
}